[
  {
    "id": "apt-진로-수정구단대동",
    "name": "진로",
    "address": "경기도 성남시 수정구 단대동",
    "roadAddress": "경기도 성남시 수정구 단대로23번길 32",
    "type": "apartment",
    "lat": 37.4502253,
    "lng": 127.1561905,
    "buildYear": 1998,
    "units": [
      "apt-진로-수정구단대동-35평형",
      "apt-진로-수정구단대동-18평형",
      "apt-진로-수정구단대동-26평형"
    ]
  },
  {
    "id": "apt-샤르망-수정구신흥동",
    "name": "샤르망",
    "address": "경기도 성남시 수정구 신흥동",
    "roadAddress": "경기도 성남시 수정구 시민로 165",
    "type": "apartment",
    "lat": 37.4419114,
    "lng": 127.1434803,
    "buildYear": 2006,
    "units": [
      "apt-샤르망-수정구신흥동-24평형",
      "apt-샤르망-수정구신흥동-20평형",
      "apt-샤르망-수정구신흥동-23평형",
      "apt-샤르망-수정구신흥동-22평형"
    ]
  },
  {
    "id": "apt-위례래미안이편한세상-수정구창곡동",
    "name": "위례 래미안이편한세상",
    "address": "경기도 성남시 수정구 창곡동",
    "roadAddress": "경기도 성남시 수정구 위례동로 61",
    "type": "apartment",
    "lat": 37.471811,
    "lng": 127.1503876,
    "buildYear": 2016,
    "units": [
      "apt-위례래미안이편한세상-수정구창곡동-23평형",
      "apt-위례래미안이편한세상-수정구창곡동-26평형"
    ]
  },
  {
    "id": "apt-가천대역동부센트레빌1단지-수정구태평동",
    "name": "가천대역동부센트레빌1단지",
    "address": "경기도 성남시 수정구 태평동",
    "roadAddress": "경기도 성남시 수정구 태평로 28",
    "type": "apartment",
    "lat": 37.4485287,
    "lng": 127.1302323,
    "buildYear": 2006,
    "units": [
      "apt-가천대역동부센트레빌1단지-수정구태평동-21평형",
      "apt-가천대역동부센트레빌1단지-수정구태평동-26평형",
      "apt-가천대역동부센트레빌1단지-수정구태평동-25평형",
      "apt-가천대역동부센트레빌1단지-수정구태평동-28평형"
    ]
  },
  {
    "id": "apt-산성역포레스티아-수정구신흥동",
    "name": "산성역포레스티아",
    "address": "경기도 성남시 수정구 신흥동",
    "roadAddress": "경기도 성남시 수정구 수정로 319",
    "type": "apartment",
    "lat": 37.453493,
    "lng": 127.1469508,
    "buildYear": 2020,
    "units": [
      "apt-산성역포레스티아-수정구신흥동-23평형",
      "apt-산성역포레스티아-수정구신흥동-26평형",
      "apt-산성역포레스티아-수정구신흥동-21평형",
      "apt-산성역포레스티아-수정구신흥동-18평형",
      "apt-산성역포레스티아-수정구신흥동-30평형"
    ]
  },
  {
    "id": "apt-단대푸르지오-수정구단대동",
    "name": "단대푸르지오",
    "address": "경기도 성남시 수정구 단대동",
    "roadAddress": "경기도 성남시 수정구 산성대로437번길 7",
    "type": "apartment",
    "lat": 37.4513114,
    "lng": 127.1577003,
    "buildYear": 2012,
    "units": [
      "apt-단대푸르지오-수정구단대동-26평형",
      "apt-단대푸르지오-수정구단대동-35평형",
      "apt-단대푸르지오-수정구단대동-38평형",
      "apt-단대푸르지오-수정구단대동-18평형"
    ]
  },
  {
    "id": "apt-두산-수정구신흥동",
    "name": "두산",
    "address": "경기도 성남시 수정구 신흥동",
    "roadAddress": "경기도 성남시 수정구 공원로 360",
    "type": "apartment",
    "lat": 37.4487768,
    "lng": 127.1430479,
    "buildYear": 1993,
    "units": [
      "apt-두산-수정구신흥동-26평형",
      "apt-두산-수정구신흥동-22평형"
    ]
  },
  {
    "id": "apt-위례센트럴자이-수정구창곡동",
    "name": "위례센트럴자이",
    "address": "경기도 성남시 수정구 창곡동",
    "roadAddress": "경기도 성남시 수정구 위례광장로 97",
    "type": "apartment",
    "lat": 37.473159,
    "lng": 127.1389281,
    "buildYear": 2017,
    "units": [
      "apt-위례센트럴자이-수정구창곡동-26평형",
      "apt-위례센트럴자이-수정구창곡동-16평형",
      "apt-위례센트럴자이-수정구창곡동-18평형",
      "apt-위례센트럴자이-수정구창곡동-23평형"
    ]
  },
  {
    "id": "apt-낙원스카이뷰2-수정구태평동",
    "name": "낙원스카이뷰2",
    "address": "경기도 성남시 수정구 태평동",
    "roadAddress": "경기도 성남시 수정구 성남대로 1254",
    "type": "apartment",
    "lat": 37.4417407,
    "lng": 127.1279028,
    "buildYear": 2005,
    "units": [
      "apt-낙원스카이뷰2-수정구태평동-24평형",
      "apt-낙원스카이뷰2-수정구태평동-25평형"
    ]
  },
  {
    "id": "apt-삼부-수정구수진동",
    "name": "삼부",
    "address": "경기도 성남시 수정구 수진동",
    "roadAddress": "경기도 성남시 수정구 모란로 65",
    "type": "apartment",
    "lat": 37.438913,
    "lng": 127.1256028,
    "buildYear": 1996,
    "units": [
      "apt-삼부-수정구수진동-18평형",
      "apt-삼부-수정구수진동-26평형",
      "apt-삼부-수정구수진동-41평형"
    ]
  },
  {
    "id": "apt-일성오퍼스원-수정구태평동",
    "name": "일성오퍼스원",
    "address": "경기도 성남시 수정구 태평동",
    "roadAddress": "경기도 성남시 수정구 성남대로 1330",
    "type": "apartment",
    "lat": 37.4641803,
    "lng": 127.1262664,
    "buildYear": 2013,
    "units": [
      "apt-일성오퍼스원-수정구태평동-5평형",
      "apt-일성오퍼스원-수정구태평동-10평형"
    ]
  },
  {
    "id": "apt-산성역자이푸르지오2단지-수정구신흥동",
    "name": "산성역자이푸르지오2단지",
    "address": "경기도 성남시 수정구 신흥동",
    "roadAddress": "경기도 성남시 수정구 수정로 288",
    "type": "apartment",
    "lat": 37.450249,
    "lng": 127.1488037,
    "buildYear": 2024,
    "units": [
      "apt-산성역자이푸르지오2단지-수정구신흥동-18평형",
      "apt-산성역자이푸르지오2단지-수정구신흥동-23평형",
      "apt-산성역자이푸르지오2단지-수정구신흥동-26평형"
    ]
  },
  {
    "id": "apt-모란아이하우스-수정구수진동",
    "name": "모란아이하우스",
    "address": "경기도 성남시 수정구 수진동",
    "roadAddress": "경기도 성남시 수정구 모란로 12",
    "type": "apartment",
    "lat": 37.4345861,
    "lng": 127.1280655,
    "buildYear": 2012,
    "units": [
      "apt-모란아이하우스-수정구수진동-5평형"
    ]
  },
  {
    "id": "apt-와이엠프라젠-수정구수진동",
    "name": "와이엠프라젠",
    "address": "경기도 성남시 수정구 수진동",
    "roadAddress": "경기도 성남시 수정구 성남대로 1210",
    "type": "apartment",
    "lat": 37.437988,
    "lng": 127.1285611,
    "buildYear": 2005,
    "units": [
      "apt-와이엠프라젠-수정구수진동-25평형"
    ]
  },
  {
    "id": "apt-미래타운-수정구신흥동",
    "name": "미래타운",
    "address": "경기도 성남시 수정구 신흥동",
    "roadAddress": "경기도 성남시 수정구 탄리로 62",
    "type": "apartment",
    "lat": 37.4416948,
    "lng": 127.1365854,
    "buildYear": 2016,
    "units": [
      "apt-미래타운-수정구신흥동-17평형",
      "apt-미래타운-수정구신흥동-19평형"
    ]
  },
  {
    "id": "apt-산호-수정구수진동",
    "name": "산호",
    "address": "경기도 성남시 수정구 수진동",
    "roadAddress": "경기도 성남시 수정구 모란로 69",
    "type": "apartment",
    "lat": 37.4392188,
    "lng": 127.1255657,
    "buildYear": 1998,
    "units": [
      "apt-산호-수정구수진동-25평형",
      "apt-산호-수정구수진동-18평형"
    ]
  },
  {
    "id": "apt-선경논골-수정구단대동",
    "name": "선경논골",
    "address": "경기도 성남시 수정구 단대동",
    "roadAddress": "경기도 성남시 수정구 논골로 87",
    "type": "apartment",
    "lat": 37.4617389,
    "lng": 127.1571585,
    "buildYear": 1991,
    "units": [
      "apt-선경논골-수정구단대동-13평형",
      "apt-선경논골-수정구단대동-10평형"
    ]
  },
  {
    "id": "apt-위례역푸르지오6단지-수정구창곡동",
    "name": "위례역푸르지오6단지",
    "address": "경기도 성남시 수정구 창곡동",
    "roadAddress": "경기도 성남시 수정구 위례광장로 12",
    "type": "apartment",
    "lat": 37.4652904,
    "lng": 127.1392522,
    "buildYear": 2017,
    "units": [
      "apt-위례역푸르지오6단지-수정구창곡동-25평형"
    ]
  },
  {
    "id": "apt-위례더힐55-수정구창곡동",
    "name": "위례더힐55",
    "address": "경기도 성남시 수정구 창곡동",
    "roadAddress": "경기도 성남시 수정구 위례순환로 220",
    "type": "apartment",
    "lat": 37.46999,
    "lng": 127.1550127,
    "buildYear": 2015,
    "units": [
      "apt-위례더힐55-수정구창곡동-26평형",
      "apt-위례더힐55-수정구창곡동-45평형"
    ]
  },
  {
    "id": "apt-태평동낙원스카이뷰-수정구태평동",
    "name": "태평동낙원스카이뷰",
    "address": "경기도 성남시 수정구 태평동",
    "roadAddress": "경기도 성남시 수정구 수정로 131",
    "type": "apartment",
    "lat": 37.4551853,
    "lng": 127.1499125,
    "buildYear": 2004,
    "units": [
      "apt-태평동낙원스카이뷰-수정구태평동-24평형",
      "apt-태평동낙원스카이뷰-수정구태평동-21평형"
    ]
  },
  {
    "id": "apt-위례역푸르지오4단지-수정구창곡동",
    "name": "위례역푸르지오4단지",
    "address": "경기도 성남시 수정구 창곡동",
    "roadAddress": "경기도 성남시 수정구 위례광장로 36",
    "type": "apartment",
    "lat": 37.4679279,
    "lng": 127.1411387,
    "buildYear": 2017,
    "units": [
      "apt-위례역푸르지오4단지-수정구창곡동-25평형"
    ]
  },
  {
    "id": "apt-산성역자이푸르지오1단지-수정구신흥동",
    "name": "산성역자이푸르지오1단지",
    "address": "경기도 성남시 수정구 신흥동",
    "roadAddress": "경기도 성남시 수정구 수정로 260",
    "type": "apartment",
    "lat": 37.4574903,
    "lng": 127.1511401,
    "buildYear": 2023,
    "units": [
      "apt-산성역자이푸르지오1단지-수정구신흥동-18평형",
      "apt-산성역자이푸르지오1단지-수정구신흥동-23평형",
      "apt-산성역자이푸르지오1단지-수정구신흥동-26평형",
      "apt-산성역자이푸르지오1단지-수정구신흥동-16평형"
    ]
  },
  {
    "id": "apt-판교밸리호반써밋-수정구고등동",
    "name": "판교밸리호반써밋",
    "address": "경기도 성남시 수정구 고등동",
    "roadAddress": "경기도 성남시 수정구 고등로 34",
    "type": "apartment",
    "lat": 37.4291667,
    "lng": 127.0947544,
    "buildYear": 2019,
    "units": [
      "apt-판교밸리호반써밋-수정구고등동-26평형"
    ]
  },
  {
    "id": "apt-판교밸리자이1단지-수정구고등동",
    "name": "판교밸리자이1단지",
    "address": "경기도 성남시 수정구 고등동",
    "roadAddress": "경기도 성남시 수정구 대왕판교로 995",
    "type": "apartment",
    "lat": 37.4138862,
    "lng": 127.1004883,
    "buildYear": 2023,
    "units": [
      "apt-판교밸리자이1단지-수정구고등동-26평형",
      "apt-판교밸리자이1단지-수정구고등동-18평형"
    ]
  },
  {
    "id": "apt-현대-수정구수진동",
    "name": "현대",
    "address": "경기도 성남시 수정구 수진동",
    "roadAddress": "경기도 성남시 수정구 제일로147번길 4",
    "type": "apartment",
    "lat": 37.4398226,
    "lng": 127.1316622,
    "buildYear": 1994,
    "units": [
      "apt-현대-수정구수진동-18평형",
      "apt-현대-수정구수진동-26평형",
      "apt-현대-수정구수진동-37평형",
      "apt-현대-수정구수진동-34평형"
    ]
  },
  {
    "id": "apt-가천대역쌍용스윗닷홈-수정구태평동",
    "name": "가천대역쌍용스윗닷홈",
    "address": "경기도 성남시 수정구 태평동",
    "roadAddress": "경기도 성남시 수정구 태평로 9",
    "type": "apartment",
    "lat": 37.4485287,
    "lng": 127.1302323,
    "buildYear": 2005,
    "units": [
      "apt-가천대역쌍용스윗닷홈-수정구태평동-26평형",
      "apt-가천대역쌍용스윗닷홈-수정구태평동-18평형"
    ]
  },
  {
    "id": "apt-낙원-수정구단대동",
    "name": "낙원",
    "address": "경기도 성남시 수정구 단대동",
    "roadAddress": "경기도 성남시 수정구 수정로466번길 24",
    "type": "apartment",
    "lat": 37.4622456,
    "lng": 127.1584017,
    "buildYear": 2001,
    "units": [
      "apt-낙원-수정구단대동-34평형",
      "apt-낙원-수정구단대동-25평형"
    ]
  },
  {
    "id": "apt-힐스테이트위례-수정구창곡동",
    "name": "힐스테이트위례",
    "address": "경기도 성남시 수정구 창곡동",
    "roadAddress": "경기도 성남시 수정구 위례동로 15",
    "type": "apartment",
    "lat": 37.4671544,
    "lng": 127.1443334,
    "buildYear": 2015,
    "units": [
      "apt-힐스테이트위례-수정구창곡동-34평형",
      "apt-힐스테이트위례-수정구창곡동-30평형"
    ]
  },
  {
    "id": "apt-가천대역두산위브-수정구태평동",
    "name": "가천대역두산위브",
    "address": "경기도 성남시 수정구 태평동",
    "roadAddress": "경기도 성남시 수정구 태평로 65",
    "type": "apartment",
    "lat": 37.4485287,
    "lng": 127.1302323,
    "buildYear": 2018,
    "units": [
      "apt-가천대역두산위브-수정구태평동-21평형",
      "apt-가천대역두산위브-수정구태평동-18평형",
      "apt-가천대역두산위브-수정구태평동-26평형"
    ]
  },
  {
    "id": "apt-진흥더블파크-수정구단대동",
    "name": "진흥더블파크",
    "address": "경기도 성남시 수정구 단대동",
    "roadAddress": "경기도 성남시 수정구 단대로23번길 10",
    "type": "apartment",
    "lat": 37.4502253,
    "lng": 127.1561905,
    "buildYear": 2005,
    "units": [
      "apt-진흥더블파크-수정구단대동-26평형"
    ]
  },
  {
    "id": "apt-삼정그린뷰-수정구수진동",
    "name": "삼정그린뷰",
    "address": "경기도 성남시 수정구 수진동",
    "roadAddress": "경기도 성남시 수정구 수정로 2",
    "type": "apartment",
    "lat": 37.4634985,
    "lng": 127.1689469,
    "buildYear": 2003,
    "units": [
      "apt-삼정그린뷰-수정구수진동-26평형"
    ]
  },
  {
    "id": "apt-선경태평-수정구태평동",
    "name": "선경태평",
    "address": "경기도 성남시 수정구 태평동",
    "roadAddress": "경기도 성남시 수정구 시민로 214",
    "type": "apartment",
    "lat": 37.4419114,
    "lng": 127.1434803,
    "buildYear": 1991,
    "units": [
      "apt-선경태평-수정구태평동-11평형",
      "apt-선경태평-수정구태평동-14평형"
    ]
  },
  {
    "id": "apt-한신-수정구신흥동",
    "name": "한신",
    "address": "경기도 성남시 수정구 신흥동",
    "roadAddress": "경기도 성남시 수정구 산성대로 341",
    "type": "apartment",
    "lat": 37.4616997,
    "lng": 127.1677399,
    "buildYear": 1990,
    "units": [
      "apt-한신-수정구신흥동-18평형",
      "apt-한신-수정구신흥동-26평형"
    ]
  },
  {
    "id": "apt-위례호반써밋에비뉴-수정구창곡동",
    "name": "위례호반써밋에비뉴",
    "address": "경기도 성남시 수정구 창곡동",
    "roadAddress": "경기도 성남시 수정구 위례중앙로 216",
    "type": "apartment",
    "lat": 37.4722874,
    "lng": 127.1542702,
    "buildYear": 2016,
    "units": [
      "apt-위례호반써밋에비뉴-수정구창곡동-30평형"
    ]
  },
  {
    "id": "apt-희망-수정구단대동",
    "name": "희망",
    "address": "경기도 성남시 수정구 단대동",
    "roadAddress": "경기도 성남시 수정구 희망로506번길 13",
    "type": "apartment",
    "lat": 37.4479038,
    "lng": 127.1558386,
    "buildYear": 1984,
    "units": [
      "apt-희망-수정구단대동-14평형",
      "apt-희망-수정구단대동-18평형",
      "apt-희망-수정구단대동-23평형"
    ]
  },
  {
    "id": "apt-삼부르네상스파크1-수정구신흥동",
    "name": "삼부르네상스파크1",
    "address": "경기도 성남시 수정구 신흥동",
    "roadAddress": "경기도 성남시 수정구 수정로 312",
    "type": "apartment",
    "lat": 37.4551853,
    "lng": 127.1499125,
    "buildYear": 2006,
    "units": [
      "apt-삼부르네상스파크1-수정구신흥동-26평형",
      "apt-삼부르네상스파크1-수정구신흥동-20평형",
      "apt-삼부르네상스파크1-수정구신흥동-30평형",
      "apt-삼부르네상스파크1-수정구신흥동-22평형"
    ]
  },
  {
    "id": "apt-위례역푸르지오5단지-수정구창곡동",
    "name": "위례역푸르지오5단지",
    "address": "경기도 성남시 수정구 창곡동",
    "roadAddress": "경기도 성남시 수정구 위례광장로 34",
    "type": "apartment",
    "lat": 37.4732945,
    "lng": 127.1407942,
    "buildYear": 2017,
    "units": [
      "apt-위례역푸르지오5단지-수정구창곡동-25평형"
    ]
  },
  {
    "id": "apt-미도-수정구단대동",
    "name": "미도",
    "address": "경기도 성남시 수정구 단대동",
    "roadAddress": "경기도 성남시 수정구 분당수서로 472",
    "type": "apartment",
    "lat": 37.44659,
    "lng": 127.1551215,
    "buildYear": 1982,
    "units": [
      "apt-미도-수정구단대동-24평형"
    ]
  },
  {
    "id": "apt-엠디-수정구수진동",
    "name": "엠디",
    "address": "경기도 성남시 수정구 수진동",
    "roadAddress": "경기도 성남시 수정구 산성대로 183",
    "type": "apartment",
    "lat": 37.4369215,
    "lng": 127.1388069,
    "buildYear": 2001,
    "units": [
      "apt-엠디-수정구수진동-26평형"
    ]
  },
  {
    "id": "apt-양우내안애-수정구양지동",
    "name": "양우내안애",
    "address": "경기도 성남시 수정구 양지동",
    "roadAddress": "경기도 성남시 수정구 논골로 24",
    "type": "apartment",
    "lat": 37.4580037,
    "lng": 127.1587224,
    "buildYear": 2010,
    "units": [
      "apt-양우내안애-수정구양지동-22평형",
      "apt-양우내안애-수정구양지동-26평형",
      "apt-양우내안애-수정구양지동-18평형"
    ]
  },
  {
    "id": "apt-판교밸리자이3단지-수정구고등동",
    "name": "판교밸리자이3단지",
    "address": "경기도 성남시 수정구 고등동",
    "roadAddress": "경기도 성남시 수정구 대왕판교로 961",
    "type": "apartment",
    "lat": 37.4138862,
    "lng": 127.1004883,
    "buildYear": 2023,
    "units": [
      "apt-판교밸리자이3단지-수정구고등동-18평형"
    ]
  },
  {
    "id": "apt-신세계쉐덴-수정구태평동",
    "name": "신세계쉐덴",
    "address": "경기도 성남시 수정구 태평동",
    "roadAddress": "경기도 성남시 수정구 수정로 201",
    "type": "apartment",
    "lat": 37.4441535,
    "lng": 127.1416884,
    "buildYear": 2010,
    "units": [
      "apt-신세계쉐덴-수정구태평동-26평형",
      "apt-신세계쉐덴-수정구태평동-56평형",
      "apt-신세계쉐덴-수정구태평동-36평형",
      "apt-신세계쉐덴-수정구태평동-31평형"
    ]
  },
  {
    "id": "apt-위례센트럴푸르지오-수정구창곡동",
    "name": "위례센트럴푸르지오",
    "address": "경기도 성남시 수정구 창곡동",
    "roadAddress": "경기도 성남시 수정구 위례순환로 211",
    "type": "apartment",
    "lat": 37.4709179,
    "lng": 127.152828,
    "buildYear": 2016,
    "units": [
      "apt-위례센트럴푸르지오-수정구창곡동-31평형",
      "apt-위례센트럴푸르지오-수정구창곡동-29평형",
      "apt-위례센트럴푸르지오-수정구창곡동-28평형"
    ]
  },
  {
    "id": "apt-청구-수정구신흥동",
    "name": "청구",
    "address": "경기도 성남시 수정구 신흥동",
    "roadAddress": "경기도 성남시 수정구 공원로 340",
    "type": "apartment",
    "lat": 37.4442343,
    "lng": 127.1491085,
    "buildYear": 1994,
    "units": [
      "apt-청구-수정구신흥동-26평형",
      "apt-청구-수정구신흥동-19평형"
    ]
  },
  {
    "id": "apt-태평-수정구태평동",
    "name": "태평",
    "address": "경기도 성남시 수정구 태평동",
    "roadAddress": "경기도 성남시 수정구 시민로 192",
    "type": "apartment",
    "lat": 37.4397089,
    "lng": 127.1277447,
    "buildYear": 1983,
    "units": [
      "apt-태평-수정구태평동-23평형",
      "apt-태평-수정구태평동-19평형"
    ]
  },
  {
    "id": "apt-삼능스페이스향-수정구태평동",
    "name": "삼능스페이스향",
    "address": "경기도 성남시 수정구 태평동",
    "roadAddress": "경기도 성남시 수정구 성남대로 1238",
    "type": "apartment",
    "lat": 37.4403494,
    "lng": 127.1281823,
    "buildYear": 2005,
    "units": [
      "apt-삼능스페이스향-수정구태평동-25평형",
      "apt-삼능스페이스향-수정구태평동-24평형"
    ]
  },
  {
    "id": "apt-우리빌-수정구수진동",
    "name": "우리빌",
    "address": "경기도 성남시 수정구 수진동",
    "roadAddress": "경기도 성남시 수정구 수정로 80",
    "type": "apartment",
    "lat": 37.4399523,
    "lng": 127.1296783,
    "buildYear": 2005,
    "units": [
      "apt-우리빌-수정구수진동-26평형",
      "apt-우리빌-수정구수진동-25평형"
    ]
  },
  {
    "id": "apt-코오롱하늘채-수정구단대동",
    "name": "코오롱하늘채",
    "address": "경기도 성남시 수정구 단대동",
    "roadAddress": "경기도 성남시 수정구 단대로15번길 2",
    "type": "apartment",
    "lat": 37.4519052,
    "lng": 127.1579046,
    "buildYear": 2013,
    "units": [
      "apt-코오롱하늘채-수정구단대동-26평형",
      "apt-코오롱하늘채-수정구단대동-33평형",
      "apt-코오롱하늘채-수정구단대동-18평형"
    ]
  },
  {
    "id": "apt-위례보미리즌빌-수정구창곡동",
    "name": "위례보미리즌빌",
    "address": "경기도 성남시 수정구 창곡동",
    "roadAddress": "경기도 성남시 수정구 위례광장로 82",
    "type": "apartment",
    "lat": 37.4715592,
    "lng": 127.1407801,
    "buildYear": 2017,
    "units": [
      "apt-위례보미리즌빌-수정구창곡동-29평형"
    ]
  },
  {
    "id": "apt-래미안위례-수정구창곡동",
    "name": "래미안위례",
    "address": "경기도 성남시 수정구 창곡동",
    "roadAddress": "경기도 성남시 수정구 위례순환로 150",
    "type": "apartment",
    "lat": 37.4707053,
    "lng": 127.1449103,
    "buildYear": 2015,
    "units": [
      "apt-래미안위례-수정구창곡동-36평형",
      "apt-래미안위례-수정구창곡동-37평형",
      "apt-래미안위례-수정구창곡동-31평형",
      "apt-래미안위례-수정구창곡동-30평형",
      "apt-래미안위례-수정구창곡동-38평형",
      "apt-래미안위례-수정구창곡동-40평형"
    ]
  },
  {
    "id": "apt-위례자이-수정구창곡동",
    "name": "위례자이",
    "address": "경기도 성남시 수정구 창곡동",
    "roadAddress": "경기도 성남시 수정구 위례순환로 100",
    "type": "apartment",
    "lat": 37.4702985,
    "lng": 127.1389254,
    "buildYear": 2016,
    "units": [
      "apt-위례자이-수정구창곡동-31평형",
      "apt-위례자이-수정구창곡동-34평형",
      "apt-위례자이-수정구창곡동-37평형"
    ]
  },
  {
    "id": "apt-밀란체2-수정구수진동",
    "name": "밀란체2",
    "address": "경기도 성남시 수정구 수진동",
    "roadAddress": "경기도 성남시 수정구 산성대로93번길 25",
    "type": "apartment",
    "lat": 37.4363031,
    "lng": 127.1288909,
    "buildYear": 2006,
    "units": [
      "apt-밀란체2-수정구수진동-26평형",
      "apt-밀란체2-수정구수진동-25평형"
    ]
  },
  {
    "id": "apt-셀레스빌-수정구신흥동",
    "name": "셀레스빌",
    "address": "경기도 성남시 수정구 신흥동",
    "roadAddress": "경기도 성남시 수정구 수정로 316",
    "type": "apartment",
    "lat": 37.451326,
    "lng": 127.148249,
    "buildYear": 2007,
    "units": [
      "apt-셀레스빌-수정구신흥동-23평형",
      "apt-셀레스빌-수정구신흥동-26평형",
      "apt-셀레스빌-수정구신흥동-25평형"
    ]
  },
  {
    "id": "apt-판교밸리자이2단지-수정구고등동",
    "name": "판교밸리자이2단지",
    "address": "경기도 성남시 수정구 고등동",
    "roadAddress": "경기도 성남시 수정구 대왕판교로 981",
    "type": "apartment",
    "lat": 37.4138862,
    "lng": 127.1004883,
    "buildYear": 2023,
    "units": [
      "apt-판교밸리자이2단지-수정구고등동-18평형"
    ]
  },
  {
    "id": "apt-밀란체3-수정구수진동",
    "name": "밀란체3",
    "address": "경기도 성남시 수정구 수진동",
    "roadAddress": "경기도 성남시 수정구 성남대로1194번길 3",
    "type": "apartment",
    "lat": 37.4366852,
    "lng": 127.1289201,
    "buildYear": 2006,
    "units": [
      "apt-밀란체3-수정구수진동-22평형",
      "apt-밀란체3-수정구수진동-25평형",
      "apt-밀란체3-수정구수진동-24평형"
    ]
  },
  {
    "id": "apt-통보3-수정구양지동",
    "name": "통보3",
    "address": "경기도 성남시 수정구 양지동",
    "roadAddress": "경기도 성남시 수정구 논골로 34",
    "type": "apartment",
    "lat": 37.4580037,
    "lng": 127.1587224,
    "buildYear": 1983,
    "units": [
      "apt-통보3-수정구양지동-16평형",
      "apt-통보3-수정구양지동-18평형",
      "apt-통보3-수정구양지동-23평형",
      "apt-통보3-수정구양지동-21평형"
    ]
  },
  {
    "id": "apt-가천대역동부센트레빌2단지-수정구태평동",
    "name": "가천대역동부센트레빌2단지",
    "address": "경기도 성남시 수정구 태평동",
    "roadAddress": "경기도 성남시 수정구 제일로 244",
    "type": "apartment",
    "lat": 37.4417381,
    "lng": 127.1313991,
    "buildYear": 2007,
    "units": [
      "apt-가천대역동부센트레빌2단지-수정구태평동-26평형",
      "apt-가천대역동부센트레빌2단지-수정구태평동-21평형",
      "apt-가천대역동부센트레빌2단지-수정구태평동-29평형"
    ]
  },
  {
    "id": "apt-낙원스카이뷰-수정구수진동",
    "name": "낙원스카이뷰",
    "address": "경기도 성남시 수정구 수진동",
    "roadAddress": "경기도 성남시 수정구 수정로 94",
    "type": "apartment",
    "lat": 37.4403143,
    "lng": 127.1308272,
    "buildYear": 2004,
    "units": [
      "apt-낙원스카이뷰-수정구수진동-26평형"
    ]
  },
  {
    "id": "apt-신동아파라디움-수정구신흥동",
    "name": "신동아파라디움",
    "address": "경기도 성남시 수정구 신흥동",
    "roadAddress": "경기도 성남시 수정구 공원로 322",
    "type": "apartment",
    "lat": 37.4487768,
    "lng": 127.1430479,
    "buildYear": 2006,
    "units": [
      "apt-신동아파라디움-수정구신흥동-26평형",
      "apt-신동아파라디움-수정구신흥동-41평형",
      "apt-신동아파라디움-수정구신흥동-40평형",
      "apt-신동아파라디움-수정구신흥동-37평형"
    ]
  },
  {
    "id": "apt-밀란체1-수정구수진동",
    "name": "밀란체1",
    "address": "경기도 성남시 수정구 수진동",
    "roadAddress": "경기도 성남시 수정구 성남대로 1215",
    "type": "apartment",
    "lat": 37.4381235,
    "lng": 127.1274853,
    "buildYear": 2005,
    "units": [
      "apt-밀란체1-수정구수진동-26평형",
      "apt-밀란체1-수정구수진동-35평형"
    ]
  },
  {
    "id": "apt-모란수정빌-수정구수진동",
    "name": "모란수정빌",
    "address": "경기도 성남시 수정구 수진동",
    "roadAddress": "경기도 성남시 수정구 산성대로69번길 9",
    "type": "apartment",
    "lat": 37.4339353,
    "lng": 127.1264605,
    "buildYear": 2001,
    "units": [
      "apt-모란수정빌-수정구수진동-26평형"
    ]
  },
  {
    "id": "apt-미래타운2차-수정구신흥동",
    "name": "미래타운2차",
    "address": "경기도 성남시 수정구 신흥동",
    "roadAddress": "경기도 성남시 수정구 수정로 265",
    "type": "apartment",
    "lat": 37.4574903,
    "lng": 127.1511401,
    "buildYear": 2017,
    "units": [
      "apt-미래타운2차-수정구신흥동-18평형",
      "apt-미래타운2차-수정구신흥동-19평형"
    ]
  },
  {
    "id": "apt-세일띠아모아파트-수정구신흥동",
    "name": "세일띠아모아파트",
    "address": "경기도 성남시 수정구 신흥동",
    "roadAddress": "경기도 성남시 수정구 수정로 282",
    "type": "apartment",
    "lat": 37.4392426,
    "lng": 127.1270251,
    "buildYear": 2017,
    "units": [
      "apt-세일띠아모아파트-수정구신흥동-22평형",
      "apt-세일띠아모아파트-수정구신흥동-17평형"
    ]
  },
  {
    "id": "apt-우성에비뉴-수정구양지동",
    "name": "우성에비뉴",
    "address": "경기도 성남시 수정구 양지동",
    "roadAddress": "경기도 성남시 수정구 논골로36번길 15",
    "type": "apartment",
    "lat": 37.4583185,
    "lng": 127.1608555,
    "buildYear": 2011,
    "units": [
      "apt-우성에비뉴-수정구양지동-26평형",
      "apt-우성에비뉴-수정구양지동-20평형",
      "apt-우성에비뉴-수정구양지동-25평형"
    ]
  },
  {
    "id": "apt-위례아트리버푸르지오2단지-수정구창곡동",
    "name": "위례아트리버푸르지오2단지",
    "address": "경기도 성남시 수정구 창곡동",
    "roadAddress": "경기도 성남시 수정구 위례순환로 130",
    "type": "apartment",
    "lat": 37.4704751,
    "lng": 127.1425653,
    "buildYear": 2016,
    "units": [
      "apt-위례아트리버푸르지오2단지-수정구창곡동-32평형",
      "apt-위례아트리버푸르지오2단지-수정구창곡동-30평형"
    ]
  },
  {
    "id": "apt-동인트루빌2-수정구태평동",
    "name": "동인트루빌2",
    "address": "경기도 성남시 수정구 태평동",
    "roadAddress": "경기도 성남시 수정구 수정로 81",
    "type": "apartment",
    "lat": 37.440466,
    "lng": 127.1293494,
    "buildYear": 2005,
    "units": [
      "apt-동인트루빌2-수정구태평동-25평형",
      "apt-동인트루빌2-수정구태평동-26평형"
    ]
  },
  {
    "id": "apt-세븐빌-수정구수진동",
    "name": "세븐빌",
    "address": "경기도 성남시 수정구 수진동",
    "roadAddress": "경기도 성남시 수정구 수정로56번길 18",
    "type": "apartment",
    "lat": 37.4379131,
    "lng": 127.126875,
    "buildYear": 2005,
    "units": [
      "apt-세븐빌-수정구수진동-19평형",
      "apt-세븐빌-수정구수진동-16평형"
    ]
  },
  {
    "id": "apt-삼익금광1차-중원구금광동",
    "name": "삼익금광1차",
    "address": "경기도 성남시 중원구 금광동",
    "roadAddress": "경기도 성남시 중원구 자혜로16번길 9",
    "type": "apartment",
    "lat": 37.4475803,
    "lng": 127.1602738,
    "buildYear": 1991,
    "units": [
      "apt-삼익금광1차-중원구금광동-13평형",
      "apt-삼익금광1차-중원구금광동-10평형"
    ]
  },
  {
    "id": "apt-산들마을2단지-중원구여수동",
    "name": "산들마을2단지",
    "address": "경기도 성남시 중원구 여수동",
    "roadAddress": "경기도 성남시 중원구 여수울로 51",
    "type": "apartment",
    "lat": 37.4187789,
    "lng": 127.1332136,
    "buildYear": 2015,
    "units": [
      "apt-산들마을2단지-중원구여수동-16평형",
      "apt-산들마을2단지-중원구여수동-18평형"
    ]
  },
  {
    "id": "apt-금호어울림-중원구성남동",
    "name": "금호어울림",
    "address": "경기도 성남시 중원구 성남동",
    "roadAddress": "경기도 성남시 중원구 둔촌대로171번길 6",
    "type": "apartment",
    "lat": 37.4304959,
    "lng": 127.1374931,
    "buildYear": 2006,
    "units": [
      "apt-금호어울림-중원구성남동-26평형",
      "apt-금호어울림-중원구성남동-18평형",
      "apt-금호어울림-중원구성남동-36평형",
      "apt-금호어울림-중원구성남동-23평형"
    ]
  },
  {
    "id": "apt-금광-중원구금광동",
    "name": "금광",
    "address": "경기도 성남시 중원구 금광동",
    "roadAddress": "경기도 성남시 중원구 산성대로426번길 5",
    "type": "apartment",
    "lat": 37.44731,
    "lng": 127.16797,
    "buildYear": 1990,
    "units": [
      "apt-금광-중원구금광동-21평형",
      "apt-금광-중원구금광동-19평형"
    ]
  },
  {
    "id": "apt-연꽃마을4단지-중원구여수동",
    "name": "연꽃마을(4단지)",
    "address": "경기도 성남시 중원구 여수동",
    "roadAddress": "경기도 성남시 중원구 여수울로 50",
    "type": "apartment",
    "lat": 37.4187789,
    "lng": 127.1332136,
    "buildYear": 2012,
    "units": [
      "apt-연꽃마을4단지-중원구여수동-37평형",
      "apt-연꽃마을4단지-중원구여수동-31평형",
      "apt-연꽃마을4단지-중원구여수동-41평형"
    ]
  },
  {
    "id": "apt-일성-중원구상대원동",
    "name": "일성",
    "address": "경기도 성남시 중원구 상대원동",
    "roadAddress": "경기도 성남시 중원구 순환로198번길 12",
    "type": "apartment",
    "lat": 37.4415033,
    "lng": 127.1804183,
    "buildYear": 1993,
    "units": [
      "apt-일성-중원구상대원동-18평형",
      "apt-일성-중원구상대원동-20평형"
    ]
  },
  {
    "id": "apt-선경2차-중원구상대원동",
    "name": "선경2차",
    "address": "경기도 성남시 중원구 상대원동",
    "roadAddress": "경기도 성남시 중원구 금상로 134",
    "type": "apartment",
    "lat": 37.4417889,
    "lng": 127.1700929,
    "buildYear": 1994,
    "units": [
      "apt-선경2차-중원구상대원동-15평형"
    ]
  },
  {
    "id": "apt-아튼빌-중원구하대원동",
    "name": "아튼빌",
    "address": "경기도 성남시 중원구 하대원동",
    "roadAddress": "경기도 성남시 중원구 둔촌대로 300",
    "type": "apartment",
    "lat": 37.4296074,
    "lng": 127.1498876,
    "buildYear": 2003,
    "units": [
      "apt-아튼빌-중원구하대원동-26평형",
      "apt-아튼빌-중원구하대원동-18평형",
      "apt-아튼빌-중원구하대원동-33평형",
      "apt-아튼빌-중원구하대원동-36평형",
      "apt-아튼빌-중원구하대원동-21평형"
    ]
  },
  {
    "id": "apt-신흥역하늘채랜더스원1단지-중원구중앙동",
    "name": "신흥역하늘채랜더스원1단지",
    "address": "경기도 성남시 중원구 중앙동",
    "roadAddress": "경기도 성남시 중원구 광명로 176",
    "type": "apartment",
    "lat": 37.4363892,
    "lng": 127.1405024,
    "buildYear": 2022,
    "units": [
      "apt-신흥역하늘채랜더스원1단지-중원구중앙동-18평형",
      "apt-신흥역하늘채랜더스원1단지-중원구중앙동-23평형",
      "apt-신흥역하늘채랜더스원1단지-중원구중앙동-26평형"
    ]
  },
  {
    "id": "apt-수산리치빌103동-중원구상대원동",
    "name": "수산리치빌103동",
    "address": "경기도 성남시 중원구 상대원동",
    "roadAddress": "경기도 성남시 중원구 희망로 332",
    "type": "apartment",
    "lat": 37.4354646,
    "lng": 127.1583041,
    "buildYear": 2005,
    "units": [
      "apt-수산리치빌103동-중원구상대원동-25평형",
      "apt-수산리치빌103동-중원구상대원동-24평형"
    ]
  },
  {
    "id": "apt-한양수자인성남마크뷰-중원구금광동",
    "name": "한양수자인성남마크뷰",
    "address": "경기도 성남시 중원구 금광동",
    "roadAddress": "경기도 성남시 중원구 광명로 411",
    "type": "apartment",
    "lat": 37.4484468,
    "lng": 127.1723662,
    "buildYear": 2021,
    "units": [
      "apt-한양수자인성남마크뷰-중원구금광동-18평형",
      "apt-한양수자인성남마크뷰-중원구금광동-15평형",
      "apt-한양수자인성남마크뷰-중원구금광동-23평형",
      "apt-한양수자인성남마크뷰-중원구금광동-12평형"
    ]
  },
  {
    "id": "apt-현대-중원구은행동",
    "name": "현대",
    "address": "경기도 성남시 중원구 은행동",
    "roadAddress": "경기도 성남시 중원구 자혜로17번길 16",
    "type": "apartment",
    "lat": 37.4323343,
    "lng": 127.151354,
    "buildYear": 1995,
    "units": [
      "apt-현대-중원구은행동-26평형"
    ]
  },
  {
    "id": "apt-럭키참조은-중원구하대원동",
    "name": "럭키참조은",
    "address": "경기도 성남시 중원구 하대원동",
    "roadAddress": "경기도 성남시 중원구 마지로 29",
    "type": "apartment",
    "lat": 37.4214506,
    "lng": 127.1672532,
    "buildYear": 2008,
    "units": [
      "apt-럭키참조은-중원구하대원동-23평형",
      "apt-럭키참조은-중원구하대원동-24평형"
    ]
  },
  {
    "id": "apt-e편한세상금빛그랑메종1단지-중원구금광동",
    "name": "e편한세상금빛그랑메종1단지",
    "address": "경기도 성남시 중원구 금광동",
    "roadAddress": "경기도 성남시 중원구 금광로 11",
    "type": "apartment",
    "lat": 37.4439413,
    "lng": 127.1637913,
    "buildYear": 2023,
    "units": [
      "apt-e편한세상금빛그랑메종1단지-중원구금광동-18평형",
      "apt-e편한세상금빛그랑메종1단지-중원구금광동-26평형",
      "apt-e편한세상금빛그랑메종1단지-중원구금광동-23평형"
    ]
  },
  {
    "id": "apt-센트럴타운3단지-중원구여수동",
    "name": "센트럴타운(3단지)",
    "address": "경기도 성남시 중원구 여수동",
    "roadAddress": "경기도 성남시 중원구 성남대로 1000",
    "type": "apartment",
    "lat": 37.4236743,
    "lng": 127.1287306,
    "buildYear": 2012,
    "units": [
      "apt-센트럴타운3단지-중원구여수동-26평형",
      "apt-센트럴타운3단지-중원구여수동-23평형"
    ]
  },
  {
    "id": "apt-e편한세상금빛그랑메종4단지-중원구금광동",
    "name": "e편한세상금빛그랑메종4단지",
    "address": "경기도 성남시 중원구 금광동",
    "roadAddress": "경기도 성남시 중원구 금광로 71",
    "type": "apartment",
    "lat": 37.4439413,
    "lng": 127.1637913,
    "buildYear": 2023,
    "units": [
      "apt-e편한세상금빛그랑메종4단지-중원구금광동-26평형",
      "apt-e편한세상금빛그랑메종4단지-중원구금광동-18평형",
      "apt-e편한세상금빛그랑메종4단지-중원구금광동-23평형"
    ]
  },
  {
    "id": "apt-롯데캐슬-중원구중앙동",
    "name": "롯데캐슬",
    "address": "경기도 성남시 중원구 중앙동",
    "roadAddress": "경기도 성남시 중원구 희망로 415",
    "type": "apartment",
    "lat": 37.4427882,
    "lng": 127.1580425,
    "buildYear": 2012,
    "units": [
      "apt-롯데캐슬-중원구중앙동-18평형",
      "apt-롯데캐슬-중원구중앙동-26평형",
      "apt-롯데캐슬-중원구중앙동-35평형"
    ]
  },
  {
    "id": "apt-은빛마을두산위브-중원구은행동",
    "name": "은빛마을(두산위브)",
    "address": "경기도 성남시 중원구 은행동",
    "roadAddress": "경기도 성남시 중원구 은행로 13",
    "type": "apartment",
    "lat": 37.454738,
    "lng": 127.163986,
    "buildYear": 2003,
    "units": [
      "apt-은빛마을두산위브-중원구은행동-17평형"
    ]
  },
  {
    "id": "apt-동부주택브리앙뜨-중원구성남동",
    "name": "동부주택브리앙뜨",
    "address": "경기도 성남시 중원구 성남동",
    "roadAddress": "경기도 성남시 중원구 광명로 55",
    "type": "apartment",
    "lat": 37.4333905,
    "lng": 127.1320404,
    "buildYear": 2004,
    "units": [
      "apt-동부주택브리앙뜨-중원구성남동-23평형",
      "apt-동부주택브리앙뜨-중원구성남동-24평형"
    ]
  },
  {
    "id": "apt-산성-중원구상대원동",
    "name": "산성",
    "address": "경기도 성남시 중원구 상대원동",
    "roadAddress": "경기도 성남시 중원구 사기막골로150번길 10",
    "type": "apartment",
    "lat": 37.4562995,
    "lng": 127.1655408,
    "buildYear": 1997,
    "units": [
      "apt-산성-중원구상대원동-18평형",
      "apt-산성-중원구상대원동-26평형",
      "apt-산성-중원구상대원동-22평형"
    ]
  },
  {
    "id": "apt-중앙동힐스테이트1차-중원구중앙동",
    "name": "중앙동힐스테이트1차",
    "address": "경기도 성남시 중원구 중앙동",
    "roadAddress": "경기도 성남시 중원구 시민로66번길 21",
    "type": "apartment",
    "lat": 37.4358694,
    "lng": 127.1502504,
    "buildYear": 2012,
    "units": [
      "apt-중앙동힐스테이트1차-중원구중앙동-18평형",
      "apt-중앙동힐스테이트1차-중원구중앙동-26평형",
      "apt-중앙동힐스테이트1차-중원구중앙동-37평형",
      "apt-중앙동힐스테이트1차-중원구중앙동-36평형"
    ]
  },
  {
    "id": "apt-궁전-중원구상대원동",
    "name": "궁전",
    "address": "경기도 성남시 중원구 상대원동",
    "roadAddress": "경기도 성남시 중원구 순환로 188",
    "type": "apartment",
    "lat": 37.4397025,
    "lng": 127.1787831,
    "buildYear": 1987,
    "units": [
      "apt-궁전-중원구상대원동-13평형",
      "apt-궁전-중원구상대원동-12평형",
      "apt-궁전-중원구상대원동-17평형",
      "apt-궁전-중원구상대원동-15평형",
      "apt-궁전-중원구상대원동-16평형"
    ]
  },
  {
    "id": "apt-보미리전빌3-중원구성남동",
    "name": "보미리전빌3",
    "address": "경기도 성남시 중원구 성남동",
    "roadAddress": "경기도 성남시 중원구 광명로 114",
    "type": "apartment",
    "lat": 37.4464304,
    "lng": 127.1659246,
    "buildYear": 2003,
    "units": [
      "apt-보미리전빌3-중원구성남동-10평형",
      "apt-보미리전빌3-중원구성남동-13평형"
    ]
  },
  {
    "id": "apt-분당파크뷰-중원구도촌동",
    "name": "東분당파크뷰",
    "address": "경기도 성남시 중원구 도촌동",
    "roadAddress": "경기도 성남시 중원구 도촌남로 101",
    "type": "apartment",
    "lat": 37.4142522,
    "lng": 127.1561992,
    "buildYear": 2013,
    "units": [
      "apt-분당파크뷰-중원구도촌동-36평형",
      "apt-분당파크뷰-중원구도촌동-40평형",
      "apt-분당파크뷰-중원구도촌동-31평형",
      "apt-분당파크뷰-중원구도촌동-30평형"
    ]
  },
  {
    "id": "apt-은행주공-중원구은행동",
    "name": "은행주공",
    "address": "경기도 성남시 중원구 은행동",
    "roadAddress": "경기도 성남시 중원구 산성대로552번길 15",
    "type": "apartment",
    "lat": 37.4593896,
    "lng": 127.1666245,
    "buildYear": 1987,
    "units": [
      "apt-은행주공-중원구은행동-9평형",
      "apt-은행주공-중원구은행동-12평형",
      "apt-은행주공-중원구은행동-19평형",
      "apt-은행주공-중원구은행동-20평형",
      "apt-은행주공-중원구은행동-17평형",
      "apt-은행주공-중원구은행동-25평형",
      "apt-은행주공-중원구은행동-23평형"
    ]
  },
  {
    "id": "apt-래미안금광-중원구금광동",
    "name": "래미안금광",
    "address": "경기도 성남시 중원구 금광동",
    "roadAddress": "경기도 성남시 중원구 황송로 77",
    "type": "apartment",
    "lat": 37.4462019,
    "lng": 127.1711228,
    "buildYear": 2006,
    "units": [
      "apt-래미안금광-중원구금광동-25평형",
      "apt-래미안금광-중원구금광동-18평형",
      "apt-래미안금광-중원구금광동-38평형",
      "apt-래미안금광-중원구금광동-30평형",
      "apt-래미안금광-중원구금광동-35평형"
    ]
  },
  {
    "id": "apt-황송마을-중원구금광동",
    "name": "황송마을",
    "address": "경기도 성남시 중원구 금광동",
    "roadAddress": "경기도 성남시 중원구 황송로 6",
    "type": "apartment",
    "lat": 37.4462019,
    "lng": 127.1711228,
    "buildYear": 1993,
    "units": [
      "apt-황송마을-중원구금광동-15평형"
    ]
  },
  {
    "id": "apt-현대-중원구금광동",
    "name": "현대",
    "address": "경기도 성남시 중원구 금광동",
    "roadAddress": "경기도 성남시 중원구 광명로395번길 7",
    "type": "apartment",
    "lat": 37.4323343,
    "lng": 127.151354,
    "buildYear": 1994,
    "units": [
      "apt-현대-중원구금광동-18평형",
      "apt-현대-중원구금광동-26평형",
      "apt-현대-중원구금광동-21평형"
    ]
  },
  {
    "id": "apt-동분당포레스트-중원구도촌동",
    "name": "동분당포레스트",
    "address": "경기도 성남시 중원구 도촌동",
    "roadAddress": "경기도 성남시 중원구 도촌남로 67",
    "type": "apartment",
    "lat": 37.4146352,
    "lng": 127.1530191,
    "buildYear": 2007,
    "units": [
      "apt-동분당포레스트-중원구도촌동-23평형",
      "apt-동분당포레스트-중원구도촌동-26평형"
    ]
  },
  {
    "id": "apt-e편한세상금빛그랑메종3단지-중원구금광동",
    "name": "e편한세상금빛그랑메종3단지",
    "address": "경기도 성남시 중원구 금광동",
    "roadAddress": "경기도 성남시 중원구 금광로 40",
    "type": "apartment",
    "lat": 37.4439413,
    "lng": 127.1637913,
    "buildYear": 2023,
    "units": [
      "apt-e편한세상금빛그랑메종3단지-중원구금광동-18평형",
      "apt-e편한세상금빛그랑메종3단지-중원구금광동-16평형",
      "apt-e편한세상금빛그랑메종3단지-중원구금광동-23평형"
    ]
  },
  {
    "id": "apt-성원초원-중원구하대원동",
    "name": "성원초원",
    "address": "경기도 성남시 중원구 하대원동",
    "roadAddress": "경기도 성남시 중원구 원터로18번길 19",
    "type": "apartment",
    "lat": 37.4292519,
    "lng": 127.1458986,
    "buildYear": 1995,
    "units": [
      "apt-성원초원-중원구하대원동-18평형",
      "apt-성원초원-중원구하대원동-26평형"
    ]
  },
  {
    "id": "apt-월드뷰-중원구상대원동",
    "name": "월드뷰",
    "address": "경기도 성남시 중원구 상대원동",
    "roadAddress": "경기도 성남시 중원구 희망로 323",
    "type": "apartment",
    "lat": 37.4282221,
    "lng": 127.1614768,
    "buildYear": 2004,
    "units": [
      "apt-월드뷰-중원구상대원동-24평형"
    ]
  },
  {
    "id": "apt-상대원삼익-중원구상대원동",
    "name": "상대원삼익",
    "address": "경기도 성남시 중원구 상대원동",
    "roadAddress": "경기도 성남시 중원구 사기막골로31번길 34",
    "type": "apartment",
    "lat": 37.4375245,
    "lng": 127.1670702,
    "buildYear": 1991,
    "units": [
      "apt-상대원삼익-중원구상대원동-10평형"
    ]
  },
  {
    "id": "apt-성지-중원구상대원동",
    "name": "성지",
    "address": "경기도 성남시 중원구 상대원동",
    "roadAddress": "경기도 성남시 중원구 순환로 178",
    "type": "apartment",
    "lat": 37.4397025,
    "lng": 127.1787831,
    "buildYear": 1989,
    "units": [
      "apt-성지-중원구상대원동-12평형",
      "apt-성지-중원구상대원동-11평형",
      "apt-성지-중원구상대원동-25평형",
      "apt-성지-중원구상대원동-13평형"
    ]
  },
  {
    "id": "apt-은행주공2-중원구은행동",
    "name": "은행주공2",
    "address": "경기도 성남시 중원구 은행동",
    "roadAddress": "경기도 성남시 중원구 산성대로552번길 15",
    "type": "apartment",
    "lat": 37.4593896,
    "lng": 127.1666245,
    "buildYear": 1987,
    "units": [
      "apt-은행주공2-중원구은행동-12평형"
    ]
  },
  {
    "id": "apt-동분당더퍼스트-중원구도촌동",
    "name": "동분당더퍼스트",
    "address": "경기도 성남시 중원구 도촌동",
    "roadAddress": "경기도 성남시 중원구 도촌북로 78",
    "type": "apartment",
    "lat": 37.4157796,
    "lng": 127.158878,
    "buildYear": 2010,
    "units": [
      "apt-동분당더퍼스트-중원구도촌동-23평형",
      "apt-동분당더퍼스트-중원구도촌동-26평형"
    ]
  },
  {
    "id": "apt-LH동분당센트럴파크-중원구도촌동",
    "name": "LH동분당센트럴파크",
    "address": "경기도 성남시 중원구 도촌동",
    "roadAddress": "경기도 성남시 중원구 도촌남로 22",
    "type": "apartment",
    "lat": 37.41539,
    "lng": 127.1478303,
    "buildYear": 2010,
    "units": [
      "apt-LH동분당센트럴파크-중원구도촌동-26평형",
      "apt-LH동분당센트럴파크-중원구도촌동-23평형"
    ]
  },
  {
    "id": "apt-신흥역하늘채랜더스원3단지-중원구중앙동",
    "name": "신흥역하늘채랜더스원3단지",
    "address": "경기도 성남시 중원구 중앙동",
    "roadAddress": "경기도 성남시 중원구 광명로 206",
    "type": "apartment",
    "lat": 37.4464304,
    "lng": 127.1659246,
    "buildYear": 2022,
    "units": [
      "apt-신흥역하늘채랜더스원3단지-중원구중앙동-18평형",
      "apt-신흥역하늘채랜더스원3단지-중원구중앙동-26평형"
    ]
  },
  {
    "id": "apt-성남자이-중원구하대원동",
    "name": "성남자이",
    "address": "경기도 성남시 중원구 하대원동",
    "roadAddress": "경기도 성남시 중원구 둔촌대로 363",
    "type": "apartment",
    "lat": 37.429846,
    "lng": 127.1206831,
    "buildYear": 2007,
    "units": [
      "apt-성남자이-중원구하대원동-26평형",
      "apt-성남자이-중원구하대원동-18평형",
      "apt-성남자이-중원구하대원동-35평형",
      "apt-성남자이-중원구하대원동-38평형"
    ]
  },
  {
    "id": "apt-중앙동힐스테이트2차-중원구중앙동",
    "name": "중앙동힐스테이트2차",
    "address": "경기도 성남시 중원구 중앙동",
    "roadAddress": "경기도 성남시 중원구 시민로 66",
    "type": "apartment",
    "lat": 37.4342441,
    "lng": 127.1487286,
    "buildYear": 2014,
    "units": [
      "apt-중앙동힐스테이트2차-중원구중앙동-26평형",
      "apt-중앙동힐스테이트2차-중원구중앙동-18평형",
      "apt-중앙동힐스테이트2차-중원구중앙동-36평형",
      "apt-중앙동힐스테이트2차-중원구중앙동-37평형"
    ]
  },
  {
    "id": "apt-주원-중원구하대원동",
    "name": "주원",
    "address": "경기도 성남시 중원구 하대원동",
    "roadAddress": "경기도 성남시 중원구 시민로 25",
    "type": "apartment",
    "lat": 37.4342441,
    "lng": 127.1487286,
    "buildYear": 2000,
    "units": [
      "apt-주원-중원구하대원동-26평형"
    ]
  },
  {
    "id": "apt-e편한세상금빛그랑메종5단지-중원구금광동",
    "name": "e편한세상금빛그랑메종5단지",
    "address": "경기도 성남시 중원구 금광동",
    "roadAddress": "경기도 성남시 중원구 금광로 72",
    "type": "apartment",
    "lat": 37.4439413,
    "lng": 127.1637913,
    "buildYear": 2023,
    "units": [
      "apt-e편한세상금빛그랑메종5단지-중원구금광동-18평형",
      "apt-e편한세상금빛그랑메종5단지-중원구금광동-26평형",
      "apt-e편한세상금빛그랑메종5단지-중원구금광동-23평형"
    ]
  },
  {
    "id": "apt-현대-중원구성남동",
    "name": "현대",
    "address": "경기도 성남시 중원구 성남동",
    "roadAddress": "경기도 성남시 중원구 둔촌대로 193",
    "type": "apartment",
    "lat": 37.4323343,
    "lng": 127.151354,
    "buildYear": 1992,
    "units": [
      "apt-현대-중원구성남동-25평형",
      "apt-현대-중원구성남동-19평형",
      "apt-현대-중원구성남동-16평형",
      "apt-현대-중원구성남동-13평형"
    ]
  },
  {
    "id": "apt-산호-중원구상대원동",
    "name": "산호",
    "address": "경기도 성남시 중원구 상대원동",
    "roadAddress": "경기도 성남시 중원구 순환로198번길 14",
    "type": "apartment",
    "lat": 37.4415033,
    "lng": 127.1804183,
    "buildYear": 1992,
    "units": [
      "apt-산호-중원구상대원동-22평형",
      "apt-산호-중원구상대원동-23평형"
    ]
  },
  {
    "id": "apt-대원-중원구하대원동",
    "name": "대원",
    "address": "경기도 성남시 중원구 하대원동",
    "roadAddress": "경기도 성남시 중원구 둔촌대로280번길 12",
    "type": "apartment",
    "lat": 37.4370936,
    "lng": 127.1550265,
    "buildYear": 1986,
    "units": [
      "apt-대원-중원구하대원동-12평형",
      "apt-대원-중원구하대원동-11평형",
      "apt-대원-중원구하대원동-13평형"
    ]
  },
  {
    "id": "apt-현대-중원구하대원동",
    "name": "현대",
    "address": "경기도 성남시 중원구 하대원동",
    "roadAddress": "경기도 성남시 중원구 시민로28번길 6",
    "type": "apartment",
    "lat": 37.4323343,
    "lng": 127.151354,
    "buildYear": 1995,
    "units": [
      "apt-현대-중원구하대원동-26평형",
      "apt-현대-중원구하대원동-36평형",
      "apt-현대-중원구하대원동-18평형"
    ]
  },
  {
    "id": "apt-띠아모-중원구성남동",
    "name": "띠아모",
    "address": "경기도 성남시 중원구 성남동",
    "roadAddress": "경기도 성남시 중원구 제일로63번길 5",
    "type": "apartment",
    "lat": 37.4322783,
    "lng": 127.1340348,
    "buildYear": 2004,
    "units": [
      "apt-띠아모-중원구성남동-26평형"
    ]
  },
  {
    "id": "apt-한빛스위티-중원구성남동",
    "name": "한빛스위티",
    "address": "경기도 성남시 중원구 성남동",
    "roadAddress": "경기도 성남시 중원구 성남대로1130번길 26",
    "type": "apartment",
    "lat": 37.4307806,
    "lng": 127.1316793,
    "buildYear": 2005,
    "units": [
      "apt-한빛스위티-중원구성남동-24평형",
      "apt-한빛스위티-중원구성남동-18평형",
      "apt-한빛스위티-중원구성남동-20평형"
    ]
  },
  {
    "id": "apt-가나1-중원구하대원동",
    "name": "가나1",
    "address": "경기도 성남시 중원구 하대원동",
    "roadAddress": "경기도 성남시 중원구 마지로163번길 13",
    "type": "apartment",
    "lat": 37.4268654,
    "lng": 127.1485762,
    "buildYear": 1997,
    "units": [
      "apt-가나1-중원구하대원동-36평형"
    ]
  },
  {
    "id": "apt-제일-중원구하대원동",
    "name": "제일",
    "address": "경기도 성남시 중원구 하대원동",
    "roadAddress": "경기도 성남시 중원구 둔촌대로190번길 2",
    "type": "apartment",
    "lat": 37.4310986,
    "lng": 127.1339822,
    "buildYear": 1984,
    "units": [
      "apt-제일-중원구하대원동-16평형",
      "apt-제일-중원구하대원동-19평형"
    ]
  },
  {
    "id": "apt-신흥역하늘채랜더스원2단지-중원구중앙동",
    "name": "신흥역하늘채랜더스원2단지",
    "address": "경기도 성남시 중원구 중앙동",
    "roadAddress": "경기도 성남시 중원구 광명로 204",
    "type": "apartment",
    "lat": 37.4464304,
    "lng": 127.1659246,
    "buildYear": 2022,
    "units": [
      "apt-신흥역하늘채랜더스원2단지-중원구중앙동-18평형",
      "apt-신흥역하늘채랜더스원2단지-중원구중앙동-16평형"
    ]
  },
  {
    "id": "apt-e편한세상금빛그랑메종2단지-중원구금광동",
    "name": "e편한세상금빛그랑메종2단지",
    "address": "경기도 성남시 중원구 금광동",
    "roadAddress": "경기도 성남시 중원구 금광로 26",
    "type": "apartment",
    "lat": 37.4439413,
    "lng": 127.1637913,
    "buildYear": 2022,
    "units": [
      "apt-e편한세상금빛그랑메종2단지-중원구금광동-23평형",
      "apt-e편한세상금빛그랑메종2단지-중원구금광동-16평형",
      "apt-e편한세상금빛그랑메종2단지-중원구금광동-18평형"
    ]
  },
  {
    "id": "apt-신동아파밀리에-중원구성남동",
    "name": "신동아파밀리에",
    "address": "경기도 성남시 중원구 성남동",
    "roadAddress": "경기도 성남시 중원구 광명로100번길 4",
    "type": "apartment",
    "lat": 37.4350661,
    "lng": 127.1399731,
    "buildYear": 2005,
    "units": [
      "apt-신동아파밀리에-중원구성남동-23평형",
      "apt-신동아파밀리에-중원구성남동-22평형",
      "apt-신동아파밀리에-중원구성남동-26평형",
      "apt-신동아파밀리에-중원구성남동-25평형"
    ]
  },
  {
    "id": "apt-주원파크빌-중원구하대원동",
    "name": "주원파크빌",
    "address": "경기도 성남시 중원구 하대원동",
    "roadAddress": "경기도 성남시 중원구 둔촌대로 154",
    "type": "apartment",
    "lat": 37.4285178,
    "lng": 127.1325381,
    "buildYear": 2006,
    "units": [
      "apt-주원파크빌-중원구하대원동-26평형"
    ]
  },
  {
    "id": "apt-태연스카이빌-중원구하대원동",
    "name": "태연스카이빌",
    "address": "경기도 성남시 중원구 하대원동",
    "roadAddress": "경기도 성남시 중원구 둔촌대로 274",
    "type": "apartment",
    "lat": 37.4288378,
    "lng": 127.1488745,
    "buildYear": 2002,
    "units": [
      "apt-태연스카이빌-중원구하대원동-22평형"
    ]
  },
  {
    "id": "apt-봇들마을3단지주공-분당구삼평동",
    "name": "봇들마을3단지(주공)",
    "address": "경기도 성남시 분당구 삼평동",
    "roadAddress": "경기도 성남시 분당구 동판교로 225",
    "type": "apartment",
    "lat": 37.3987513673426,
    "lng": 127.116830460102,
    "buildYear": 2009,
    "units": [
      "apt-봇들마을3단지주공-분당구삼평동-18평형",
      "apt-봇들마을3단지주공-분당구삼평동-23평형",
      "apt-봇들마을3단지주공-분당구삼평동-26평형"
    ]
  },
  {
    "id": "apt-미켈란쉐르빌-분당구정자동",
    "name": "미켈란쉐르빌",
    "address": "경기도 성남시 분당구 정자동",
    "roadAddress": "경기도 성남시 분당구 정자일로 100",
    "type": "apartment",
    "lat": 37.3613378183697,
    "lng": 127.105989350458,
    "buildYear": 2003,
    "units": [
      "apt-미켈란쉐르빌-분당구정자동-6평형",
      "apt-미켈란쉐르빌-분당구정자동-59평형",
      "apt-미켈란쉐르빌-분당구정자동-48평형",
      "apt-미켈란쉐르빌-분당구정자동-46평형",
      "apt-미켈란쉐르빌-분당구정자동-50평형",
      "apt-미켈란쉐르빌-분당구정자동-41평형",
      "apt-미켈란쉐르빌-분당구정자동-47평형",
      "apt-미켈란쉐르빌-분당구정자동-10평형",
      "apt-미켈란쉐르빌-분당구정자동-12평형",
      "apt-미켈란쉐르빌-분당구정자동-11평형",
      "apt-미켈란쉐르빌-분당구정자동-74평형",
      "apt-미켈란쉐르빌-분당구정자동-7평형",
      "apt-미켈란쉐르빌-분당구정자동-9평형"
    ]
  },
  {
    "id": "apt-THESHARP판교퍼스트파크-분당구백현동",
    "name": "THESHARP판교퍼스트파크",
    "address": "경기도 성남시 분당구 백현동",
    "roadAddress": "경기도 성남시 분당구 판교백현로 38",
    "type": "apartment",
    "lat": 37.3823779,
    "lng": 127.0985064,
    "buildYear": 2021,
    "units": [
      "apt-THESHARP판교퍼스트파크-분당구백현동-26평형",
      "apt-THESHARP판교퍼스트파크-분당구백현동-35평형",
      "apt-THESHARP판교퍼스트파크-분당구백현동-39평형"
    ]
  },
  {
    "id": "apt-시범삼성-분당구서현동",
    "name": "시범삼성",
    "address": "경기도 성남시 분당구 서현동",
    "roadAddress": "경기도 성남시 분당구 중앙공원로 53",
    "type": "apartment",
    "lat": 37.3810714084689,
    "lng": 127.129716061485,
    "buildYear": 1991,
    "units": [
      "apt-시범삼성-분당구서현동-18평형",
      "apt-시범삼성-분당구서현동-40평형",
      "apt-시범삼성-분당구서현동-26평형",
      "apt-시범삼성-분당구서현동-58평형"
    ]
  },
  {
    "id": "apt-현대IPARK2-분당구정자동",
    "name": "현대I-PARK2",
    "address": "경기도 성남시 분당구 정자동",
    "roadAddress": "경기도 성남시 분당구 정자일로213번길 19",
    "type": "apartment",
    "lat": 37.3701774804762,
    "lng": 127.10532351536,
    "buildYear": 2003,
    "units": [
      "apt-현대IPARK2-분당구정자동-49평형",
      "apt-현대IPARK2-분당구정자동-44평형",
      "apt-현대IPARK2-분당구정자동-26평형"
    ]
  },
  {
    "id": "apt-한솔마을4단지주공-분당구정자동",
    "name": "한솔마을(4단지)(주공)",
    "address": "경기도 성남시 분당구 정자동",
    "roadAddress": "경기도 성남시 분당구 백현로 206",
    "type": "apartment",
    "lat": 37.3724863709846,
    "lng": 127.113020958608,
    "buildYear": 1994,
    "units": [
      "apt-한솔마을4단지주공-분당구정자동-11평형",
      "apt-한솔마을4단지주공-분당구정자동-13평형"
    ]
  },
  {
    "id": "apt-판교호반써밋플레이스-분당구삼평동",
    "name": "판교호반써밋플레이스",
    "address": "경기도 성남시 분당구 삼평동",
    "roadAddress": "경기도 성남시 분당구 동판교로177번길 25",
    "type": "apartment",
    "lat": 37.3973046,
    "lng": 127.1137534,
    "buildYear": 2012,
    "units": [
      "apt-판교호반써밋플레이스-분당구삼평동-40평형",
      "apt-판교호반써밋플레이스-분당구삼평동-41평형"
    ]
  },
  {
    "id": "apt-시범한양-분당구서현동",
    "name": "시범한양",
    "address": "경기도 성남시 분당구 서현동",
    "roadAddress": "경기도 성남시 분당구 중앙공원로 17",
    "type": "apartment",
    "lat": 37.3810714084689,
    "lng": 127.129716061485,
    "buildYear": 1991,
    "units": [
      "apt-시범한양-분당구서현동-9평형",
      "apt-시범한양-분당구서현동-11평형",
      "apt-시범한양-분당구서현동-50평형",
      "apt-시범한양-분당구서현동-26평형",
      "apt-시범한양-분당구서현동-18평형",
      "apt-시범한양-분당구서현동-41평형",
      "apt-시범한양-분당구서현동-45평형",
      "apt-시범한양-분당구서현동-31평형",
      "apt-시범한양-분당구서현동-67평형"
    ]
  },
  {
    "id": "apt-목련마을SK-분당구야탑동",
    "name": "목련마을SK",
    "address": "경기도 성남시 분당구 야탑동",
    "roadAddress": "경기도 성남시 분당구 판교로743번길 7",
    "type": "apartment",
    "lat": 37.4061783218892,
    "lng": 127.155191012049,
    "buildYear": 1998,
    "units": [
      "apt-목련마을SK-분당구야탑동-18평형"
    ]
  },
  {
    "id": "apt-양지마을2단지청구-분당구수내동",
    "name": "양지마을(2단지)(청구)",
    "address": "경기도 성남시 분당구 수내동",
    "roadAddress": "경기도 성남시 분당구 내정로 185",
    "type": "apartment",
    "lat": 37.3688410036702,
    "lng": 127.114797157872,
    "buildYear": 1992,
    "units": [
      "apt-양지마을2단지청구-분당구수내동-26평형",
      "apt-양지마을2단지청구-분당구수내동-41평형",
      "apt-양지마을2단지청구-분당구수내동-53평형",
      "apt-양지마을2단지청구-분당구수내동-60평형"
    ]
  },
  {
    "id": "apt-시범현대-분당구서현동",
    "name": "시범현대",
    "address": "경기도 성남시 분당구 서현동",
    "roadAddress": "경기도 성남시 분당구 중앙공원로 20",
    "type": "apartment",
    "lat": 37.3810714084689,
    "lng": 127.129716061485,
    "buildYear": 1991,
    "units": [
      "apt-시범현대-분당구서현동-18평형",
      "apt-시범현대-분당구서현동-26평형",
      "apt-시범현대-분당구서현동-59평형",
      "apt-시범현대-분당구서현동-15평형",
      "apt-시범현대-분당구서현동-56평형",
      "apt-시범현대-분당구서현동-39평형",
      "apt-시범현대-분당구서현동-50평형",
      "apt-시범현대-분당구서현동-57평형",
      "apt-시범현대-분당구서현동-33평형",
      "apt-시범현대-분당구서현동-53평형"
    ]
  },
  {
    "id": "apt-효자촌삼환-분당구서현동",
    "name": "효자촌(삼환)",
    "address": "경기도 성남시 분당구 서현동",
    "roadAddress": "경기도 성남시 분당구 불정로 361",
    "type": "apartment",
    "lat": 37.3726221063004,
    "lng": 127.137949954999,
    "buildYear": 1992,
    "units": [
      "apt-효자촌삼환-분당구서현동-25평형",
      "apt-효자촌삼환-분당구서현동-29평형",
      "apt-효자촌삼환-분당구서현동-31평형",
      "apt-효자촌삼환-분당구서현동-39평형",
      "apt-효자촌삼환-분당구서현동-14평형",
      "apt-효자촌삼환-분당구서현동-50평형",
      "apt-효자촌삼환-분당구서현동-59평형"
    ]
  },
  {
    "id": "apt-봇들마을4단지주공-분당구삼평동",
    "name": "봇들마을4단지(주공)",
    "address": "경기도 성남시 분당구 삼평동",
    "roadAddress": "경기도 성남시 분당구 동판교로 226",
    "type": "apartment",
    "lat": 37.3987513673426,
    "lng": 127.116830460102,
    "buildYear": 2009,
    "units": [
      "apt-봇들마을4단지주공-분당구삼평동-26평형",
      "apt-봇들마을4단지주공-분당구삼평동-18평형",
      "apt-봇들마을4단지주공-분당구삼평동-23평형"
    ]
  },
  {
    "id": "apt-양지마을5단지한양501514-분당구수내동",
    "name": "양지마을(5단지)(한양501-514)",
    "address": "경기도 성남시 분당구 수내동",
    "roadAddress": "경기도 성남시 분당구 내정로165번길 35",
    "type": "apartment",
    "lat": 37.3754200840288,
    "lng": 127.117029438801,
    "buildYear": 1993,
    "units": [
      "apt-양지마을5단지한양501514-분당구수내동-11평형",
      "apt-양지마을5단지한양501514-분당구수내동-9평형",
      "apt-양지마을5단지한양501514-분당구수내동-15평형",
      "apt-양지마을5단지한양501514-분당구수내동-13평형"
    ]
  },
  {
    "id": "apt-까치마을2단지주공-분당구구미동",
    "name": "까치마을(2단지)(주공)",
    "address": "경기도 성남시 분당구 구미동",
    "roadAddress": "경기도 성남시 분당구 미금일로 22",
    "type": "apartment",
    "lat": 37.3458381569367,
    "lng": 127.110995834022,
    "buildYear": 1995,
    "units": [
      "apt-까치마을2단지주공-분당구구미동-18평형",
      "apt-까치마을2단지주공-분당구구미동-15평형"
    ]
  },
  {
    "id": "apt-한솔마을1단지청구-분당구정자동",
    "name": "한솔마을(1단지)(청구)",
    "address": "경기도 성남시 분당구 정자동",
    "roadAddress": "경기도 성남시 분당구 불정로 219",
    "type": "apartment",
    "lat": 37.3608046082389,
    "lng": 127.111746176398,
    "buildYear": 1994,
    "units": [
      "apt-한솔마을1단지청구-분당구정자동-15평형",
      "apt-한솔마을1단지청구-분당구정자동-26평형",
      "apt-한솔마을1단지청구-분당구정자동-31평형",
      "apt-한솔마을1단지청구-분당구정자동-41평형"
    ]
  },
  {
    "id": "apt-산운마을14단지경남아너스빌-분당구운중동",
    "name": "산운마을14단지(경남아너스빌)",
    "address": "경기도 성남시 분당구 운중동",
    "roadAddress": "경기도 성남시 분당구 판교원로82번길 60",
    "type": "apartment",
    "lat": 37.3861228302611,
    "lng": 127.074351203092,
    "buildYear": 2009,
    "units": [
      "apt-산운마을14단지경남아너스빌-분당구운중동-35평형",
      "apt-산운마을14단지경남아너스빌-분당구운중동-31평형",
      "apt-산운마을14단지경남아너스빌-분당구운중동-37평형",
      "apt-산운마을14단지경남아너스빌-분당구운중동-46평형",
      "apt-산운마을14단지경남아너스빌-분당구운중동-56평형"
    ]
  },
  {
    "id": "apt-효자촌대우-분당구서현동",
    "name": "효자촌(대우)",
    "address": "경기도 성남시 분당구 서현동",
    "roadAddress": "경기도 성남시 분당구 분당로263번길 13",
    "type": "apartment",
    "lat": 37.3704207,
    "lng": 127.1370355,
    "buildYear": 1994,
    "units": [
      "apt-효자촌대우-분당구서현동-26평형",
      "apt-효자촌대우-분당구서현동-16평형",
      "apt-효자촌대우-분당구서현동-21평형"
    ]
  },
  {
    "id": "apt-현대IPARK3-분당구정자동",
    "name": "현대I-PARK3",
    "address": "경기도 성남시 분당구 정자동",
    "roadAddress": "경기도 성남시 분당구 정자일로213번길 5",
    "type": "apartment",
    "lat": 37.3701774804762,
    "lng": 127.10532351536,
    "buildYear": 2003,
    "units": [
      "apt-현대IPARK3-분당구정자동-46평형",
      "apt-현대IPARK3-분당구정자동-26평형",
      "apt-현대IPARK3-분당구정자동-52평형",
      "apt-현대IPARK3-분당구정자동-50평형",
      "apt-현대IPARK3-분당구정자동-48평형",
      "apt-현대IPARK3-분당구정자동-47평형"
    ]
  },
  {
    "id": "apt-봇들마을9단지금호어울림-분당구삼평동",
    "name": "봇들마을9단지(금호어울림)",
    "address": "경기도 성남시 분당구 삼평동",
    "roadAddress": "경기도 성남시 분당구 동판교로 156",
    "type": "apartment",
    "lat": 37.3987513673426,
    "lng": 127.116830460102,
    "buildYear": 2009,
    "units": [
      "apt-봇들마을9단지금호어울림-분당구삼평동-35평형",
      "apt-봇들마을9단지금호어울림-분당구삼평동-31평형",
      "apt-봇들마을9단지금호어울림-분당구삼평동-45평형"
    ]
  },
  {
    "id": "apt-청솔마을유천-분당구금곡동",
    "name": "청솔마을(유천)",
    "address": "경기도 성남시 분당구 금곡동",
    "roadAddress": "경기도 성남시 분당구 정자일로 46",
    "type": "apartment",
    "lat": 37.3506184533259,
    "lng": 127.107606647258,
    "buildYear": 1995,
    "units": [
      "apt-청솔마을유천-분당구금곡동-26평형",
      "apt-청솔마을유천-분당구금곡동-12평형"
    ]
  },
  {
    "id": "apt-백현마을7단지주공-분당구백현동",
    "name": "백현마을7단지(주공)",
    "address": "경기도 성남시 분당구 백현동",
    "roadAddress": "경기도 성남시 분당구 판교역로 98",
    "type": "apartment",
    "lat": 37.3853391396126,
    "lng": 127.11243354368,
    "buildYear": 2009,
    "units": [
      "apt-백현마을7단지주공-분당구백현동-26평형",
      "apt-백현마을7단지주공-분당구백현동-23평형"
    ]
  },
  {
    "id": "apt-양지마을5단지한양515529-분당구수내동",
    "name": "양지마을(5단지)(한양515-529)",
    "address": "경기도 성남시 분당구 수내동",
    "roadAddress": "경기도 성남시 분당구 내정로165번길 35",
    "type": "apartment",
    "lat": 37.3752994,
    "lng": 127.117101,
    "buildYear": 1992,
    "units": [
      "apt-양지마을5단지한양515529-분당구수내동-26평형",
      "apt-양지마을5단지한양515529-분당구수내동-31평형",
      "apt-양지마을5단지한양515529-분당구수내동-41평형",
      "apt-양지마을5단지한양515529-분당구수내동-50평형",
      "apt-양지마을5단지한양515529-분당구수내동-24평형",
      "apt-양지마을5단지한양515529-분당구수내동-61평형",
      "apt-양지마을5단지한양515529-분당구수내동-56평형"
    ]
  },
  {
    "id": "apt-매화마을공무원2-분당구야탑동",
    "name": "매화마을공무원2",
    "address": "경기도 성남시 분당구 야탑동",
    "roadAddress": "경기도 성남시 분당구 장미로 139",
    "type": "apartment",
    "lat": 37.4136253292012,
    "lng": 127.132215267764,
    "buildYear": 1995,
    "units": [
      "apt-매화마을공무원2-분당구야탑동-18평형",
      "apt-매화마을공무원2-분당구야탑동-20평형"
    ]
  },
  {
    "id": "apt-청솔마을계룡-분당구금곡동",
    "name": "청솔마을(계룡)",
    "address": "경기도 성남시 분당구 금곡동",
    "roadAddress": "경기도 성남시 분당구 정자일로 30",
    "type": "apartment",
    "lat": 37.3506184533259,
    "lng": 127.107606647258,
    "buildYear": 1996,
    "units": [
      "apt-청솔마을계룡-분당구금곡동-26평형",
      "apt-청솔마을계룡-분당구금곡동-17평형"
    ]
  },
  {
    "id": "apt-샛별마을라이프-분당구분당동",
    "name": "샛별마을(라이프)",
    "address": "경기도 성남시 분당구 분당동",
    "roadAddress": "경기도 성남시 분당구 분당로 190",
    "type": "apartment",
    "lat": 37.3741666285054,
    "lng": 127.131799827018,
    "buildYear": 1993,
    "units": [
      "apt-샛별마을라이프-분당구분당동-26평형",
      "apt-샛별마을라이프-분당구분당동-18평형",
      "apt-샛별마을라이프-분당구분당동-24평형",
      "apt-샛별마을라이프-분당구분당동-38평형",
      "apt-샛별마을라이프-분당구분당동-27평형",
      "apt-샛별마을라이프-분당구분당동-46평형"
    ]
  },
  {
    "id": "apt-까치마을3단지신원-분당구구미동",
    "name": "까치마을(3단지)(신원)",
    "address": "경기도 성남시 분당구 구미동",
    "roadAddress": "경기도 성남시 분당구 미금로 177",
    "type": "apartment",
    "lat": 37.3367571580584,
    "lng": 127.118938110394,
    "buildYear": 1995,
    "units": [
      "apt-까치마을3단지신원-분당구구미동-26평형",
      "apt-까치마을3단지신원-분당구구미동-51평형",
      "apt-까치마을3단지신원-분당구구미동-31평형",
      "apt-까치마을3단지신원-분당구구미동-18평형",
      "apt-까치마을3단지신원-분당구구미동-40평형",
      "apt-까치마을3단지신원-분당구구미동-49평형"
    ]
  },
  {
    "id": "apt-판교원마을9단지한림풀에버-분당구판교동",
    "name": "판교원마을9단지(한림풀에버)",
    "address": "경기도 성남시 분당구 판교동",
    "roadAddress": "경기도 성남시 분당구 서판교로 29",
    "type": "apartment",
    "lat": 37.3960422612656,
    "lng": 127.098098318392,
    "buildYear": 2009,
    "units": [
      "apt-판교원마을9단지한림풀에버-분당구판교동-26평형",
      "apt-판교원마을9단지한림풀에버-분당구판교동-22평형"
    ]
  },
  {
    "id": "apt-무지개12단지주공뜨란체-분당구구미동",
    "name": "무지개(12단지)(주공뜨란체)",
    "address": "경기도 성남시 분당구 구미동",
    "roadAddress": "경기도 성남시 분당구 미금로22번길 10",
    "type": "apartment",
    "lat": 37.3367571580584,
    "lng": 127.118938110394,
    "buildYear": 1995,
    "units": [
      "apt-무지개12단지주공뜨란체-분당구구미동-18평형",
      "apt-무지개12단지주공뜨란체-분당구구미동-15평형"
    ]
  },
  {
    "id": "apt-탑마을주공-분당구야탑동",
    "name": "탑마을(주공)",
    "address": "경기도 성남시 분당구 야탑동",
    "roadAddress": "경기도 성남시 분당구 매화로 12",
    "type": "apartment",
    "lat": 37.4121102645266,
    "lng": 127.133897927458,
    "buildYear": 1993,
    "units": [
      "apt-탑마을주공-분당구야탑동-11평형",
      "apt-탑마을주공-분당구야탑동-13평형"
    ]
  },
  {
    "id": "apt-정든마을6단지우성-분당구정자동",
    "name": "정든마을(6단지)(우성)",
    "address": "경기도 성남시 분당구 정자동",
    "roadAddress": "경기도 성남시 분당구 불정로 195",
    "type": "apartment",
    "lat": 37.3598925,
    "lng": 127.1062326,
    "buildYear": 1994,
    "units": [
      "apt-정든마을6단지우성-분당구정자동-15평형",
      "apt-정든마을6단지우성-분당구정자동-26평형",
      "apt-정든마을6단지우성-분당구정자동-21평형"
    ]
  },
  {
    "id": "apt-정든마을6단지한진-분당구정자동",
    "name": "정든마을(6단지)(한진)",
    "address": "경기도 성남시 분당구 정자동",
    "roadAddress": "경기도 성남시 분당구 내정로 24",
    "type": "apartment",
    "lat": 37.3694096,
    "lng": 127.1147785,
    "buildYear": 1995,
    "units": [
      "apt-정든마을6단지한진-분당구정자동-41평형",
      "apt-정든마을6단지한진-분당구정자동-34평형",
      "apt-정든마을6단지한진-분당구정자동-30평형",
      "apt-정든마을6단지한진-분당구정자동-49평형"
    ]
  },
  {
    "id": "apt-정든마을5단지신화-분당구정자동",
    "name": "정든마을(5단지)(신화)",
    "address": "경기도 성남시 분당구 정자동",
    "roadAddress": "경기도 성남시 분당구 정자로 112",
    "type": "apartment",
    "lat": 37.363464095084,
    "lng": 127.113901695517,
    "buildYear": 1995,
    "units": [
      "apt-정든마을5단지신화-분당구정자동-35평형",
      "apt-정든마을5단지신화-분당구정자동-16평형",
      "apt-정든마을5단지신화-분당구정자동-21평형",
      "apt-정든마을5단지신화-분당구정자동-26평형",
      "apt-정든마을5단지신화-분당구정자동-31평형",
      "apt-정든마을5단지신화-분당구정자동-49평형",
      "apt-정든마을5단지신화-분당구정자동-41평형"
    ]
  },
  {
    "id": "apt-상록마을우성1-분당구정자동",
    "name": "상록마을(우성)1",
    "address": "경기도 성남시 분당구 정자동",
    "roadAddress": "경기도 성남시 분당구 내정로 55",
    "type": "apartment",
    "lat": 37.3607103278578,
    "lng": 127.113296333528,
    "buildYear": 1994,
    "units": [
      "apt-상록마을우성1-분당구정자동-17평형",
      "apt-상록마을우성1-분당구정자동-31평형",
      "apt-상록마을우성1-분당구정자동-39평형",
      "apt-상록마을우성1-분당구정자동-21평형",
      "apt-상록마을우성1-분당구정자동-26평형",
      "apt-상록마을우성1-분당구정자동-49평형"
    ]
  },
  {
    "id": "apt-판교알파리움2단지-분당구백현동",
    "name": "판교알파리움2단지",
    "address": "경기도 성남시 분당구 백현동",
    "roadAddress": "경기도 성남시 분당구 판교역로 145",
    "type": "apartment",
    "lat": 37.3853391396126,
    "lng": 127.11243354368,
    "buildYear": 2015,
    "units": [
      "apt-판교알파리움2단지-분당구백현동-39평형",
      "apt-판교알파리움2단지-분당구백현동-43평형",
      "apt-판교알파리움2단지-분당구백현동-29평형",
      "apt-판교알파리움2단지-분당구백현동-33평형"
    ]
  },
  {
    "id": "apt-탑마을선경1-분당구야탑동",
    "name": "탑마을(선경)1",
    "address": "경기도 성남시 분당구 야탑동",
    "roadAddress": "경기도 성남시 분당구 야탑로 20",
    "type": "apartment",
    "lat": 37.4093499911129,
    "lng": 127.139204070804,
    "buildYear": 1992,
    "units": [
      "apt-탑마을선경1-분당구야탑동-25평형",
      "apt-탑마을선경1-분당구야탑동-31평형",
      "apt-탑마을선경1-분당구야탑동-16평형",
      "apt-탑마을선경1-분당구야탑동-40평형"
    ]
  },
  {
    "id": "apt-정든마을2단지동아-분당구정자동",
    "name": "정든마을(2단지)(동아)",
    "address": "경기도 성남시 분당구 정자동",
    "roadAddress": "경기도 성남시 분당구 불정로 179",
    "type": "apartment",
    "lat": 37.3608046082389,
    "lng": 127.111746176398,
    "buildYear": 1995,
    "units": [
      "apt-정든마을2단지동아-분당구정자동-15평형",
      "apt-정든마을2단지동아-분당구정자동-21평형",
      "apt-정든마을2단지동아-분당구정자동-26평형"
    ]
  },
  {
    "id": "apt-시범우성-분당구서현동",
    "name": "시범우성",
    "address": "경기도 성남시 분당구 서현동",
    "roadAddress": "경기도 성남시 분당구 중앙공원로 54",
    "type": "apartment",
    "lat": 37.3810714084689,
    "lng": 127.129716061485,
    "buildYear": 1991,
    "units": [
      "apt-시범우성-분당구서현동-14평형",
      "apt-시범우성-분당구서현동-18평형",
      "apt-시범우성-분당구서현동-20평형",
      "apt-시범우성-분당구서현동-26평형",
      "apt-시범우성-분당구서현동-39평형",
      "apt-시범우성-분당구서현동-50평형",
      "apt-시범우성-분당구서현동-59평형",
      "apt-시범우성-분당구서현동-23평형",
      "apt-시범우성-분당구서현동-41평형",
      "apt-시범우성-분당구서현동-40평형"
    ]
  },
  {
    "id": "apt-판교원마을5단지푸르지오-분당구판교동",
    "name": "판교원마을5단지(푸르지오)",
    "address": "경기도 성남시 분당구 판교동",
    "roadAddress": "경기도 성남시 분당구 판교원로 207",
    "type": "apartment",
    "lat": 37.3878118616897,
    "lng": 127.084707149849,
    "buildYear": 2009,
    "units": [
      "apt-판교원마을5단지푸르지오-분당구판교동-35평형",
      "apt-판교원마을5단지푸르지오-분당구판교동-26평형",
      "apt-판교원마을5단지푸르지오-분당구판교동-31평형"
    ]
  },
  {
    "id": "apt-이매촌청구-분당구이매동",
    "name": "이매촌(청구)",
    "address": "경기도 성남시 분당구 이매동",
    "roadAddress": "경기도 성남시 분당구 양현로94번길 29",
    "type": "apartment",
    "lat": 37.390934840402,
    "lng": 127.126027630076,
    "buildYear": 1992,
    "units": [
      "apt-이매촌청구-분당구이매동-40평형",
      "apt-이매촌청구-분당구이매동-59평형",
      "apt-이매촌청구-분당구이매동-26평형",
      "apt-이매촌청구-분당구이매동-31평형",
      "apt-이매촌청구-분당구이매동-18평형",
      "apt-이매촌청구-분당구이매동-37평형"
    ]
  },
  {
    "id": "apt-판교풍경채어바니티5단지-분당구대장동",
    "name": "판교풍경채어바니티(5단지)",
    "address": "경기도 성남시 분당구 대장동",
    "roadAddress": "경기도 성남시 분당구 판교대장로5길 20",
    "type": "apartment",
    "lat": 37.3665745016943,
    "lng": 127.071068626111,
    "buildYear": 2021,
    "units": [
      "apt-판교풍경채어바니티5단지-분당구대장동-26평형"
    ]
  },
  {
    "id": "apt-이매촌동신3-분당구이매동",
    "name": "이매촌(동신3)",
    "address": "경기도 성남시 분당구 이매동",
    "roadAddress": "경기도 성남시 분당구 양현로94번길 28",
    "type": "apartment",
    "lat": 37.390934840402,
    "lng": 127.126027630076,
    "buildYear": 1992,
    "units": [
      "apt-이매촌동신3-분당구이매동-26평형",
      "apt-이매촌동신3-분당구이매동-31평형",
      "apt-이매촌동신3-분당구이매동-18평형",
      "apt-이매촌동신3-분당구이매동-51평형",
      "apt-이매촌동신3-분당구이매동-35평형"
    ]
  },
  {
    "id": "apt-아름마을선경-분당구이매동",
    "name": "아름마을(선경)",
    "address": "경기도 성남시 분당구 이매동",
    "roadAddress": "경기도 성남시 분당구 이매로 11",
    "type": "apartment",
    "lat": 37.3936793054465,
    "lng": 127.130147831891,
    "buildYear": 1993,
    "units": [
      "apt-아름마을선경-분당구이매동-25평형",
      "apt-아름마을선경-분당구이매동-13평형"
    ]
  },
  {
    "id": "apt-파크뷰-분당구정자동",
    "name": "파크뷰",
    "address": "경기도 성남시 분당구 정자동",
    "roadAddress": "경기도 성남시 분당구 정자일로 248",
    "type": "apartment",
    "lat": 37.3613378183697,
    "lng": 127.105989350458,
    "buildYear": 2004,
    "units": [
      "apt-파크뷰-분당구정자동-26평형",
      "apt-파크뷰-분당구정자동-55평형",
      "apt-파크뷰-분당구정자동-49평형",
      "apt-파크뷰-분당구정자동-38평형",
      "apt-파크뷰-분당구정자동-42평형",
      "apt-파크뷰-분당구정자동-60평형"
    ]
  },
  {
    "id": "apt-무지개3단지신한-분당구구미동",
    "name": "무지개(3단지)(신한)",
    "address": "경기도 성남시 분당구 구미동",
    "roadAddress": "경기도 성남시 분당구 미금로 63",
    "type": "apartment",
    "lat": 37.3367571580584,
    "lng": 127.118938110394,
    "buildYear": 1996,
    "units": [
      "apt-무지개3단지신한-분당구구미동-16평형",
      "apt-무지개3단지신한-분당구구미동-22평형",
      "apt-무지개3단지신한-분당구구미동-21평형",
      "apt-무지개3단지신한-분당구구미동-26평형"
    ]
  },
  {
    "id": "apt-장미마을동부-분당구야탑동",
    "name": "장미마을(동부)",
    "address": "경기도 성남시 분당구 야탑동",
    "roadAddress": "경기도 성남시 분당구 장미로 55",
    "type": "apartment",
    "lat": 37.4134102,
    "lng": 127.1331511,
    "buildYear": 1993,
    "units": [
      "apt-장미마을동부-분당구야탑동-18평형",
      "apt-장미마을동부-분당구야탑동-26평형",
      "apt-장미마을동부-분당구야탑동-31평형",
      "apt-장미마을동부-분당구야탑동-21평형",
      "apt-장미마을동부-분당구야탑동-40평형"
    ]
  },
  {
    "id": "apt-양지마을금호1-분당구수내동",
    "name": "양지마을(금호1)",
    "address": "경기도 성남시 분당구 수내동",
    "roadAddress": "경기도 성남시 분당구 수내로 74",
    "type": "apartment",
    "lat": 37.3798425680456,
    "lng": 127.116220995491,
    "buildYear": 1992,
    "units": [
      "apt-양지마을금호1-분당구수내동-40평형",
      "apt-양지마을금호1-분당구수내동-26평형",
      "apt-양지마을금호1-분당구수내동-50평형",
      "apt-양지마을금호1-분당구수내동-59평형",
      "apt-양지마을금호1-분당구수내동-60평형"
    ]
  },
  {
    "id": "apt-파크타운대림-분당구수내동",
    "name": "파크타운(대림)",
    "address": "경기도 성남시 분당구 수내동",
    "roadAddress": "경기도 성남시 분당구 내정로 186",
    "type": "apartment",
    "lat": 37.3688410036702,
    "lng": 127.114797157872,
    "buildYear": 1993,
    "units": [
      "apt-파크타운대림-분당구수내동-26평형",
      "apt-파크타운대림-분당구수내동-31평형",
      "apt-파크타운대림-분당구수내동-40평형",
      "apt-파크타운대림-분당구수내동-18평형",
      "apt-파크타운대림-분당구수내동-56평형",
      "apt-파크타운대림-분당구수내동-41평형",
      "apt-파크타운대림-분당구수내동-58평형",
      "apt-파크타운대림-분당구수내동-57평형"
    ]
  },
  {
    "id": "apt-매화마을주공3-분당구야탑동",
    "name": "매화마을(주공3)",
    "address": "경기도 성남시 분당구 야탑동",
    "roadAddress": "경기도 성남시 분당구 양현로 537",
    "type": "apartment",
    "lat": 37.4113586256456,
    "lng": 127.125952835102,
    "buildYear": 1993,
    "units": [
      "apt-매화마을주공3-분당구야탑동-13평형",
      "apt-매화마을주공3-분당구야탑동-14평형",
      "apt-매화마을주공3-분당구야탑동-12평형",
      "apt-매화마을주공3-분당구야탑동-15평형",
      "apt-매화마을주공3-분당구야탑동-9평형"
    ]
  },
  {
    "id": "apt-이매촌성지-분당구이매동",
    "name": "이매촌(성지)",
    "address": "경기도 성남시 분당구 이매동",
    "roadAddress": "경기도 성남시 분당구 이매로 54",
    "type": "apartment",
    "lat": 37.3947298,
    "lng": 127.122204,
    "buildYear": 1992,
    "units": [
      "apt-이매촌성지-분당구이매동-26평형",
      "apt-이매촌성지-분당구이매동-31평형"
    ]
  },
  {
    "id": "apt-푸른마을쌍용-분당구수내동",
    "name": "푸른마을(쌍용)",
    "address": "경기도 성남시 분당구 수내동",
    "roadAddress": "경기도 성남시 분당구 백현로 265",
    "type": "apartment",
    "lat": 37.3740112903996,
    "lng": 127.113934350668,
    "buildYear": 1993,
    "units": [
      "apt-푸른마을쌍용-분당구수내동-26평형",
      "apt-푸른마을쌍용-분당구수내동-31평형",
      "apt-푸른마을쌍용-분당구수내동-40평형",
      "apt-푸른마을쌍용-분당구수내동-18평형",
      "apt-푸른마을쌍용-분당구수내동-50평형",
      "apt-푸른마을쌍용-분당구수내동-53평형"
    ]
  },
  {
    "id": "apt-정든마을8단지한진-분당구정자동",
    "name": "정든마을(8단지)(한진)",
    "address": "경기도 성남시 분당구 정자동",
    "roadAddress": "경기도 성남시 분당구 불정로 119",
    "type": "apartment",
    "lat": 37.3597148,
    "lng": 127.1176329,
    "buildYear": 1995,
    "units": [
      "apt-정든마을8단지한진-분당구정자동-34평형",
      "apt-정든마을8단지한진-분당구정자동-21평형",
      "apt-정든마을8단지한진-분당구정자동-26평형",
      "apt-정든마을8단지한진-분당구정자동-41평형",
      "apt-정든마을8단지한진-분당구정자동-15평형",
      "apt-정든마을8단지한진-분당구정자동-30평형"
    ]
  },
  {
    "id": "apt-분당더샾스타파크-분당구정자동",
    "name": "분당더샾스타파크",
    "address": "경기도 성남시 분당구 정자동",
    "roadAddress": "경기도 성남시 분당구 정자일로 121",
    "type": "apartment",
    "lat": 37.3613378183697,
    "lng": 127.105989350458,
    "buildYear": 2007,
    "units": [
      "apt-분당더샾스타파크-분당구정자동-35평형",
      "apt-분당더샾스타파크-분당구정자동-26평형"
    ]
  },
  {
    "id": "apt-산운마을6단지신동아파밀리에-분당구운중동",
    "name": "산운마을6단지(신동아파밀리에)",
    "address": "경기도 성남시 분당구 운중동",
    "roadAddress": "경기도 성남시 분당구 산운로 121",
    "type": "apartment",
    "lat": 37.3931362309343,
    "lng": 127.073888910259,
    "buildYear": 2009,
    "units": [
      "apt-산운마을6단지신동아파밀리에-분당구운중동-36평형",
      "apt-산운마을6단지신동아파밀리에-분당구운중동-31평형"
    ]
  },
  {
    "id": "apt-무지개5단지청구-분당구구미동",
    "name": "무지개(5단지)(청구)",
    "address": "경기도 성남시 분당구 구미동",
    "roadAddress": "경기도 성남시 분당구 무지개로 144",
    "type": "apartment",
    "lat": 37.3388639982998,
    "lng": 127.113379855812,
    "buildYear": 1995,
    "units": [
      "apt-무지개5단지청구-분당구구미동-18평형",
      "apt-무지개5단지청구-분당구구미동-26평형"
    ]
  },
  {
    "id": "apt-판교더샵포레스트11단지-분당구대장동",
    "name": "판교더샵포레스트11단지",
    "address": "경기도 성남시 분당구 대장동",
    "roadAddress": "경기도 성남시 분당구 판교대장로5길 58",
    "type": "apartment",
    "lat": 37.3665745016943,
    "lng": 127.071068626111,
    "buildYear": 2021,
    "units": [
      "apt-판교더샵포레스트11단지-분당구대장동-26평형"
    ]
  },
  {
    "id": "apt-청솔마을한라-분당구금곡동",
    "name": "청솔마을(한라)",
    "address": "경기도 성남시 분당구 금곡동",
    "roadAddress": "경기도 성남시 분당구 정자일로 72",
    "type": "apartment",
    "lat": 37.3506184533259,
    "lng": 127.107606647258,
    "buildYear": 1995,
    "units": [
      "apt-청솔마을한라-분당구금곡동-21평형",
      "apt-청솔마을한라-분당구금곡동-26평형",
      "apt-청솔마을한라-분당구금곡동-18평형"
    ]
  },
  {
    "id": "apt-판교원마을7단지모아미래도-분당구판교동",
    "name": "판교원마을7단지(모아미래도)",
    "address": "경기도 성남시 분당구 판교동",
    "roadAddress": "경기도 성남시 분당구 판교원로 237",
    "type": "apartment",
    "lat": 37.3878118616897,
    "lng": 127.084707149849,
    "buildYear": 2009,
    "units": [
      "apt-판교원마을7단지모아미래도-분당구판교동-17평형",
      "apt-판교원마을7단지모아미래도-분당구판교동-25평형",
      "apt-판교원마을7단지모아미래도-분당구판교동-24평형"
    ]
  },
  {
    "id": "apt-현대IPARK1-분당구정자동",
    "name": "현대I-PARK1",
    "address": "경기도 성남시 분당구 정자동",
    "roadAddress": "경기도 성남시 분당구 정자일로 239",
    "type": "apartment",
    "lat": 37.3613378183697,
    "lng": 127.105989350458,
    "buildYear": 2003,
    "units": [
      "apt-현대IPARK1-분당구정자동-24평형",
      "apt-현대IPARK1-분당구정자동-74평형",
      "apt-현대IPARK1-분당구정자동-52평형",
      "apt-현대IPARK1-분당구정자동-47평형",
      "apt-현대IPARK1-분당구정자동-49평형",
      "apt-현대IPARK1-분당구정자동-51평형",
      "apt-현대IPARK1-분당구정자동-59평형",
      "apt-현대IPARK1-분당구정자동-44평형",
      "apt-현대IPARK1-분당구정자동-56평형",
      "apt-현대IPARK1-분당구정자동-71평형",
      "apt-현대IPARK1-분당구정자동-57평형"
    ]
  },
  {
    "id": "apt-동양정자파라곤3단지-분당구정자동",
    "name": "동양정자파라곤(3단지)",
    "address": "경기도 성남시 분당구 정자동",
    "roadAddress": "경기도 성남시 분당구 정자일로 230",
    "type": "apartment",
    "lat": 37.3613378183697,
    "lng": 127.105989350458,
    "buildYear": 2004,
    "units": [
      "apt-동양정자파라곤3단지-분당구정자동-50평형",
      "apt-동양정자파라곤3단지-분당구정자동-44평형",
      "apt-동양정자파라곤3단지-분당구정자동-24평형"
    ]
  },
  {
    "id": "apt-무지개4단지주공-분당구구미동",
    "name": "무지개(4단지)(주공)",
    "address": "경기도 성남시 분당구 구미동",
    "roadAddress": "경기도 성남시 분당구 미금로 66",
    "type": "apartment",
    "lat": 37.3367571580584,
    "lng": 127.118938110394,
    "buildYear": 1995,
    "units": [
      "apt-무지개4단지주공-분당구구미동-18평형",
      "apt-무지개4단지주공-분당구구미동-15평형"
    ]
  },
  {
    "id": "apt-파크타운삼익-분당구수내동",
    "name": "파크타운(삼익)",
    "address": "경기도 성남시 분당구 수내동",
    "roadAddress": "경기도 성남시 분당구 내정로166번길 42",
    "type": "apartment",
    "lat": 37.3717869919063,
    "lng": 127.12112567443,
    "buildYear": 1993,
    "units": [
      "apt-파크타운삼익-분당구수내동-40평형",
      "apt-파크타운삼익-분당구수내동-56평형",
      "apt-파크타운삼익-분당구수내동-31평형",
      "apt-파크타운삼익-분당구수내동-41평형",
      "apt-파크타운삼익-분당구수내동-26평형"
    ]
  },
  {
    "id": "apt-이매촌한신-분당구이매동",
    "name": "이매촌(한신)",
    "address": "경기도 성남시 분당구 이매동",
    "roadAddress": "경기도 성남시 분당구 서현로 181",
    "type": "apartment",
    "lat": 37.3742167,
    "lng": 127.1439657,
    "buildYear": 1993,
    "units": [
      "apt-이매촌한신-분당구이매동-26평형",
      "apt-이매촌한신-분당구이매동-20평형",
      "apt-이매촌한신-분당구이매동-15평형"
    ]
  },
  {
    "id": "apt-로얄팰리스-분당구정자동",
    "name": "로얄팰리스",
    "address": "경기도 성남시 분당구 정자동",
    "roadAddress": "경기도 성남시 분당구 성남대로 449",
    "type": "apartment",
    "lat": 37.365628899414,
    "lng": 127.106455289975,
    "buildYear": 2003,
    "units": [
      "apt-로얄팰리스-분당구정자동-48평형",
      "apt-로얄팰리스-분당구정자동-58평형",
      "apt-로얄팰리스-분당구정자동-52평형",
      "apt-로얄팰리스-분당구정자동-45평형",
      "apt-로얄팰리스-분당구정자동-63평형",
      "apt-로얄팰리스-분당구정자동-74평형",
      "apt-로얄팰리스-분당구정자동-42평형",
      "apt-로얄팰리스-분당구정자동-44평형",
      "apt-로얄팰리스-분당구정자동-64평형",
      "apt-로얄팰리스-분당구정자동-65평형"
    ]
  },
  {
    "id": "apt-이매촌삼성-분당구이매동",
    "name": "이매촌(삼성)",
    "address": "경기도 성남시 분당구 이매동",
    "roadAddress": "경기도 성남시 분당구 양현로 192",
    "type": "apartment",
    "lat": 37.390934840402,
    "lng": 127.126027630076,
    "buildYear": 1994,
    "units": [
      "apt-이매촌삼성-분당구이매동-31평형",
      "apt-이매촌삼성-분당구이매동-22평형",
      "apt-이매촌삼성-분당구이매동-39평형",
      "apt-이매촌삼성-분당구이매동-53평형",
      "apt-이매촌삼성-분당구이매동-18평형",
      "apt-이매촌삼성-분당구이매동-26평형"
    ]
  },
  {
    "id": "apt-무지개6단지건영-분당구구미동",
    "name": "무지개(6단지)(건영)",
    "address": "경기도 성남시 분당구 구미동",
    "roadAddress": "경기도 성남시 분당구 구미로 115",
    "type": "apartment",
    "lat": 37.3384517227768,
    "lng": 127.119834191288,
    "buildYear": 1995,
    "units": [
      "apt-무지개6단지건영-분당구구미동-41평형",
      "apt-무지개6단지건영-분당구구미동-31평형",
      "apt-무지개6단지건영-분당구구미동-49평형"
    ]
  },
  {
    "id": "apt-느티마을3단지공무원-분당구정자동",
    "name": "느티마을(3단지)(공무원)",
    "address": "경기도 성남시 분당구 정자동",
    "roadAddress": "경기도 성남시 분당구 느티로 70",
    "type": "apartment",
    "lat": 37.3685431465027,
    "lng": 127.10954869583,
    "buildYear": 1995,
    "units": [
      "apt-느티마을3단지공무원-분당구정자동-18평형",
      "apt-느티마을3단지공무원-분당구정자동-20평형"
    ]
  },
  {
    "id": "apt-이매촌금강-분당구이매동",
    "name": "이매촌(금강)",
    "address": "경기도 성남시 분당구 이매동",
    "roadAddress": "경기도 성남시 분당구 서현로 177",
    "type": "apartment",
    "lat": 37.3742167,
    "lng": 127.1439657,
    "buildYear": 1992,
    "units": [
      "apt-이매촌금강-분당구이매동-15평형",
      "apt-이매촌금강-분당구이매동-26평형",
      "apt-이매촌금강-분당구이매동-30평형"
    ]
  },
  {
    "id": "apt-청솔마을영남-분당구금곡동",
    "name": "청솔마을(영남)",
    "address": "경기도 성남시 분당구 금곡동",
    "roadAddress": "경기도 성남시 분당구 성남대로171번길 8",
    "type": "apartment",
    "lat": 37.3513704551257,
    "lng": 127.107602867339,
    "buildYear": 1995,
    "units": [
      "apt-청솔마을영남-분당구금곡동-26평형",
      "apt-청솔마을영남-분당구금곡동-21평형",
      "apt-청솔마을영남-분당구금곡동-16평형"
    ]
  },
  {
    "id": "apt-탑마을벽산-분당구야탑동",
    "name": "탑마을(벽산)",
    "address": "경기도 성남시 분당구 야탑동",
    "roadAddress": "경기도 성남시 분당구 야탑로 124",
    "type": "apartment",
    "lat": 37.4093499911129,
    "lng": 127.139204070804,
    "buildYear": 1994,
    "units": [
      "apt-탑마을벽산-분당구야탑동-35평형",
      "apt-탑마을벽산-분당구야탑동-41평형",
      "apt-탑마을벽산-분당구야탑동-21평형",
      "apt-탑마을벽산-분당구야탑동-26평형",
      "apt-탑마을벽산-분당구야탑동-31평형",
      "apt-탑마을벽산-분당구야탑동-18평형"
    ]
  },
  {
    "id": "apt-장미마을현대-분당구야탑동",
    "name": "장미마을(현대)",
    "address": "경기도 성남시 분당구 야탑동",
    "roadAddress": "경기도 성남시 분당구 장미로 101",
    "type": "apartment",
    "lat": 37.4136253292012,
    "lng": 127.132215267764,
    "buildYear": 1993,
    "units": [
      "apt-장미마을현대-분당구야탑동-23평형",
      "apt-장미마을현대-분당구야탑동-13평형",
      "apt-장미마을현대-분당구야탑동-26평형",
      "apt-장미마을현대-분당구야탑동-18평형",
      "apt-장미마을현대-분당구야탑동-40평형",
      "apt-장미마을현대-분당구야탑동-31평형"
    ]
  },
  {
    "id": "apt-판교원마을6단지판교대광로제비앙-분당구판교동",
    "name": "판교원마을6단지(판교대광로제비앙)",
    "address": "경기도 성남시 분당구 판교동",
    "roadAddress": "경기도 성남시 분당구 판교원로 209",
    "type": "apartment",
    "lat": 37.3878118616897,
    "lng": 127.084707149849,
    "buildYear": 2009,
    "units": [
      "apt-판교원마을6단지판교대광로제비앙-분당구판교동-18평형",
      "apt-판교원마을6단지판교대광로제비앙-분당구판교동-25평형"
    ]
  },
  {
    "id": "apt-이매촌삼환-분당구이매동",
    "name": "이매촌(삼환)",
    "address": "경기도 성남시 분당구 이매동",
    "roadAddress": "경기도 성남시 분당구 양현로 220",
    "type": "apartment",
    "lat": 37.390934840402,
    "lng": 127.126027630076,
    "buildYear": 1994,
    "units": [
      "apt-이매촌삼환-분당구이매동-26평형",
      "apt-이매촌삼환-분당구이매동-31평형",
      "apt-이매촌삼환-분당구이매동-35평형",
      "apt-이매촌삼환-분당구이매동-40평형",
      "apt-이매촌삼환-분당구이매동-18평형"
    ]
  },
  {
    "id": "apt-까치마을4단지롯데-분당구구미동",
    "name": "까치마을(4단지)(롯데)",
    "address": "경기도 성남시 분당구 구미동",
    "roadAddress": "경기도 성남시 분당구 미금일로 58",
    "type": "apartment",
    "lat": 37.3458381569367,
    "lng": 127.110995834022,
    "buildYear": 1995,
    "units": [
      "apt-까치마을4단지롯데-분당구구미동-16평형",
      "apt-까치마을4단지롯데-분당구구미동-21평형",
      "apt-까치마을4단지롯데-분당구구미동-41평형",
      "apt-까치마을4단지롯데-분당구구미동-26평형",
      "apt-까치마을4단지롯데-분당구구미동-31평형"
    ]
  },
  {
    "id": "apt-무지개10단지삼성-분당구구미동",
    "name": "무지개(10단지)(삼성)",
    "address": "경기도 성남시 분당구 구미동",
    "roadAddress": "경기도 성남시 분당구 구미로 100",
    "type": "apartment",
    "lat": 37.3382008,
    "lng": 127.1208271,
    "buildYear": 1996,
    "units": [
      "apt-무지개10단지삼성-분당구구미동-41평형",
      "apt-무지개10단지삼성-분당구구미동-31평형"
    ]
  },
  {
    "id": "apt-아름마을두산-분당구이매동",
    "name": "아름마을(두산)",
    "address": "경기도 성남시 분당구 이매동",
    "roadAddress": "경기도 성남시 분당구 탄천로 95",
    "type": "apartment",
    "lat": 37.4281926674793,
    "lng": 127.117407999519,
    "buildYear": 1993,
    "units": [
      "apt-아름마을두산-분당구이매동-48평형",
      "apt-아름마을두산-분당구이매동-54평형",
      "apt-아름마을두산-분당구이매동-40평형",
      "apt-아름마을두산-분당구이매동-26평형",
      "apt-아름마을두산-분당구이매동-18평형",
      "apt-아름마을두산-분당구이매동-31평형"
    ]
  },
  {
    "id": "apt-상록마을라이프2차-분당구정자동",
    "name": "상록마을(라이프2차)",
    "address": "경기도 성남시 분당구 정자동",
    "roadAddress": "경기도 성남시 분당구 정자로76번길 10",
    "type": "apartment",
    "lat": 37.36257681451,
    "lng": 127.113286270857,
    "buildYear": 1994,
    "units": [
      "apt-상록마을라이프2차-분당구정자동-15평형",
      "apt-상록마을라이프2차-분당구정자동-26평형",
      "apt-상록마을라이프2차-분당구정자동-22평형"
    ]
  },
  {
    "id": "apt-아름마을풍림-분당구이매동",
    "name": "아름마을(풍림)",
    "address": "경기도 성남시 분당구 이매동",
    "roadAddress": "경기도 성남시 분당구 탄천로 35",
    "type": "apartment",
    "lat": 37.4281926674793,
    "lng": 127.117407999519,
    "buildYear": 1993,
    "units": [
      "apt-아름마을풍림-분당구이매동-23평형",
      "apt-아름마을풍림-분당구이매동-41평형",
      "apt-아름마을풍림-분당구이매동-31평형",
      "apt-아름마을풍림-분당구이매동-18평형",
      "apt-아름마을풍림-분당구이매동-49평형"
    ]
  },
  {
    "id": "apt-봇들마을2단지이지더원-분당구삼평동",
    "name": "봇들마을2단지(이지더원)",
    "address": "경기도 성남시 분당구 삼평동",
    "roadAddress": "경기도 성남시 분당구 판교로 393",
    "type": "apartment",
    "lat": 37.4037315158232,
    "lng": 127.099034149705,
    "buildYear": 2009,
    "units": [
      "apt-봇들마을2단지이지더원-분당구삼평동-25평형"
    ]
  },
  {
    "id": "apt-판교원마을1단지파라곤-분당구판교동",
    "name": "판교원마을1단지(파라곤)",
    "address": "경기도 성남시 분당구 판교동",
    "roadAddress": "경기도 성남시 분당구 판교로 50",
    "type": "apartment",
    "lat": 37.3983672689709,
    "lng": 127.093182165399,
    "buildYear": 2009,
    "units": [
      "apt-판교원마을1단지파라곤-분당구판교동-31평형",
      "apt-판교원마을1단지파라곤-분당구판교동-36평형",
      "apt-판교원마을1단지파라곤-분당구판교동-46평형"
    ]
  },
  {
    "id": "apt-성원상떼뷰201동-분당구정자동",
    "name": "성원상떼뷰201동",
    "address": "경기도 성남시 분당구 정자동",
    "roadAddress": "경기도 성남시 분당구 정자일로213번길 18",
    "type": "apartment",
    "lat": 37.3701378,
    "lng": 127.1053174,
    "buildYear": 2004,
    "units": [
      "apt-성원상떼뷰201동-분당구정자동-44평형",
      "apt-성원상떼뷰201동-분당구정자동-26평형"
    ]
  },
  {
    "id": "apt-산운마을11단지판교포레라움-분당구운중동",
    "name": "산운마을11단지(판교포레라움)",
    "address": "경기도 성남시 분당구 운중동",
    "roadAddress": "경기도 성남시 분당구 판교원로 68",
    "type": "apartment",
    "lat": 37.3899460288483,
    "lng": 127.067634641202,
    "buildYear": 2009,
    "units": [
      "apt-산운마을11단지판교포레라움-분당구운중동-18평형",
      "apt-산운마을11단지판교포레라움-분당구운중동-15평형"
    ]
  },
  {
    "id": "apt-까치마을1단지대우롯데선경-분당구구미동",
    "name": "까치마을(1단지)(대우롯데선경)",
    "address": "경기도 성남시 분당구 구미동",
    "roadAddress": "경기도 성남시 분당구 미금로 184",
    "type": "apartment",
    "lat": 37.3367571580584,
    "lng": 127.118938110394,
    "buildYear": 1995,
    "units": [
      "apt-까치마을1단지대우롯데선경-분당구구미동-21평형",
      "apt-까치마을1단지대우롯데선경-분당구구미동-26평형",
      "apt-까치마을1단지대우롯데선경-분당구구미동-16평형",
      "apt-까치마을1단지대우롯데선경-분당구구미동-41평형",
      "apt-까치마을1단지대우롯데선경-분당구구미동-31평형"
    ]
  },
  {
    "id": "apt-봇들마을1단지판교신미주-분당구삼평동",
    "name": "봇들마을1단지(판교신미주)",
    "address": "경기도 성남시 분당구 삼평동",
    "roadAddress": "경기도 성남시 분당구 동판교로 275",
    "type": "apartment",
    "lat": 37.3987513673426,
    "lng": 127.116830460102,
    "buildYear": 2009,
    "units": [
      "apt-봇들마을1단지판교신미주-분당구삼평동-25평형"
    ]
  },
  {
    "id": "apt-산운마을13단지태영-분당구운중동",
    "name": "산운마을13단지(태영)",
    "address": "경기도 성남시 분당구 운중동",
    "roadAddress": "경기도 성남시 분당구 판교원로82번길 30",
    "type": "apartment",
    "lat": 37.3861228302611,
    "lng": 127.074351203092,
    "buildYear": 2010,
    "units": [
      "apt-산운마을13단지태영-분당구운중동-35평형",
      "apt-산운마을13단지태영-분당구운중동-26평형",
      "apt-산운마을13단지태영-분당구운중동-31평형"
    ]
  },
  {
    "id": "apt-파크타운롯데-분당구수내동",
    "name": "파크타운(롯데)",
    "address": "경기도 성남시 분당구 수내동",
    "roadAddress": "경기도 성남시 분당구 내정로 152",
    "type": "apartment",
    "lat": 37.3688410036702,
    "lng": 127.114797157872,
    "buildYear": 1993,
    "units": [
      "apt-파크타운롯데-분당구수내동-31평형",
      "apt-파크타운롯데-분당구수내동-26평형",
      "apt-파크타운롯데-분당구수내동-41평형",
      "apt-파크타운롯데-분당구수내동-40평형",
      "apt-파크타운롯데-분당구수내동-56평형",
      "apt-파크타운롯데-분당구수내동-58평형"
    ]
  },
  {
    "id": "apt-장미마을코오롱1-분당구야탑동",
    "name": "장미마을(코오롱)1",
    "address": "경기도 성남시 분당구 야탑동",
    "roadAddress": "경기도 성남시 분당구 장미로 55",
    "type": "apartment",
    "lat": 37.4136253292012,
    "lng": 127.132215267764,
    "buildYear": 1993,
    "units": [
      "apt-장미마을코오롱1-분당구야탑동-18평형",
      "apt-장미마을코오롱1-분당구야탑동-22평형",
      "apt-장미마을코오롱1-분당구야탑동-41평형",
      "apt-장미마을코오롱1-분당구야탑동-26평형",
      "apt-장미마을코오롱1-분당구야탑동-31평형"
    ]
  },
  {
    "id": "apt-효자촌미래타운-분당구서현동",
    "name": "효자촌(미래타운)",
    "address": "경기도 성남시 분당구 서현동",
    "roadAddress": "경기도 성남시 분당구 불정로376번길 31",
    "type": "apartment",
    "lat": 37.3731251042723,
    "lng": 127.138757989543,
    "buildYear": 1994,
    "units": [
      "apt-효자촌미래타운-분당구서현동-41평형",
      "apt-효자촌미래타운-분당구서현동-31평형"
    ]
  },
  {
    "id": "apt-이매촌동신9-분당구이매동",
    "name": "이매촌(동신9)",
    "address": "경기도 성남시 분당구 이매동",
    "roadAddress": "경기도 성남시 분당구 양현로166번길 20",
    "type": "apartment",
    "lat": 37.3986767035056,
    "lng": 127.126772199492,
    "buildYear": 1992,
    "units": [
      "apt-이매촌동신9-분당구이매동-35평형",
      "apt-이매촌동신9-분당구이매동-18평형",
      "apt-이매촌동신9-분당구이매동-31평형",
      "apt-이매촌동신9-분당구이매동-26평형",
      "apt-이매촌동신9-분당구이매동-41평형"
    ]
  },
  {
    "id": "apt-무지개7단지라이프-분당구구미동",
    "name": "무지개(7단지)(라이프)",
    "address": "경기도 성남시 분당구 구미동",
    "roadAddress": "경기도 성남시 분당구 구미로 143",
    "type": "apartment",
    "lat": 37.3384517227768,
    "lng": 127.119834191288,
    "buildYear": 1995,
    "units": [
      "apt-무지개7단지라이프-분당구구미동-40평형",
      "apt-무지개7단지라이프-분당구구미동-49평형",
      "apt-무지개7단지라이프-분당구구미동-31평형"
    ]
  },
  {
    "id": "apt-삼성아데나루체-분당구정자동",
    "name": "삼성아데나루체",
    "address": "경기도 성남시 분당구 정자동",
    "roadAddress": "경기도 성남시 분당구 정자일로 120",
    "type": "apartment",
    "lat": 37.3613378183697,
    "lng": 127.105989350458,
    "buildYear": 2004,
    "units": [
      "apt-삼성아데나루체-분당구정자동-39평형",
      "apt-삼성아데나루체-분당구정자동-26평형",
      "apt-삼성아데나루체-분당구정자동-46평형",
      "apt-삼성아데나루체-분당구정자동-43평형",
      "apt-삼성아데나루체-분당구정자동-41평형"
    ]
  },
  {
    "id": "apt-한솔마을6단지주공-분당구정자동",
    "name": "한솔마을(6단지)(주공)",
    "address": "경기도 성남시 분당구 정자동",
    "roadAddress": "경기도 성남시 분당구 내정로 54",
    "type": "apartment",
    "lat": 37.3607103278578,
    "lng": 127.113296333528,
    "buildYear": 1995,
    "units": [
      "apt-한솔마을6단지주공-분당구정자동-12평형",
      "apt-한솔마을6단지주공-분당구정자동-18평형",
      "apt-한솔마을6단지주공-분당구정자동-11평형"
    ]
  },
  {
    "id": "apt-산운마을12단지판교센트럴포레와이시티-분당구운중동",
    "name": "산운마을12단지판교센트럴포레와이시티",
    "address": "경기도 성남시 분당구 운중동",
    "roadAddress": "경기도 성남시 분당구 판교원로 46",
    "type": "apartment",
    "lat": 37.3899460288483,
    "lng": 127.067634641202,
    "buildYear": 2009,
    "units": [
      "apt-산운마을12단지판교센트럴포레와이시티-분당구운중동-17평형",
      "apt-산운마을12단지판교센트럴포레와이시티-분당구운중동-18평형"
    ]
  },
  {
    "id": "apt-탑마을경남1-분당구야탑동",
    "name": "탑마을(경남)1",
    "address": "경기도 성남시 분당구 야탑동",
    "roadAddress": "경기도 성남시 분당구 판교로 519",
    "type": "apartment",
    "lat": 37.4059725007389,
    "lng": 127.122271876441,
    "buildYear": 1994,
    "units": [
      "apt-탑마을경남1-분당구야탑동-41평형",
      "apt-탑마을경남1-분당구야탑동-21평형",
      "apt-탑마을경남1-분당구야탑동-35평형",
      "apt-탑마을경남1-분당구야탑동-31평형",
      "apt-탑마을경남1-분당구야탑동-26평형",
      "apt-탑마을경남1-분당구야탑동-18평형"
    ]
  },
  {
    "id": "apt-아름마을삼호-분당구이매동",
    "name": "아름마을(삼호)",
    "address": "경기도 성남시 분당구 이매동",
    "roadAddress": "경기도 성남시 분당구 탄천로 95",
    "type": "apartment",
    "lat": 37.4094997,
    "lng": 127.1229073,
    "buildYear": 1993,
    "units": [
      "apt-아름마을삼호-분당구이매동-40평형",
      "apt-아름마을삼호-분당구이매동-48평형",
      "apt-아름마을삼호-분당구이매동-26평형",
      "apt-아름마을삼호-분당구이매동-18평형",
      "apt-아름마을삼호-분당구이매동-31평형"
    ]
  },
  {
    "id": "apt-현대IPARK-분당구야탑동",
    "name": "현대I-PARK",
    "address": "경기도 성남시 분당구 야탑동",
    "roadAddress": "경기도 성남시 분당구 야탑로 125",
    "type": "apartment",
    "lat": 37.4093499911129,
    "lng": 127.139204070804,
    "buildYear": 2003,
    "units": [
      "apt-현대IPARK-분당구야탑동-44평형",
      "apt-현대IPARK-분당구야탑동-36평형",
      "apt-현대IPARK-분당구야탑동-54평형"
    ]
  },
  {
    "id": "apt-두산위브트레지움-분당구금곡동",
    "name": "두산위브트레지움",
    "address": "경기도 성남시 분당구 금곡동",
    "roadAddress": "경기도 성남시 분당구 정자일로 55",
    "type": "apartment",
    "lat": 37.3506184533259,
    "lng": 127.107606647258,
    "buildYear": 2003,
    "units": [
      "apt-두산위브트레지움-분당구금곡동-45평형",
      "apt-두산위브트레지움-분당구금곡동-26평형",
      "apt-두산위브트레지움-분당구금곡동-37평형",
      "apt-두산위브트레지움-분당구금곡동-36평형"
    ]
  },
  {
    "id": "apt-이매촌진흥-분당구이매동",
    "name": "이매촌(진흥)",
    "address": "경기도 성남시 분당구 이매동",
    "roadAddress": "경기도 성남시 분당구 양현로 138",
    "type": "apartment",
    "lat": 37.390934840402,
    "lng": 127.126027630076,
    "buildYear": 1993,
    "units": [
      "apt-이매촌진흥-분당구이매동-41평형",
      "apt-이매촌진흥-분당구이매동-26평형",
      "apt-이매촌진흥-분당구이매동-18평형",
      "apt-이매촌진흥-분당구이매동-31평형"
    ]
  },
  {
    "id": "apt-양지마을3단지금호-분당구수내동",
    "name": "양지마을(3단지)(금호)",
    "address": "경기도 성남시 분당구 수내동",
    "roadAddress": "경기도 성남시 분당구 내정로 151",
    "type": "apartment",
    "lat": 37.3688410036702,
    "lng": 127.114797157872,
    "buildYear": 1992,
    "units": [
      "apt-양지마을3단지금호-분당구수내동-31평형",
      "apt-양지마을3단지금호-분당구수내동-41평형",
      "apt-양지마을3단지금호-분당구수내동-58평형"
    ]
  },
  {
    "id": "apt-까치마을4단지선경-분당구구미동",
    "name": "까치마을(4단지)(선경)",
    "address": "경기도 성남시 분당구 구미동",
    "roadAddress": "경기도 성남시 분당구 미금일로 58",
    "type": "apartment",
    "lat": 37.3473649,
    "lng": 127.107228,
    "buildYear": 1995,
    "units": [
      "apt-까치마을4단지선경-분당구구미동-16평형",
      "apt-까치마을4단지선경-분당구구미동-26평형",
      "apt-까치마을4단지선경-분당구구미동-21평형",
      "apt-까치마을4단지선경-분당구구미동-31평형",
      "apt-까치마을4단지선경-분당구구미동-41평형"
    ]
  },
  {
    "id": "apt-힐스테이트판교엘포레A4BL-분당구대장동",
    "name": "힐스테이트판교엘포레A4BL",
    "address": "경기도 성남시 분당구 대장동",
    "roadAddress": "경기도 성남시 분당구 판교대장로5길 19",
    "type": "apartment",
    "lat": 37.3665745016943,
    "lng": 127.071068626111,
    "buildYear": 2021,
    "units": [
      "apt-힐스테이트판교엘포레A4BL-분당구대장동-40평형"
    ]
  },
  {
    "id": "apt-분당하우스토리-분당구금곡동",
    "name": "분당하우스토리",
    "address": "경기도 성남시 분당구 금곡동",
    "roadAddress": "경기도 성남시 분당구 정자일로 15",
    "type": "apartment",
    "lat": 37.3506184533259,
    "lng": 127.107606647258,
    "buildYear": 2004,
    "units": [
      "apt-분당하우스토리-분당구금곡동-54평형",
      "apt-분당하우스토리-분당구금곡동-26평형",
      "apt-분당하우스토리-분당구금곡동-40평형",
      "apt-분당하우스토리-분당구금곡동-48평형"
    ]
  },
  {
    "id": "apt-매화마을주공4-분당구야탑동",
    "name": "매화마을(주공4)",
    "address": "경기도 성남시 분당구 야탑동",
    "roadAddress": "경기도 성남시 분당구 장미로 193",
    "type": "apartment",
    "lat": 37.4136253292012,
    "lng": 127.132215267764,
    "buildYear": 1993,
    "units": [
      "apt-매화마을주공4-분당구야탑동-11평형",
      "apt-매화마을주공4-분당구야탑동-13평형"
    ]
  },
  {
    "id": "apt-산운마을9단지대방노블랜드-분당구운중동",
    "name": "산운마을9단지(대방노블랜드)",
    "address": "경기도 성남시 분당구 운중동",
    "roadAddress": "경기도 성남시 분당구 산운로 126",
    "type": "apartment",
    "lat": 37.3931362309343,
    "lng": 127.073888910259,
    "buildYear": 2008,
    "units": [
      "apt-산운마을9단지대방노블랜드-분당구운중동-26평형",
      "apt-산운마을9단지대방노블랜드-분당구운중동-18평형"
    ]
  },
  {
    "id": "apt-효자촌럭키-분당구서현동",
    "name": "효자촌(럭키)",
    "address": "경기도 성남시 분당구 서현동",
    "roadAddress": "경기도 성남시 분당구 불정로 362",
    "type": "apartment",
    "lat": 37.3720121,
    "lng": 127.135631,
    "buildYear": 1994,
    "units": [
      "apt-효자촌럭키-분당구서현동-16평형",
      "apt-효자촌럭키-분당구서현동-21평형",
      "apt-효자촌럭키-분당구서현동-26평형"
    ]
  },
  {
    "id": "apt-하얀마을5단지주공-분당구구미동",
    "name": "하얀마을(5단지)(주공)",
    "address": "경기도 성남시 분당구 구미동",
    "roadAddress": "경기도 성남시 분당구 미금일로 21",
    "type": "apartment",
    "lat": 37.3458381569367,
    "lng": 127.110995834022,
    "buildYear": 1995,
    "units": [
      "apt-하얀마을5단지주공-분당구구미동-11평형",
      "apt-하얀마을5단지주공-분당구구미동-12평형"
    ]
  },
  {
    "id": "apt-샛별마을삼부-분당구분당동",
    "name": "샛별마을(삼부)",
    "address": "경기도 성남시 분당구 분당동",
    "roadAddress": "경기도 성남시 분당구 수내로 201",
    "type": "apartment",
    "lat": 37.3763175773921,
    "lng": 127.12089834593,
    "buildYear": 1992,
    "units": [
      "apt-샛별마을삼부-분당구분당동-18평형",
      "apt-샛별마을삼부-분당구분당동-39평형",
      "apt-샛별마을삼부-분당구분당동-26평형",
      "apt-샛별마을삼부-분당구분당동-21평형"
    ]
  },
  {
    "id": "apt-아름마을건영-분당구이매동",
    "name": "아름마을(건영)",
    "address": "경기도 성남시 분당구 이매동",
    "roadAddress": "경기도 성남시 분당구 판교로 430",
    "type": "apartment",
    "lat": 37.4051627,
    "lng": 127.1493982,
    "buildYear": 1992,
    "units": [
      "apt-아름마을건영-분당구이매동-41평형",
      "apt-아름마을건영-분당구이매동-59평형",
      "apt-아름마을건영-분당구이매동-31평형",
      "apt-아름마을건영-분당구이매동-49평형"
    ]
  },
  {
    "id": "apt-더샵분당파크리버-분당구정자동",
    "name": "더샵분당파크리버",
    "address": "경기도 성남시 분당구 정자동",
    "roadAddress": "경기도 성남시 분당구 돌마로 171",
    "type": "apartment",
    "lat": 37.3693402,
    "lng": 127.1220036,
    "buildYear": 2021,
    "units": [
      "apt-더샵분당파크리버-분당구정자동-23평형",
      "apt-더샵분당파크리버-분당구정자동-18평형",
      "apt-더샵분당파크리버-분당구정자동-26평형"
    ]
  },
  {
    "id": "apt-판교푸르지오그랑블-분당구백현동",
    "name": "판교푸르지오그랑블",
    "address": "경기도 성남시 분당구 백현동",
    "roadAddress": "경기도 성남시 분당구 동판교로 123",
    "type": "apartment",
    "lat": 37.3865611039922,
    "lng": 127.114409643452,
    "buildYear": 2011,
    "units": [
      "apt-판교푸르지오그랑블-분당구백현동-30평형",
      "apt-판교푸르지오그랑블-분당구백현동-36평형",
      "apt-판교푸르지오그랑블-분당구백현동-31평형",
      "apt-판교푸르지오그랑블-분당구백현동-42평형",
      "apt-판교푸르지오그랑블-분당구백현동-32평형"
    ]
  },
  {
    "id": "apt-효자촌동아-분당구서현동",
    "name": "효자촌(동아)",
    "address": "경기도 성남시 분당구 서현동",
    "roadAddress": "경기도 성남시 분당구 돌마로486번길 7",
    "type": "apartment",
    "lat": 37.3761240894187,
    "lng": 127.135402383145,
    "buildYear": 1992,
    "units": [
      "apt-효자촌동아-분당구서현동-18평형",
      "apt-효자촌동아-분당구서현동-26평형",
      "apt-효자촌동아-분당구서현동-31평형",
      "apt-효자촌동아-분당구서현동-50평형",
      "apt-효자촌동아-분당구서현동-39평형"
    ]
  },
  {
    "id": "apt-판교원마을12단지힐스테이트-분당구판교동",
    "name": "판교원마을12단지(힐스테이트)",
    "address": "경기도 성남시 분당구 판교동",
    "roadAddress": "경기도 성남시 분당구 서판교로 165",
    "type": "apartment",
    "lat": 37.3960422612656,
    "lng": 127.098098318392,
    "buildYear": 2009,
    "units": [
      "apt-판교원마을12단지힐스테이트-분당구판교동-36평형",
      "apt-판교원마을12단지힐스테이트-분당구판교동-31평형",
      "apt-판교원마을12단지힐스테이트-분당구판교동-35평형",
      "apt-판교원마을12단지힐스테이트-분당구판교동-45평형"
    ]
  },
  {
    "id": "apt-판교원마을11단지힐스테이트-분당구판교동",
    "name": "판교원마을11단지(힐스테이트)",
    "address": "경기도 성남시 분당구 판교동",
    "roadAddress": "경기도 성남시 분당구 서판교로 147",
    "type": "apartment",
    "lat": 37.3960422612656,
    "lng": 127.098098318392,
    "buildYear": 2009,
    "units": [
      "apt-판교원마을11단지힐스테이트-분당구판교동-36평형",
      "apt-판교원마을11단지힐스테이트-분당구판교동-31평형",
      "apt-판교원마을11단지힐스테이트-분당구판교동-35평형"
    ]
  },
  {
    "id": "apt-느티마을4단지공무원-분당구정자동",
    "name": "느티마을(4단지)(공무원)",
    "address": "경기도 성남시 분당구 정자동",
    "roadAddress": "경기도 성남시 분당구 느티로 70",
    "type": "apartment",
    "lat": 37.3685431465027,
    "lng": 127.10954869583,
    "buildYear": 1994,
    "units": [
      "apt-느티마을4단지공무원-분당구정자동-20평형",
      "apt-느티마을4단지공무원-분당구정자동-18평형"
    ]
  },
  {
    "id": "apt-탑마을경향-분당구야탑동",
    "name": "탑마을(경향)",
    "address": "경기도 성남시 분당구 야탑동",
    "roadAddress": "경기도 성남시 분당구 양현로 272",
    "type": "apartment",
    "lat": 37.4113586256456,
    "lng": 127.125952835102,
    "buildYear": 1993,
    "units": [
      "apt-탑마을경향-분당구야탑동-40평형",
      "apt-탑마을경향-분당구야탑동-31평형"
    ]
  },
  {
    "id": "apt-상록마을임광-분당구정자동",
    "name": "상록마을(임광)",
    "address": "경기도 성남시 분당구 정자동",
    "roadAddress": "경기도 성남시 분당구 정자일로 80",
    "type": "apartment",
    "lat": 37.3619161,
    "lng": 127.1059814,
    "buildYear": 1995,
    "units": [
      "apt-상록마을임광-분당구정자동-26평형",
      "apt-상록마을임광-분당구정자동-15평형",
      "apt-상록마을임광-분당구정자동-20평형"
    ]
  },
  {
    "id": "apt-한솔마을2단지LG-분당구정자동",
    "name": "한솔마을(2단지)(LG)",
    "address": "경기도 성남시 분당구 정자동",
    "roadAddress": "경기도 성남시 분당구 정자로 143",
    "type": "apartment",
    "lat": 37.363464095084,
    "lng": 127.113901695517,
    "buildYear": 1995,
    "units": [
      "apt-한솔마을2단지LG-분당구정자동-31평형",
      "apt-한솔마을2단지LG-분당구정자동-41평형",
      "apt-한솔마을2단지LG-분당구정자동-50평형"
    ]
  },
  {
    "id": "apt-무지개1단지대림-분당구구미동",
    "name": "무지개(1단지)(대림)",
    "address": "경기도 성남시 분당구 구미동",
    "roadAddress": "경기도 성남시 분당구 미금로 23",
    "type": "apartment",
    "lat": 37.3367571580584,
    "lng": 127.118938110394,
    "buildYear": 1995,
    "units": [
      "apt-무지개1단지대림-분당구구미동-18평형",
      "apt-무지개1단지대림-분당구구미동-14평형",
      "apt-무지개1단지대림-분당구구미동-26평형",
      "apt-무지개1단지대림-분당구구미동-38평형",
      "apt-무지개1단지대림-분당구구미동-40평형",
      "apt-무지개1단지대림-분당구구미동-31평형"
    ]
  },
  {
    "id": "apt-백현마을2단지-분당구백현동",
    "name": "백현마을2단지",
    "address": "경기도 성남시 분당구 백현동",
    "roadAddress": "경기도 성남시 분당구 동판교로 122",
    "type": "apartment",
    "lat": 37.3865611039922,
    "lng": 127.114409643452,
    "buildYear": 2009,
    "units": [
      "apt-백현마을2단지-분당구백현동-26평형",
      "apt-백현마을2단지-분당구백현동-31평형",
      "apt-백현마을2단지-분당구백현동-36평형"
    ]
  },
  {
    "id": "apt-푸른마을벽산-분당구수내동",
    "name": "푸른마을(벽산)",
    "address": "경기도 성남시 분당구 수내동",
    "roadAddress": "경기도 성남시 분당구 수내로 206",
    "type": "apartment",
    "lat": 37.369708611255,
    "lng": 127.126280784178,
    "buildYear": 1992,
    "units": [
      "apt-푸른마을벽산-분당구수내동-31평형",
      "apt-푸른마을벽산-분당구수내동-18평형",
      "apt-푸른마을벽산-분당구수내동-26평형",
      "apt-푸른마을벽산-분당구수내동-40평형",
      "apt-푸른마을벽산-분당구수내동-50평형",
      "apt-푸른마을벽산-분당구수내동-53평형",
      "apt-푸른마을벽산-분당구수내동-42평형"
    ]
  },
  {
    "id": "apt-한솔마을3단지한일-분당구정자동",
    "name": "한솔마을(3단지)(한일)",
    "address": "경기도 성남시 분당구 정자동",
    "roadAddress": "경기도 성남시 분당구 백현로 234",
    "type": "apartment",
    "lat": 37.3724863709846,
    "lng": 127.113020958608,
    "buildYear": 1993,
    "units": [
      "apt-한솔마을3단지한일-분당구정자동-26평형",
      "apt-한솔마을3단지한일-분당구정자동-18평형",
      "apt-한솔마을3단지한일-분당구정자동-39평형",
      "apt-한솔마을3단지한일-분당구정자동-31평형"
    ]
  },
  {
    "id": "apt-매화마을공무원1-분당구야탑동",
    "name": "매화마을공무원1",
    "address": "경기도 성남시 분당구 야탑동",
    "roadAddress": "경기도 성남시 분당구 매화로 92",
    "type": "apartment",
    "lat": 37.4121102645266,
    "lng": 127.133897927458,
    "buildYear": 1995,
    "units": [
      "apt-매화마을공무원1-분당구야탑동-18평형",
      "apt-매화마을공무원1-분당구야탑동-15평형"
    ]
  },
  {
    "id": "apt-무지개9단지동아-분당구구미동",
    "name": "무지개(9단지)(동아)",
    "address": "경기도 성남시 분당구 구미동",
    "roadAddress": "경기도 성남시 분당구 구미로144번길 8",
    "type": "apartment",
    "lat": 37.3399527868317,
    "lng": 127.127470594303,
    "buildYear": 1995,
    "units": [
      "apt-무지개9단지동아-분당구구미동-31평형",
      "apt-무지개9단지동아-분당구구미동-41평형"
    ]
  },
  {
    "id": "apt-장안타운건영-분당구분당동",
    "name": "장안타운(건영)",
    "address": "경기도 성남시 분당구 분당동",
    "roadAddress": "경기도 성남시 분당구 분당로263번길 24",
    "type": "apartment",
    "lat": 37.3712350635965,
    "lng": 127.142289167751,
    "buildYear": 1993,
    "units": [
      "apt-장안타운건영-분당구분당동-26평형",
      "apt-장안타운건영-분당구분당동-21평형",
      "apt-장안타운건영-분당구분당동-40평형",
      "apt-장안타운건영-분당구분당동-20평형",
      "apt-장안타운건영-분당구분당동-49평형",
      "apt-장안타운건영-분당구분당동-16평형",
      "apt-장안타운건영-분당구분당동-31평형"
    ]
  },
  {
    "id": "apt-무지개3단지건영-분당구구미동",
    "name": "무지개(3단지)(건영)",
    "address": "경기도 성남시 분당구 구미동",
    "roadAddress": "경기도 성남시 분당구 미금로 63",
    "type": "apartment",
    "lat": 37.3390671,
    "lng": 127.114794,
    "buildYear": 1996,
    "units": [
      "apt-무지개3단지건영-분당구구미동-21평형",
      "apt-무지개3단지건영-분당구구미동-16평형",
      "apt-무지개3단지건영-분당구구미동-26평형"
    ]
  },
  {
    "id": "apt-상록마을보성-분당구정자동",
    "name": "상록마을(보성)",
    "address": "경기도 성남시 분당구 정자동",
    "roadAddress": "경기도 성남시 분당구 정자일로 80",
    "type": "apartment",
    "lat": 37.3613378183697,
    "lng": 127.105989350458,
    "buildYear": 1995,
    "units": [
      "apt-상록마을보성-분당구정자동-20평형",
      "apt-상록마을보성-분당구정자동-15평형",
      "apt-상록마을보성-분당구정자동-26평형"
    ]
  },
  {
    "id": "apt-효자촌화성-분당구서현동",
    "name": "효자촌(화성)",
    "address": "경기도 성남시 분당구 서현동",
    "roadAddress": "경기도 성남시 분당구 불정로 362",
    "type": "apartment",
    "lat": 37.3726221063004,
    "lng": 127.137949954999,
    "buildYear": 1994,
    "units": [
      "apt-효자촌화성-분당구서현동-16평형",
      "apt-효자촌화성-분당구서현동-26평형",
      "apt-효자촌화성-분당구서현동-21평형"
    ]
  },
  {
    "id": "apt-샛별마을우방-분당구분당동",
    "name": "샛별마을(우방)",
    "address": "경기도 성남시 분당구 분당동",
    "roadAddress": "경기도 성남시 분당구 수내로 181",
    "type": "apartment",
    "lat": 37.3763175773921,
    "lng": 127.12089834593,
    "buildYear": 1994,
    "units": [
      "apt-샛별마을우방-분당구분당동-17평형",
      "apt-샛별마을우방-분당구분당동-22평형",
      "apt-샛별마을우방-분당구분당동-26평형",
      "apt-샛별마을우방-분당구분당동-31평형",
      "apt-샛별마을우방-분당구분당동-56평형",
      "apt-샛별마을우방-분당구분당동-40평형"
    ]
  },
  {
    "id": "apt-양지마을6단지금호청구-분당구수내동",
    "name": "양지마을(6단지)(금호,청구)",
    "address": "경기도 성남시 분당구 수내동",
    "roadAddress": "경기도 성남시 분당구 내정로165번길 38",
    "type": "apartment",
    "lat": 37.3754200840288,
    "lng": 127.117029438801,
    "buildYear": 1992,
    "units": [
      "apt-양지마을6단지금호청구-분당구수내동-17평형",
      "apt-양지마을6단지금호청구-분당구수내동-20평형",
      "apt-양지마을6단지금호청구-분당구수내동-18평형"
    ]
  },
  {
    "id": "apt-무지개2단지엘지-분당구구미동",
    "name": "무지개(2단지)(엘지)",
    "address": "경기도 성남시 분당구 구미동",
    "roadAddress": "경기도 성남시 분당구 구미로 50",
    "type": "apartment",
    "lat": 37.3384517227768,
    "lng": 127.119834191288,
    "buildYear": 1995,
    "units": [
      "apt-무지개2단지엘지-분당구구미동-15평형",
      "apt-무지개2단지엘지-분당구구미동-26평형",
      "apt-무지개2단지엘지-분당구구미동-41평형",
      "apt-무지개2단지엘지-분당구구미동-31평형",
      "apt-무지개2단지엘지-분당구구미동-22평형"
    ]
  },
  {
    "id": "apt-판교더샵포레스트12단지-분당구대장동",
    "name": "판교더샵포레스트12단지",
    "address": "경기도 성남시 분당구 대장동",
    "roadAddress": "경기도 성남시 분당구 판교대장로5길 30",
    "type": "apartment",
    "lat": 37.3665745016943,
    "lng": 127.071068626111,
    "buildYear": 2021,
    "units": [
      "apt-판교더샵포레스트12단지-분당구대장동-26평형"
    ]
  },
  {
    "id": "apt-산운마을10단지대광로제비앙-분당구운중동",
    "name": "산운마을10단지(대광로제비앙)",
    "address": "경기도 성남시 분당구 운중동",
    "roadAddress": "경기도 성남시 분당구 판교원로81번길 15",
    "type": "apartment",
    "lat": 37.3905280498174,
    "lng": 127.075726914005,
    "buildYear": 2009,
    "units": [
      "apt-산운마을10단지대광로제비앙-분당구운중동-18평형",
      "apt-산운마을10단지대광로제비앙-분당구운중동-25평형"
    ]
  },
  {
    "id": "apt-목련마을영남-분당구야탑동",
    "name": "목련마을(영남)",
    "address": "경기도 성남시 분당구 야탑동",
    "roadAddress": "경기도 성남시 분당구 판교로 669",
    "type": "apartment",
    "lat": 37.4059725007389,
    "lng": 127.122271876441,
    "buildYear": 1995,
    "units": [
      "apt-목련마을영남-분당구야탑동-26평형",
      "apt-목련마을영남-분당구야탑동-16평형"
    ]
  },
  {
    "id": "apt-탑마을기산1-분당구야탑동",
    "name": "탑마을(기산)1",
    "address": "경기도 성남시 분당구 야탑동",
    "roadAddress": "경기도 성남시 분당구 양현로 272",
    "type": "apartment",
    "lat": 37.4113586256456,
    "lng": 127.125952835102,
    "buildYear": 1993,
    "units": [
      "apt-탑마을기산1-분당구야탑동-40평형",
      "apt-탑마을기산1-분당구야탑동-31평형"
    ]
  },
  {
    "id": "apt-청솔마을공무원-분당구금곡동",
    "name": "청솔마을(공무원)",
    "address": "경기도 성남시 분당구 금곡동",
    "roadAddress": "경기도 성남시 분당구 금곡로 263",
    "type": "apartment",
    "lat": 37.3502874,
    "lng": 127.1200719,
    "buildYear": 1995,
    "units": [
      "apt-청솔마을공무원-분당구금곡동-18평형",
      "apt-청솔마을공무원-분당구금곡동-20평형"
    ]
  },
  {
    "id": "apt-판교퍼스트힐푸르지오A2-분당구대장동",
    "name": "판교퍼스트힐푸르지오A2",
    "address": "경기도 성남시 분당구 대장동",
    "roadAddress": "경기도 성남시 분당구 판교대장로7길 57",
    "type": "apartment",
    "lat": 37.3738215454946,
    "lng": 127.068310431217,
    "buildYear": 2021,
    "units": [
      "apt-판교퍼스트힐푸르지오A2-분당구대장동-26평형"
    ]
  },
  {
    "id": "apt-판교원마을3단지푸르지오-분당구판교동",
    "name": "판교원마을3단지(푸르지오)",
    "address": "경기도 성남시 분당구 판교동",
    "roadAddress": "경기도 성남시 분당구 판교로 20",
    "type": "apartment",
    "lat": 37.3983672689709,
    "lng": 127.093182165399,
    "buildYear": 2009,
    "units": [
      "apt-판교원마을3단지푸르지오-분당구판교동-45평형",
      "apt-판교원마을3단지푸르지오-분당구판교동-26평형",
      "apt-판교원마을3단지푸르지오-분당구판교동-35평형",
      "apt-판교원마을3단지푸르지오-분당구판교동-31평형"
    ]
  },
  {
    "id": "apt-청솔마을대원-분당구금곡동",
    "name": "청솔마을(대원)",
    "address": "경기도 성남시 분당구 금곡동",
    "roadAddress": "경기도 성남시 분당구 미금로 215",
    "type": "apartment",
    "lat": 37.3470496488571,
    "lng": 127.116098314378,
    "buildYear": 1995,
    "units": [
      "apt-청솔마을대원-분당구금곡동-39평형",
      "apt-청솔마을대원-분당구금곡동-26평형",
      "apt-청솔마을대원-분당구금곡동-31평형",
      "apt-청솔마을대원-분당구금곡동-15평형"
    ]
  },
  {
    "id": "apt-목련마을한일-분당구야탑동",
    "name": "목련마을(한일)",
    "address": "경기도 성남시 분당구 야탑동",
    "roadAddress": "경기도 성남시 분당구 판교로 645",
    "type": "apartment",
    "lat": 37.4059725007389,
    "lng": 127.122271876441,
    "buildYear": 1995,
    "units": [
      "apt-목련마을한일-분당구야탑동-15평형",
      "apt-목련마을한일-분당구야탑동-26평형"
    ]
  },
  {
    "id": "apt-시범한신-분당구서현동",
    "name": "시범한신",
    "address": "경기도 성남시 분당구 서현동",
    "roadAddress": "경기도 성남시 분당구 중앙공원로 53",
    "type": "apartment",
    "lat": 37.3806177,
    "lng": 127.1290905,
    "buildYear": 1991,
    "units": [
      "apt-시범한신-분당구서현동-18평형",
      "apt-시범한신-분당구서현동-26평형",
      "apt-시범한신-분당구서현동-52평형",
      "apt-시범한신-분당구서현동-40평형"
    ]
  },
  {
    "id": "apt-성원상떼뷰101동-분당구정자동",
    "name": "성원상떼뷰101동",
    "address": "경기도 성남시 분당구 정자동",
    "roadAddress": "경기도 성남시 분당구 정자일로213번길 10",
    "type": "apartment",
    "lat": 37.3701378,
    "lng": 127.1053174,
    "buildYear": 2004,
    "units": [
      "apt-성원상떼뷰101동-분당구정자동-48평형",
      "apt-성원상떼뷰101동-분당구정자동-44평형",
      "apt-성원상떼뷰101동-분당구정자동-26평형"
    ]
  },
  {
    "id": "apt-봇들마을7단지-분당구삼평동",
    "name": "봇들마을7단지",
    "address": "경기도 성남시 분당구 삼평동",
    "roadAddress": "경기도 성남시 분당구 동판교로 155",
    "type": "apartment",
    "lat": 37.3987513673426,
    "lng": 127.116830460102,
    "buildYear": 2009,
    "units": [
      "apt-봇들마을7단지-분당구삼평동-33평형",
      "apt-봇들마을7단지-분당구삼평동-26평형"
    ]
  },
  {
    "id": "apt-무지개8단지제일-분당구구미동",
    "name": "무지개(8단지)(제일)",
    "address": "경기도 성남시 분당구 구미동",
    "roadAddress": "경기도 성남시 분당구 구미로144번길 7",
    "type": "apartment",
    "lat": 37.3393789,
    "lng": 127.1259603,
    "buildYear": 1995,
    "units": [
      "apt-무지개8단지제일-분당구구미동-31평형",
      "apt-무지개8단지제일-분당구구미동-41평형"
    ]
  },
  {
    "id": "apt-정든마을7단지한진-분당구정자동",
    "name": "정든마을(7단지)(한진)",
    "address": "경기도 성남시 분당구 정자동",
    "roadAddress": "경기도 성남시 분당구 내정로 10",
    "type": "apartment",
    "lat": 37.3607103278578,
    "lng": 127.113296333528,
    "buildYear": 1994,
    "units": [
      "apt-정든마을7단지한진-분당구정자동-21평형",
      "apt-정든마을7단지한진-분당구정자동-15평형",
      "apt-정든마을7단지한진-분당구정자동-26평형"
    ]
  },
  {
    "id": "apt-파크타운서안-분당구수내동",
    "name": "파크타운(서안)",
    "address": "경기도 성남시 분당구 수내동",
    "roadAddress": "경기도 성남시 분당구 수내로 148",
    "type": "apartment",
    "lat": 37.3723459956922,
    "lng": 127.121907373306,
    "buildYear": 1993,
    "units": [
      "apt-파크타운서안-분당구수내동-31평형",
      "apt-파크타운서안-분당구수내동-56평형",
      "apt-파크타운서안-분당구수내동-18평형",
      "apt-파크타운서안-분당구수내동-26평형",
      "apt-파크타운서안-분당구수내동-41평형",
      "apt-파크타운서안-분당구수내동-40평형"
    ]
  },
  {
    "id": "apt-청솔마을서광-분당구금곡동",
    "name": "청솔마을(서광)",
    "address": "경기도 성남시 분당구 금곡동",
    "roadAddress": "경기도 성남시 분당구 성남대로171번길 8",
    "type": "apartment",
    "lat": 37.3513067,
    "lng": 127.1075553,
    "buildYear": 1995,
    "units": [
      "apt-청솔마을서광-분당구금곡동-16평형",
      "apt-청솔마을서광-분당구금곡동-26평형",
      "apt-청솔마을서광-분당구금곡동-21평형"
    ]
  },
  {
    "id": "apt-청솔마을주공9단지-분당구금곡동",
    "name": "청솔마을(주공9단지)",
    "address": "경기도 성남시 분당구 금곡동",
    "roadAddress": "경기도 성남시 분당구 미금로 216",
    "type": "apartment",
    "lat": 37.3470496488571,
    "lng": 127.116098314378,
    "buildYear": 1996,
    "units": [
      "apt-청솔마을주공9단지-분당구금곡동-13평형",
      "apt-청솔마을주공9단지-분당구금곡동-11평형"
    ]
  },
  {
    "id": "apt-백현마을5단지주공-분당구백현동",
    "name": "백현마을5단지(주공)",
    "address": "경기도 성남시 분당구 백현동",
    "roadAddress": "경기도 성남시 분당구 판교역로 102",
    "type": "apartment",
    "lat": 37.3853391396126,
    "lng": 127.11243354368,
    "buildYear": 2009,
    "units": [
      "apt-백현마을5단지주공-분당구백현동-26평형",
      "apt-백현마을5단지주공-분당구백현동-23평형"
    ]
  },