[
  {
    "id": "apt-봇들마을3단지주공-분당구삼평동",
    "name": "봇들마을3단지(주공)",
    "address": "경기도 성남시 분당구 삼평동",
    "roadAddress": "경기도 성남시 분당구 동판교로 225",
    "type": "apartment",
    "lat": 37.3987513673426,
    "lng": 127.116830460102,
    "buildYear": 2009,
    "units": [
      "apt-봇들마을3단지주공-분당구삼평동-18평형",
      "apt-봇들마을3단지주공-분당구삼평동-23평형",
      "apt-봇들마을3단지주공-분당구삼평동-26평형"
    ]
  },
  {
    "id": "apt-미켈란쉐르빌-분당구정자동",
    "name": "미켈란쉐르빌",
    "address": "경기도 성남시 분당구 정자동",
    "roadAddress": "경기도 성남시 분당구 정자일로 100",
    "type": "apartment",
    "lat": 37.3613378183697,
    "lng": 127.105989350458,
    "buildYear": 2003,
    "units": [
      "apt-미켈란쉐르빌-분당구정자동-6평형",
      "apt-미켈란쉐르빌-분당구정자동-59평형",
      "apt-미켈란쉐르빌-분당구정자동-48평형",
      "apt-미켈란쉐르빌-분당구정자동-46평형",
      "apt-미켈란쉐르빌-분당구정자동-50평형",
      "apt-미켈란쉐르빌-분당구정자동-41평형",
      "apt-미켈란쉐르빌-분당구정자동-47평형",
      "apt-미켈란쉐르빌-분당구정자동-10평형",
      "apt-미켈란쉐르빌-분당구정자동-12평형",
      "apt-미켈란쉐르빌-분당구정자동-11평형",
      "apt-미켈란쉐르빌-분당구정자동-74평형",
      "apt-미켈란쉐르빌-분당구정자동-7평형",
      "apt-미켈란쉐르빌-분당구정자동-9평형"
    ]
  },
  {
    "id": "apt-THESHARP판교퍼스트파크-분당구백현동",
    "name": "THESHARP판교퍼스트파크",
    "address": "경기도 성남시 분당구 백현동",
    "roadAddress": "경기도 성남시 분당구 판교백현로 38",
    "type": "apartment",
    "lat": 37.3823779,
    "lng": 127.0985064,
    "buildYear": 2021,
    "units": [
      "apt-THESHARP판교퍼스트파크-분당구백현동-26평형",
      "apt-THESHARP판교퍼스트파크-분당구백현동-35평형",
      "apt-THESHARP판교퍼스트파크-분당구백현동-39평형"
    ]
  },
  {
    "id": "apt-시범삼성-분당구서현동",
    "name": "시범삼성",
    "address": "경기도 성남시 분당구 서현동",
    "roadAddress": "경기도 성남시 분당구 중앙공원로 53",
    "type": "apartment",
    "lat": 37.3810714084689,
    "lng": 127.129716061485,
    "buildYear": 1991,
    "units": [
      "apt-시범삼성-분당구서현동-18평형",
      "apt-시범삼성-분당구서현동-40평형",
      "apt-시범삼성-분당구서현동-26평형",
      "apt-시범삼성-분당구서현동-58평형"
    ]
  },
  {
    "id": "apt-현대IPARK2-분당구정자동",
    "name": "현대I-PARK2",
    "address": "경기도 성남시 분당구 정자동",
    "roadAddress": "경기도 성남시 분당구 정자일로213번길 19",
    "type": "apartment",
    "lat": 37.3701774804762,
    "lng": 127.10532351536,
    "buildYear": 2003,
    "units": [
      "apt-현대IPARK2-분당구정자동-49평형",
      "apt-현대IPARK2-분당구정자동-44평형",
      "apt-현대IPARK2-분당구정자동-26평형"
    ]
  },
  {
    "id": "apt-한솔마을4단지주공-분당구정자동",
    "name": "한솔마을(4단지)(주공)",
    "address": "경기도 성남시 분당구 정자동",
    "roadAddress": "경기도 성남시 분당구 백현로 206",
    "type": "apartment",
    "lat": 37.3724863709846,
    "lng": 127.113020958608,
    "buildYear": 1994,
    "units": [
      "apt-한솔마을4단지주공-분당구정자동-11평형",
      "apt-한솔마을4단지주공-분당구정자동-13평형"
    ]
  },
  {
    "id": "apt-판교호반써밋플레이스-분당구삼평동",
    "name": "판교호반써밋플레이스",
    "address": "경기도 성남시 분당구 삼평동",
    "roadAddress": "경기도 성남시 분당구 동판교로177번길 25",
    "type": "apartment",
    "lat": 37.3973046,
    "lng": 127.1137534,
    "buildYear": 2012,
    "units": [
      "apt-판교호반써밋플레이스-분당구삼평동-40평형",
      "apt-판교호반써밋플레이스-분당구삼평동-41평형"
    ]
  },
  {
    "id": "apt-시범한양-분당구서현동",
    "name": "시범한양",
    "address": "경기도 성남시 분당구 서현동",
    "roadAddress": "경기도 성남시 분당구 중앙공원로 17",
    "type": "apartment",
    "lat": 37.3810714084689,
    "lng": 127.129716061485,
    "buildYear": 1991,
    "units": [
      "apt-시범한양-분당구서현동-9평형",
      "apt-시범한양-분당구서현동-11평형",
      "apt-시범한양-분당구서현동-50평형",
      "apt-시범한양-분당구서현동-26평형",
      "apt-시범한양-분당구서현동-18평형",
      "apt-시범한양-분당구서현동-41평형",
      "apt-시범한양-분당구서현동-45평형",
      "apt-시범한양-분당구서현동-31평형",
      "apt-시범한양-분당구서현동-67평형"
    ]
  },
  {
    "id": "apt-목련마을SK-분당구야탑동",
    "name": "목련마을SK",
    "address": "경기도 성남시 분당구 야탑동",
    "roadAddress": "경기도 성남시 분당구 판교로743번길 7",
    "type": "apartment",
    "lat": 37.4061783218892,
    "lng": 127.155191012049,
    "buildYear": 1998,
    "units": [
      "apt-목련마을SK-분당구야탑동-18평형"
    ]
  },
  {
    "id": "apt-양지마을2단지청구-분당구수내동",
    "name": "양지마을(2단지)(청구)",
    "address": "경기도 성남시 분당구 수내동",
    "roadAddress": "경기도 성남시 분당구 내정로 185",
    "type": "apartment",
    "lat": 37.3688410036702,
    "lng": 127.114797157872,
    "buildYear": 1992,
    "units": [
      "apt-양지마을2단지청구-분당구수내동-26평형",
      "apt-양지마을2단지청구-분당구수내동-41평형",
      "apt-양지마을2단지청구-분당구수내동-53평형",
      "apt-양지마을2단지청구-분당구수내동-60평형"
    ]
  },
  {
    "id": "apt-시범현대-분당구서현동",
    "name": "시범현대",
    "address": "경기도 성남시 분당구 서현동",
    "roadAddress": "경기도 성남시 분당구 중앙공원로 20",
    "type": "apartment",
    "lat": 37.3810714084689,
    "lng": 127.129716061485,
    "buildYear": 1991,
    "units": [
      "apt-시범현대-분당구서현동-18평형",
      "apt-시범현대-분당구서현동-26평형",
      "apt-시범현대-분당구서현동-59평형",
      "apt-시범현대-분당구서현동-15평형",
      "apt-시범현대-분당구서현동-56평형",
      "apt-시범현대-분당구서현동-39평형",
      "apt-시범현대-분당구서현동-50평형",
      "apt-시범현대-분당구서현동-57평형",
      "apt-시범현대-분당구서현동-33평형",
      "apt-시범현대-분당구서현동-53평형"
    ]
  },
  {
    "id": "apt-효자촌삼환-분당구서현동",
    "name": "효자촌(삼환)",
    "address": "경기도 성남시 분당구 서현동",
    "roadAddress": "경기도 성남시 분당구 불정로 361",
    "type": "apartment",
    "lat": 37.3726221063004,
    "lng": 127.137949954999,
    "buildYear": 1992,
    "units": [
      "apt-효자촌삼환-분당구서현동-25평형",
      "apt-효자촌삼환-분당구서현동-29평형",
      "apt-효자촌삼환-분당구서현동-31평형",
      "apt-효자촌삼환-분당구서현동-39평형",
      "apt-효자촌삼환-분당구서현동-14평형",
      "apt-효자촌삼환-분당구서현동-50평형",
      "apt-효자촌삼환-분당구서현동-59평형"
    ]
  },
  {
    "id": "apt-봇들마을4단지주공-분당구삼평동",
    "name": "봇들마을4단지(주공)",
    "address": "경기도 성남시 분당구 삼평동",
    "roadAddress": "경기도 성남시 분당구 동판교로 226",
    "type": "apartment",
    "lat": 37.3987513673426,
    "lng": 127.116830460102,
    "buildYear": 2009,
    "units": [
      "apt-봇들마을4단지주공-분당구삼평동-26평형",
      "apt-봇들마을4단지주공-분당구삼평동-18평형",
      "apt-봇들마을4단지주공-분당구삼평동-23평형"
    ]
  },
  {
    "id": "apt-양지마을5단지한양501514-분당구수내동",
    "name": "양지마을(5단지)(한양501-514)",
    "address": "경기도 성남시 분당구 수내동",
    "roadAddress": "경기도 성남시 분당구 내정로165번길 35",
    "type": "apartment",
    "lat": 37.3754200840288,
    "lng": 127.117029438801,
    "buildYear": 1993,
    "units": [
      "apt-양지마을5단지한양501514-분당구수내동-11평형",
      "apt-양지마을5단지한양501514-분당구수내동-9평형",
      "apt-양지마을5단지한양501514-분당구수내동-15평형",
      "apt-양지마을5단지한양501514-분당구수내동-13평형"
    ]
  },
  {
    "id": "apt-까치마을2단지주공-분당구구미동",
    "name": "까치마을(2단지)(주공)",
    "address": "경기도 성남시 분당구 구미동",
    "roadAddress": "경기도 성남시 분당구 미금일로 22",
    "type": "apartment",
    "lat": 37.3458381569367,
    "lng": 127.110995834022,
    "buildYear": 1995,
    "units": [
      "apt-까치마을2단지주공-분당구구미동-18평형",
      "apt-까치마을2단지주공-분당구구미동-15평형"
    ]
  },
  {
    "id": "apt-한솔마을1단지청구-분당구정자동",
    "name": "한솔마을(1단지)(청구)",
    "address": "경기도 성남시 분당구 정자동",
    "roadAddress": "경기도 성남시 분당구 불정로 219",
    "type": "apartment",
    "lat": 37.3608046082389,
    "lng": 127.111746176398,
    "buildYear": 1994,
    "units": [
      "apt-한솔마을1단지청구-분당구정자동-15평형",
      "apt-한솔마을1단지청구-분당구정자동-26평형",
      "apt-한솔마을1단지청구-분당구정자동-31평형",
      "apt-한솔마을1단지청구-분당구정자동-41평형"
    ]
  },
  {
    "id": "apt-산운마을14단지경남아너스빌-분당구운중동",
    "name": "산운마을14단지(경남아너스빌)",
    "address": "경기도 성남시 분당구 운중동",
    "roadAddress": "경기도 성남시 분당구 판교원로82번길 60",
    "type": "apartment",
    "lat": 37.3861228302611,
    "lng": 127.074351203092,
    "buildYear": 2009,
    "units": [
      "apt-산운마을14단지경남아너스빌-분당구운중동-35평형",
      "apt-산운마을14단지경남아너스빌-분당구운중동-31평형",
      "apt-산운마을14단지경남아너스빌-분당구운중동-37평형",
      "apt-산운마을14단지경남아너스빌-분당구운중동-46평형",
      "apt-산운마을14단지경남아너스빌-분당구운중동-56평형"
    ]
  },
  {
    "id": "apt-효자촌대우-분당구서현동",
    "name": "효자촌(대우)",
    "address": "경기도 성남시 분당구 서현동",
    "roadAddress": "경기도 성남시 분당구 분당로263번길 13",
    "type": "apartment",
    "lat": 37.3704207,
    "lng": 127.1370355,
    "buildYear": 1994,
    "units": [
      "apt-효자촌대우-분당구서현동-26평형",
      "apt-효자촌대우-분당구서현동-16평형",
      "apt-효자촌대우-분당구서현동-21평형"
    ]
  },
  {
    "id": "apt-현대IPARK3-분당구정자동",
    "name": "현대I-PARK3",
    "address": "경기도 성남시 분당구 정자동",
    "roadAddress": "경기도 성남시 분당구 정자일로213번길 5",
    "type": "apartment",
    "lat": 37.3701774804762,
    "lng": 127.10532351536,
    "buildYear": 2003,
    "units": [
      "apt-현대IPARK3-분당구정자동-46평형",
      "apt-현대IPARK3-분당구정자동-26평형",
      "apt-현대IPARK3-분당구정자동-52평형",
      "apt-현대IPARK3-분당구정자동-50평형",
      "apt-현대IPARK3-분당구정자동-48평형",
      "apt-현대IPARK3-분당구정자동-47평형"
    ]
  },
  {
    "id": "apt-봇들마을9단지금호어울림-분당구삼평동",
    "name": "봇들마을9단지(금호어울림)",
    "address": "경기도 성남시 분당구 삼평동",
    "roadAddress": "경기도 성남시 분당구 동판교로 156",
    "type": "apartment",
    "lat": 37.3987513673426,
    "lng": 127.116830460102,
    "buildYear": 2009,
    "units": [
      "apt-봇들마을9단지금호어울림-분당구삼평동-35평형",
      "apt-봇들마을9단지금호어울림-분당구삼평동-31평형",
      "apt-봇들마을9단지금호어울림-분당구삼평동-45평형"
    ]
  },
  {
    "id": "apt-청솔마을유천-분당구금곡동",
    "name": "청솔마을(유천)",
    "address": "경기도 성남시 분당구 금곡동",
    "roadAddress": "경기도 성남시 분당구 정자일로 46",
    "type": "apartment",
    "lat": 37.3506184533259,
    "lng": 127.107606647258,
    "buildYear": 1995,
    "units": [
      "apt-청솔마을유천-분당구금곡동-26평형",
      "apt-청솔마을유천-분당구금곡동-12평형"
    ]
  },
  {
    "id": "apt-백현마을7단지주공-분당구백현동",
    "name": "백현마을7단지(주공)",
    "address": "경기도 성남시 분당구 백현동",
    "roadAddress": "경기도 성남시 분당구 판교역로 98",
    "type": "apartment",
    "lat": 37.3853391396126,
    "lng": 127.11243354368,
    "buildYear": 2009,
    "units": [
      "apt-백현마을7단지주공-분당구백현동-26평형",
      "apt-백현마을7단지주공-분당구백현동-23평형"
    ]
  },
  {
    "id": "apt-양지마을5단지한양515529-분당구수내동",
    "name": "양지마을(5단지)(한양515-529)",
    "address": "경기도 성남시 분당구 수내동",
    "roadAddress": "경기도 성남시 분당구 내정로165번길 35",
    "type": "apartment",
    "lat": 37.3752994,
    "lng": 127.117101,
    "buildYear": 1992,
    "units": [
      "apt-양지마을5단지한양515529-분당구수내동-26평형",
      "apt-양지마을5단지한양515529-분당구수내동-31평형",
      "apt-양지마을5단지한양515529-분당구수내동-41평형",
      "apt-양지마을5단지한양515529-분당구수내동-50평형",
      "apt-양지마을5단지한양515529-분당구수내동-24평형",
      "apt-양지마을5단지한양515529-분당구수내동-61평형",
      "apt-양지마을5단지한양515529-분당구수내동-56평형"
    ]
  },
  {
    "id": "apt-매화마을공무원2-분당구야탑동",
    "name": "매화마을공무원2",
    "address": "경기도 성남시 분당구 야탑동",
    "roadAddress": "경기도 성남시 분당구 장미로 139",
    "type": "apartment",
    "lat": 37.4136253292012,
    "lng": 127.132215267764,
    "buildYear": 1995,
    "units": [
      "apt-매화마을공무원2-분당구야탑동-18평형",
      "apt-매화마을공무원2-분당구야탑동-20평형"
    ]
  },
  {
    "id": "apt-청솔마을계룡-분당구금곡동",
    "name": "청솔마을(계룡)",
    "address": "경기도 성남시 분당구 금곡동",
    "roadAddress": "경기도 성남시 분당구 정자일로 30",
    "type": "apartment",
    "lat": 37.3506184533259,
    "lng": 127.107606647258,
    "buildYear": 1996,
    "units": [
      "apt-청솔마을계룡-분당구금곡동-26평형",
      "apt-청솔마을계룡-분당구금곡동-17평형"
    ]
  },
  {
    "id": "apt-샛별마을라이프-분당구분당동",
    "name": "샛별마을(라이프)",
    "address": "경기도 성남시 분당구 분당동",
    "roadAddress": "경기도 성남시 분당구 분당로 190",
    "type": "apartment",
    "lat": 37.3741666285054,
    "lng": 127.131799827018,
    "buildYear": 1993,
    "units": [
      "apt-샛별마을라이프-분당구분당동-26평형",
      "apt-샛별마을라이프-분당구분당동-18평형",
      "apt-샛별마을라이프-분당구분당동-24평형",
      "apt-샛별마을라이프-분당구분당동-38평형",
      "apt-샛별마을라이프-분당구분당동-27평형",
      "apt-샛별마을라이프-분당구분당동-46평형"
    ]
  },
  {
    "id": "apt-까치마을3단지신원-분당구구미동",
    "name": "까치마을(3단지)(신원)",
    "address": "경기도 성남시 분당구 구미동",
    "roadAddress": "경기도 성남시 분당구 미금로 177",
    "type": "apartment",
    "lat": 37.3367571580584,
    "lng": 127.118938110394,
    "buildYear": 1995,
    "units": [
      "apt-까치마을3단지신원-분당구구미동-26평형",
      "apt-까치마을3단지신원-분당구구미동-51평형",
      "apt-까치마을3단지신원-분당구구미동-31평형",
      "apt-까치마을3단지신원-분당구구미동-18평형",
      "apt-까치마을3단지신원-분당구구미동-40평형",
      "apt-까치마을3단지신원-분당구구미동-49평형"
    ]
  },
  {
    "id": "apt-판교원마을9단지한림풀에버-분당구판교동",
    "name": "판교원마을9단지(한림풀에버)",
    "address": "경기도 성남시 분당구 판교동",
    "roadAddress": "경기도 성남시 분당구 서판교로 29",
    "type": "apartment",
    "lat": 37.3960422612656,
    "lng": 127.098098318392,
    "buildYear": 2009,
    "units": [
      "apt-판교원마을9단지한림풀에버-분당구판교동-26평형",
      "apt-판교원마을9단지한림풀에버-분당구판교동-22평형"
    ]
  },
  {
    "id": "apt-무지개12단지주공뜨란체-분당구구미동",
    "name": "무지개(12단지)(주공뜨란체)",
    "address": "경기도 성남시 분당구 구미동",
    "roadAddress": "경기도 성남시 분당구 미금로22번길 10",
    "type": "apartment",
    "lat": 37.3367571580584,
    "lng": 127.118938110394,
    "buildYear": 1995,
    "units": [
      "apt-무지개12단지주공뜨란체-분당구구미동-18평형",
      "apt-무지개12단지주공뜨란체-분당구구미동-15평형"
    ]
  },
  {
    "id": "apt-탑마을주공-분당구야탑동",
    "name": "탑마을(주공)",
    "address": "경기도 성남시 분당구 야탑동",
    "roadAddress": "경기도 성남시 분당구 매화로 12",
    "type": "apartment",
    "lat": 37.4121102645266,
    "lng": 127.133897927458,
    "buildYear": 1993,
    "units": [
      "apt-탑마을주공-분당구야탑동-11평형",
      "apt-탑마을주공-분당구야탑동-13평형"
    ]
  },
  {
    "id": "apt-정든마을6단지우성-분당구정자동",
    "name": "정든마을(6단지)(우성)",
    "address": "경기도 성남시 분당구 정자동",
    "roadAddress": "경기도 성남시 분당구 불정로 195",
    "type": "apartment",
    "lat": 37.3598925,
    "lng": 127.1062326,
    "buildYear": 1994,
    "units": [
      "apt-정든마을6단지우성-분당구정자동-15평형",
      "apt-정든마을6단지우성-분당구정자동-26평형",
      "apt-정든마을6단지우성-분당구정자동-21평형"
    ]
  },
  {
    "id": "apt-정든마을6단지한진-분당구정자동",
    "name": "정든마을(6단지)(한진)",
    "address": "경기도 성남시 분당구 정자동",
    "roadAddress": "경기도 성남시 분당구 내정로 24",
    "type": "apartment",
    "lat": 37.3694096,
    "lng": 127.1147785,
    "buildYear": 1995,
    "units": [
      "apt-정든마을6단지한진-분당구정자동-41평형",
      "apt-정든마을6단지한진-분당구정자동-34평형",
      "apt-정든마을6단지한진-분당구정자동-30평형",
      "apt-정든마을6단지한진-분당구정자동-49평형"
    ]
  },
  {
    "id": "apt-정든마을5단지신화-분당구정자동",
    "name": "정든마을(5단지)(신화)",
    "address": "경기도 성남시 분당구 정자동",
    "roadAddress": "경기도 성남시 분당구 정자로 112",
    "type": "apartment",
    "lat": 37.363464095084,
    "lng": 127.113901695517,
    "buildYear": 1995,
    "units": [
      "apt-정든마을5단지신화-분당구정자동-35평형",
      "apt-정든마을5단지신화-분당구정자동-16평형",
      "apt-정든마을5단지신화-분당구정자동-21평형",
      "apt-정든마을5단지신화-분당구정자동-26평형",
      "apt-정든마을5단지신화-분당구정자동-31평형",
      "apt-정든마을5단지신화-분당구정자동-49평형",
      "apt-정든마을5단지신화-분당구정자동-41평형"
    ]
  },
  {
    "id": "apt-상록마을우성1-분당구정자동",
    "name": "상록마을(우성)1",
    "address": "경기도 성남시 분당구 정자동",
    "roadAddress": "경기도 성남시 분당구 내정로 55",
    "type": "apartment",
    "lat": 37.3607103278578,
    "lng": 127.113296333528,
    "buildYear": 1994,
    "units": [
      "apt-상록마을우성1-분당구정자동-17평형",
      "apt-상록마을우성1-분당구정자동-31평형",
      "apt-상록마을우성1-분당구정자동-39평형",
      "apt-상록마을우성1-분당구정자동-21평형",
      "apt-상록마을우성1-분당구정자동-26평형",
      "apt-상록마을우성1-분당구정자동-49평형"
    ]
  },
  {
    "id": "apt-판교알파리움2단지-분당구백현동",
    "name": "판교알파리움2단지",
    "address": "경기도 성남시 분당구 백현동",
    "roadAddress": "경기도 성남시 분당구 판교역로 145",
    "type": "apartment",
    "lat": 37.3853391396126,
    "lng": 127.11243354368,
    "buildYear": 2015,
    "units": [
      "apt-판교알파리움2단지-분당구백현동-39평형",
      "apt-판교알파리움2단지-분당구백현동-43평형",
      "apt-판교알파리움2단지-분당구백현동-29평형",
      "apt-판교알파리움2단지-분당구백현동-33평형"
    ]
  },
  {
    "id": "apt-탑마을선경1-분당구야탑동",
    "name": "탑마을(선경)1",
    "address": "경기도 성남시 분당구 야탑동",
    "roadAddress": "경기도 성남시 분당구 야탑로 20",
    "type": "apartment",
    "lat": 37.4093499911129,
    "lng": 127.139204070804,
    "buildYear": 1992,
    "units": [
      "apt-탑마을선경1-분당구야탑동-25평형",
      "apt-탑마을선경1-분당구야탑동-31평형",
      "apt-탑마을선경1-분당구야탑동-16평형",
      "apt-탑마을선경1-분당구야탑동-40평형"
    ]
  },
  {
    "id": "apt-정든마을2단지동아-분당구정자동",
    "name": "정든마을(2단지)(동아)",
    "address": "경기도 성남시 분당구 정자동",
    "roadAddress": "경기도 성남시 분당구 불정로 179",
    "type": "apartment",
    "lat": 37.3608046082389,
    "lng": 127.111746176398,
    "buildYear": 1995,
    "units": [
      "apt-정든마을2단지동아-분당구정자동-15평형",
      "apt-정든마을2단지동아-분당구정자동-21평형",
      "apt-정든마을2단지동아-분당구정자동-26평형"
    ]
  },
  {
    "id": "apt-시범우성-분당구서현동",
    "name": "시범우성",
    "address": "경기도 성남시 분당구 서현동",
    "roadAddress": "경기도 성남시 분당구 중앙공원로 54",
    "type": "apartment",
    "lat": 37.3810714084689,
    "lng": 127.129716061485,
    "buildYear": 1991,
    "units": [
      "apt-시범우성-분당구서현동-14평형",
      "apt-시범우성-분당구서현동-18평형",
      "apt-시범우성-분당구서현동-20평형",
      "apt-시범우성-분당구서현동-26평형",
      "apt-시범우성-분당구서현동-39평형",
      "apt-시범우성-분당구서현동-50평형",
      "apt-시범우성-분당구서현동-59평형",
      "apt-시범우성-분당구서현동-23평형",
      "apt-시범우성-분당구서현동-41평형",
      "apt-시범우성-분당구서현동-40평형"
    ]
  },
  {
    "id": "apt-판교원마을5단지푸르지오-분당구판교동",
    "name": "판교원마을5단지(푸르지오)",
    "address": "경기도 성남시 분당구 판교동",
    "roadAddress": "경기도 성남시 분당구 판교원로 207",
    "type": "apartment",
    "lat": 37.3878118616897,
    "lng": 127.084707149849,
    "buildYear": 2009,
    "units": [
      "apt-판교원마을5단지푸르지오-분당구판교동-35평형",
      "apt-판교원마을5단지푸르지오-분당구판교동-26평형",
      "apt-판교원마을5단지푸르지오-분당구판교동-31평형"
    ]
  },
  {
    "id": "apt-이매촌청구-분당구이매동",
    "name": "이매촌(청구)",
    "address": "경기도 성남시 분당구 이매동",
    "roadAddress": "경기도 성남시 분당구 양현로94번길 29",
    "type": "apartment",
    "lat": 37.390934840402,
    "lng": 127.126027630076,
    "buildYear": 1992,
    "units": [
      "apt-이매촌청구-분당구이매동-40평형",
      "apt-이매촌청구-분당구이매동-59평형",
      "apt-이매촌청구-분당구이매동-26평형",
      "apt-이매촌청구-분당구이매동-31평형",
      "apt-이매촌청구-분당구이매동-18평형",
      "apt-이매촌청구-분당구이매동-37평형"
    ]
  },
  {
    "id": "apt-판교풍경채어바니티5단지-분당구대장동",
    "name": "판교풍경채어바니티(5단지)",
    "address": "경기도 성남시 분당구 대장동",
    "roadAddress": "경기도 성남시 분당구 판교대장로5길 20",
    "type": "apartment",
    "lat": 37.3665745016943,
    "lng": 127.071068626111,
    "buildYear": 2021,
    "units": [
      "apt-판교풍경채어바니티5단지-분당구대장동-26평형"
    ]
  },
  {
    "id": "apt-이매촌동신3-분당구이매동",
    "name": "이매촌(동신3)",
    "address": "경기도 성남시 분당구 이매동",
    "roadAddress": "경기도 성남시 분당구 양현로94번길 28",
    "type": "apartment",
    "lat": 37.390934840402,
    "lng": 127.126027630076,
    "buildYear": 1992,
    "units": [
      "apt-이매촌동신3-분당구이매동-26평형",
      "apt-이매촌동신3-분당구이매동-31평형",
      "apt-이매촌동신3-분당구이매동-18평형",
      "apt-이매촌동신3-분당구이매동-51평형",
      "apt-이매촌동신3-분당구이매동-35평형"
    ]
  },
  {
    "id": "apt-아름마을선경-분당구이매동",
    "name": "아름마을(선경)",
    "address": "경기도 성남시 분당구 이매동",
    "roadAddress": "경기도 성남시 분당구 이매로 11",
    "type": "apartment",
    "lat": 37.3936793054465,
    "lng": 127.130147831891,
    "buildYear": 1993,
    "units": [
      "apt-아름마을선경-분당구이매동-25평형",
      "apt-아름마을선경-분당구이매동-13평형"
    ]
  },
  {
    "id": "apt-파크뷰-분당구정자동",
    "name": "파크뷰",
    "address": "경기도 성남시 분당구 정자동",
    "roadAddress": "경기도 성남시 분당구 정자일로 248",
    "type": "apartment",
    "lat": 37.3613378183697,
    "lng": 127.105989350458,
    "buildYear": 2004,
    "units": [
      "apt-파크뷰-분당구정자동-26평형",
      "apt-파크뷰-분당구정자동-55평형",
      "apt-파크뷰-분당구정자동-49평형",
      "apt-파크뷰-분당구정자동-38평형",
      "apt-파크뷰-분당구정자동-42평형",
      "apt-파크뷰-분당구정자동-60평형"
    ]
  },
  {
    "id": "apt-무지개3단지신한-분당구구미동",
    "name": "무지개(3단지)(신한)",
    "address": "경기도 성남시 분당구 구미동",
    "roadAddress": "경기도 성남시 분당구 미금로 63",
    "type": "apartment",
    "lat": 37.3367571580584,
    "lng": 127.118938110394,
    "buildYear": 1996,
    "units": [
      "apt-무지개3단지신한-분당구구미동-16평형",
      "apt-무지개3단지신한-분당구구미동-22평형",
      "apt-무지개3단지신한-분당구구미동-21평형",
      "apt-무지개3단지신한-분당구구미동-26평형"
    ]
  },
  {
    "id": "apt-장미마을동부-분당구야탑동",
    "name": "장미마을(동부)",
    "address": "경기도 성남시 분당구 야탑동",
    "roadAddress": "경기도 성남시 분당구 장미로 55",
    "type": "apartment",
    "lat": 37.4134102,
    "lng": 127.1331511,
    "buildYear": 1993,
    "units": [
      "apt-장미마을동부-분당구야탑동-18평형",
      "apt-장미마을동부-분당구야탑동-26평형",
      "apt-장미마을동부-분당구야탑동-31평형",
      "apt-장미마을동부-분당구야탑동-21평형",
      "apt-장미마을동부-분당구야탑동-40평형"
    ]
  },
  {
    "id": "apt-양지마을금호1-분당구수내동",
    "name": "양지마을(금호1)",
    "address": "경기도 성남시 분당구 수내동",
    "roadAddress": "경기도 성남시 분당구 수내로 74",
    "type": "apartment",
    "lat": 37.3798425680456,
    "lng": 127.116220995491,
    "buildYear": 1992,
    "units": [
      "apt-양지마을금호1-분당구수내동-40평형",
      "apt-양지마을금호1-분당구수내동-26평형",
      "apt-양지마을금호1-분당구수내동-50평형",
      "apt-양지마을금호1-분당구수내동-59평형",
      "apt-양지마을금호1-분당구수내동-60평형"
    ]
  },
  {
    "id": "apt-파크타운대림-분당구수내동",
    "name": "파크타운(대림)",
    "address": "경기도 성남시 분당구 수내동",
    "roadAddress": "경기도 성남시 분당구 내정로 186",
    "type": "apartment",
    "lat": 37.3688410036702,
    "lng": 127.114797157872,
    "buildYear": 1993,
    "units": [
      "apt-파크타운대림-분당구수내동-26평형",
      "apt-파크타운대림-분당구수내동-31평형",
      "apt-파크타운대림-분당구수내동-40평형",
      "apt-파크타운대림-분당구수내동-18평형",
      "apt-파크타운대림-분당구수내동-56평형",
      "apt-파크타운대림-분당구수내동-41평형",
      "apt-파크타운대림-분당구수내동-58평형",
      "apt-파크타운대림-분당구수내동-57평형"
    ]
  },
  {
    "id": "apt-매화마을주공3-분당구야탑동",
    "name": "매화마을(주공3)",
    "address": "경기도 성남시 분당구 야탑동",
    "roadAddress": "경기도 성남시 분당구 양현로 537",
    "type": "apartment",
    "lat": 37.4113586256456,
    "lng": 127.125952835102,
    "buildYear": 1993,
    "units": [
      "apt-매화마을주공3-분당구야탑동-13평형",
      "apt-매화마을주공3-분당구야탑동-14평형",
      "apt-매화마을주공3-분당구야탑동-12평형",
      "apt-매화마을주공3-분당구야탑동-15평형",
      "apt-매화마을주공3-분당구야탑동-9평형"
    ]
  },
  {
    "id": "apt-이매촌성지-분당구이매동",
    "name": "이매촌(성지)",
    "address": "경기도 성남시 분당구 이매동",
    "roadAddress": "경기도 성남시 분당구 이매로 54",
    "type": "apartment",
    "lat": 37.3947298,
    "lng": 127.122204,
    "buildYear": 1992,
    "units": [
      "apt-이매촌성지-분당구이매동-26평형",
      "apt-이매촌성지-분당구이매동-31평형"
    ]
  },
  {
    "id": "apt-푸른마을쌍용-분당구수내동",
    "name": "푸른마을(쌍용)",
    "address": "경기도 성남시 분당구 수내동",
    "roadAddress": "경기도 성남시 분당구 백현로 265",
    "type": "apartment",
    "lat": 37.3740112903996,
    "lng": 127.113934350668,
    "buildYear": 1993,
    "units": [
      "apt-푸른마을쌍용-분당구수내동-26평형",
      "apt-푸른마을쌍용-분당구수내동-31평형",
      "apt-푸른마을쌍용-분당구수내동-40평형",
      "apt-푸른마을쌍용-분당구수내동-18평형",
      "apt-푸른마을쌍용-분당구수내동-50평형",
      "apt-푸른마을쌍용-분당구수내동-53평형"
    ]
  },
  {
    "id": "apt-정든마을8단지한진-분당구정자동",
    "name": "정든마을(8단지)(한진)",
    "address": "경기도 성남시 분당구 정자동",
    "roadAddress": "경기도 성남시 분당구 불정로 119",
    "type": "apartment",
    "lat": 37.3597148,
    "lng": 127.1176329,
    "buildYear": 1995,
    "units": [
      "apt-정든마을8단지한진-분당구정자동-34평형",
      "apt-정든마을8단지한진-분당구정자동-21평형",
      "apt-정든마을8단지한진-분당구정자동-26평형",
      "apt-정든마을8단지한진-분당구정자동-41평형",
      "apt-정든마을8단지한진-분당구정자동-15평형",
      "apt-정든마을8단지한진-분당구정자동-30평형"
    ]
  },
  {
    "id": "apt-분당더샾스타파크-분당구정자동",
    "name": "분당더샾스타파크",
    "address": "경기도 성남시 분당구 정자동",
    "roadAddress": "경기도 성남시 분당구 정자일로 121",
    "type": "apartment",
    "lat": 37.3613378183697,
    "lng": 127.105989350458,
    "buildYear": 2007,
    "units": [
      "apt-분당더샾스타파크-분당구정자동-35평형",
      "apt-분당더샾스타파크-분당구정자동-26평형"
    ]
  },
  {
    "id": "apt-산운마을6단지신동아파밀리에-분당구운중동",
    "name": "산운마을6단지(신동아파밀리에)",
    "address": "경기도 성남시 분당구 운중동",
    "roadAddress": "경기도 성남시 분당구 산운로 121",
    "type": "apartment",
    "lat": 37.3931362309343,
    "lng": 127.073888910259,
    "buildYear": 2009,
    "units": [
      "apt-산운마을6단지신동아파밀리에-분당구운중동-36평형",
      "apt-산운마을6단지신동아파밀리에-분당구운중동-31평형"
    ]
  },
  {
    "id": "apt-무지개5단지청구-분당구구미동",
    "name": "무지개(5단지)(청구)",
    "address": "경기도 성남시 분당구 구미동",
    "roadAddress": "경기도 성남시 분당구 무지개로 144",
    "type": "apartment",
    "lat": 37.3388639982998,
    "lng": 127.113379855812,
    "buildYear": 1995,
    "units": [
      "apt-무지개5단지청구-분당구구미동-18평형",
      "apt-무지개5단지청구-분당구구미동-26평형"
    ]
  },
  {
    "id": "apt-판교더샵포레스트11단지-분당구대장동",
    "name": "판교더샵포레스트11단지",
    "address": "경기도 성남시 분당구 대장동",
    "roadAddress": "경기도 성남시 분당구 판교대장로5길 58",
    "type": "apartment",
    "lat": 37.3665745016943,
    "lng": 127.071068626111,
    "buildYear": 2021,
    "units": [
      "apt-판교더샵포레스트11단지-분당구대장동-26평형"
    ]
  },
  {
    "id": "apt-청솔마을한라-분당구금곡동",
    "name": "청솔마을(한라)",
    "address": "경기도 성남시 분당구 금곡동",
    "roadAddress": "경기도 성남시 분당구 정자일로 72",
    "type": "apartment",
    "lat": 37.3506184533259,
    "lng": 127.107606647258,
    "buildYear": 1995,
    "units": [
      "apt-청솔마을한라-분당구금곡동-21평형",
      "apt-청솔마을한라-분당구금곡동-26평형",
      "apt-청솔마을한라-분당구금곡동-18평형"
    ]
  },
  {
    "id": "apt-판교원마을7단지모아미래도-분당구판교동",
    "name": "판교원마을7단지(모아미래도)",
    "address": "경기도 성남시 분당구 판교동",
    "roadAddress": "경기도 성남시 분당구 판교원로 237",
    "type": "apartment",
    "lat": 37.3878118616897,
    "lng": 127.084707149849,
    "buildYear": 2009,
    "units": [
      "apt-판교원마을7단지모아미래도-분당구판교동-17평형",
      "apt-판교원마을7단지모아미래도-분당구판교동-25평형",
      "apt-판교원마을7단지모아미래도-분당구판교동-24평형"
    ]
  },
  {
    "id": "apt-현대IPARK1-분당구정자동",
    "name": "현대I-PARK1",
    "address": "경기도 성남시 분당구 정자동",
    "roadAddress": "경기도 성남시 분당구 정자일로 239",
    "type": "apartment",
    "lat": 37.3613378183697,
    "lng": 127.105989350458,
    "buildYear": 2003,
    "units": [
      "apt-현대IPARK1-분당구정자동-24평형",
      "apt-현대IPARK1-분당구정자동-74평형",
      "apt-현대IPARK1-분당구정자동-52평형",
      "apt-현대IPARK1-분당구정자동-47평형",
      "apt-현대IPARK1-분당구정자동-49평형",
      "apt-현대IPARK1-분당구정자동-51평형",
      "apt-현대IPARK1-분당구정자동-59평형",
      "apt-현대IPARK1-분당구정자동-44평형",
      "apt-현대IPARK1-분당구정자동-56평형",
      "apt-현대IPARK1-분당구정자동-71평형",
      "apt-현대IPARK1-분당구정자동-57평형"
    ]
  },
  {
    "id": "apt-동양정자파라곤3단지-분당구정자동",
    "name": "동양정자파라곤(3단지)",
    "address": "경기도 성남시 분당구 정자동",
    "roadAddress": "경기도 성남시 분당구 정자일로 230",
    "type": "apartment",
    "lat": 37.3613378183697,
    "lng": 127.105989350458,
    "buildYear": 2004,
    "units": [
      "apt-동양정자파라곤3단지-분당구정자동-50평형",
      "apt-동양정자파라곤3단지-분당구정자동-44평형",
      "apt-동양정자파라곤3단지-분당구정자동-24평형"
    ]
  },
  {
    "id": "apt-무지개4단지주공-분당구구미동",
    "name": "무지개(4단지)(주공)",
    "address": "경기도 성남시 분당구 구미동",
    "roadAddress": "경기도 성남시 분당구 미금로 66",
    "type": "apartment",
    "lat": 37.3367571580584,
    "lng": 127.118938110394,
    "buildYear": 1995,
    "units": [
      "apt-무지개4단지주공-분당구구미동-18평형",
      "apt-무지개4단지주공-분당구구미동-15평형"
    ]
  },
  {
    "id": "apt-파크타운삼익-분당구수내동",
    "name": "파크타운(삼익)",
    "address": "경기도 성남시 분당구 수내동",
    "roadAddress": "경기도 성남시 분당구 내정로166번길 42",
    "type": "apartment",
    "lat": 37.3717869919063,
    "lng": 127.12112567443,
    "buildYear": 1993,
    "units": [
      "apt-파크타운삼익-분당구수내동-40평형",
      "apt-파크타운삼익-분당구수내동-56평형",
      "apt-파크타운삼익-분당구수내동-31평형",
      "apt-파크타운삼익-분당구수내동-41평형",
      "apt-파크타운삼익-분당구수내동-26평형"
    ]
  },
  {
    "id": "apt-이매촌한신-분당구이매동",
    "name": "이매촌(한신)",
    "address": "경기도 성남시 분당구 이매동",
    "roadAddress": "경기도 성남시 분당구 서현로 181",
    "type": "apartment",
    "lat": 37.3742167,
    "lng": 127.1439657,
    "buildYear": 1993,
    "units": [
      "apt-이매촌한신-분당구이매동-26평형",
      "apt-이매촌한신-분당구이매동-20평형",
      "apt-이매촌한신-분당구이매동-15평형"
    ]
  },
  {
    "id": "apt-로얄팰리스-분당구정자동",
    "name": "로얄팰리스",
    "address": "경기도 성남시 분당구 정자동",
    "roadAddress": "경기도 성남시 분당구 성남대로 449",
    "type": "apartment",
    "lat": 37.365628899414,
    "lng": 127.106455289975,
    "buildYear": 2003,
    "units": [
      "apt-로얄팰리스-분당구정자동-48평형",
      "apt-로얄팰리스-분당구정자동-58평형",
      "apt-로얄팰리스-분당구정자동-52평형",
      "apt-로얄팰리스-분당구정자동-45평형",
      "apt-로얄팰리스-분당구정자동-63평형",
      "apt-로얄팰리스-분당구정자동-74평형",
      "apt-로얄팰리스-분당구정자동-42평형",
      "apt-로얄팰리스-분당구정자동-44평형",
      "apt-로얄팰리스-분당구정자동-64평형",
      "apt-로얄팰리스-분당구정자동-65평형"
    ]
  },
  {
    "id": "apt-이매촌삼성-분당구이매동",
    "name": "이매촌(삼성)",
    "address": "경기도 성남시 분당구 이매동",
    "roadAddress": "경기도 성남시 분당구 양현로 192",
    "type": "apartment",
    "lat": 37.390934840402,
    "lng": 127.126027630076,
    "buildYear": 1994,
    "units": [
      "apt-이매촌삼성-분당구이매동-31평형",
      "apt-이매촌삼성-분당구이매동-22평형",
      "apt-이매촌삼성-분당구이매동-39평형",
      "apt-이매촌삼성-분당구이매동-53평형",
      "apt-이매촌삼성-분당구이매동-18평형",
      "apt-이매촌삼성-분당구이매동-26평형"
    ]
  },
  {
    "id": "apt-무지개6단지건영-분당구구미동",
    "name": "무지개(6단지)(건영)",
    "address": "경기도 성남시 분당구 구미동",
    "roadAddress": "경기도 성남시 분당구 구미로 115",
    "type": "apartment",
    "lat": 37.3384517227768,
    "lng": 127.119834191288,
    "buildYear": 1995,
    "units": [
      "apt-무지개6단지건영-분당구구미동-41평형",
      "apt-무지개6단지건영-분당구구미동-31평형",
      "apt-무지개6단지건영-분당구구미동-49평형"
    ]
  },
  {
    "id": "apt-느티마을3단지공무원-분당구정자동",
    "name": "느티마을(3단지)(공무원)",
    "address": "경기도 성남시 분당구 정자동",
    "roadAddress": "경기도 성남시 분당구 느티로 70",
    "type": "apartment",
    "lat": 37.3685431465027,
    "lng": 127.10954869583,
    "buildYear": 1995,
    "units": [
      "apt-느티마을3단지공무원-분당구정자동-18평형",
      "apt-느티마을3단지공무원-분당구정자동-20평형"
    ]
  },
  {
    "id": "apt-이매촌금강-분당구이매동",
    "name": "이매촌(금강)",
    "address": "경기도 성남시 분당구 이매동",
    "roadAddress": "경기도 성남시 분당구 서현로 177",
    "type": "apartment",
    "lat": 37.3742167,
    "lng": 127.1439657,
    "buildYear": 1992,
    "units": [
      "apt-이매촌금강-분당구이매동-15평형",
      "apt-이매촌금강-분당구이매동-26평형",
      "apt-이매촌금강-분당구이매동-30평형"
    ]
  },
  {
    "id": "apt-청솔마을영남-분당구금곡동",
    "name": "청솔마을(영남)",
    "address": "경기도 성남시 분당구 금곡동",
    "roadAddress": "경기도 성남시 분당구 성남대로171번길 8",
    "type": "apartment",
    "lat": 37.3513704551257,
    "lng": 127.107602867339,
    "buildYear": 1995,
    "units": [
      "apt-청솔마을영남-분당구금곡동-26평형",
      "apt-청솔마을영남-분당구금곡동-21평형",
      "apt-청솔마을영남-분당구금곡동-16평형"
    ]
  },
  {
    "id": "apt-탑마을벽산-분당구야탑동",
    "name": "탑마을(벽산)",
    "address": "경기도 성남시 분당구 야탑동",
    "roadAddress": "경기도 성남시 분당구 야탑로 124",
    "type": "apartment",
    "lat": 37.4093499911129,
    "lng": 127.139204070804,
    "buildYear": 1994,
    "units": [
      "apt-탑마을벽산-분당구야탑동-35평형",
      "apt-탑마을벽산-분당구야탑동-41평형",
      "apt-탑마을벽산-분당구야탑동-21평형",
      "apt-탑마을벽산-분당구야탑동-26평형",
      "apt-탑마을벽산-분당구야탑동-31평형",
      "apt-탑마을벽산-분당구야탑동-18평형"
    ]
  },
  {
    "id": "apt-장미마을현대-분당구야탑동",
    "name": "장미마을(현대)",
    "address": "경기도 성남시 분당구 야탑동",
    "roadAddress": "경기도 성남시 분당구 장미로 101",
    "type": "apartment",
    "lat": 37.4136253292012,
    "lng": 127.132215267764,
    "buildYear": 1993,
    "units": [
      "apt-장미마을현대-분당구야탑동-23평형",
      "apt-장미마을현대-분당구야탑동-13평형",
      "apt-장미마을현대-분당구야탑동-26평형",
      "apt-장미마을현대-분당구야탑동-18평형",
      "apt-장미마을현대-분당구야탑동-40평형",
      "apt-장미마을현대-분당구야탑동-31평형"
    ]
  },
  {
    "id": "apt-판교원마을6단지판교대광로제비앙-분당구판교동",
    "name": "판교원마을6단지(판교대광로제비앙)",
    "address": "경기도 성남시 분당구 판교동",
    "roadAddress": "경기도 성남시 분당구 판교원로 209",
    "type": "apartment",
    "lat": 37.3878118616897,
    "lng": 127.084707149849,
    "buildYear": 2009,
    "units": [
      "apt-판교원마을6단지판교대광로제비앙-분당구판교동-18평형",
      "apt-판교원마을6단지판교대광로제비앙-분당구판교동-25평형"
    ]
  },
  {
    "id": "apt-이매촌삼환-분당구이매동",
    "name": "이매촌(삼환)",
    "address": "경기도 성남시 분당구 이매동",
    "roadAddress": "경기도 성남시 분당구 양현로 220",
    "type": "apartment",
    "lat": 37.390934840402,
    "lng": 127.126027630076,
    "buildYear": 1994,
    "units": [
      "apt-이매촌삼환-분당구이매동-26평형",
      "apt-이매촌삼환-분당구이매동-31평형",
      "apt-이매촌삼환-분당구이매동-35평형",
      "apt-이매촌삼환-분당구이매동-40평형",
      "apt-이매촌삼환-분당구이매동-18평형"
    ]
  },
  {
    "id": "apt-까치마을4단지롯데-분당구구미동",
    "name": "까치마을(4단지)(롯데)",
    "address": "경기도 성남시 분당구 구미동",
    "roadAddress": "경기도 성남시 분당구 미금일로 58",
    "type": "apartment",
    "lat": 37.3458381569367,
    "lng": 127.110995834022,
    "buildYear": 1995,
    "units": [
      "apt-까치마을4단지롯데-분당구구미동-16평형",
      "apt-까치마을4단지롯데-분당구구미동-21평형",
      "apt-까치마을4단지롯데-분당구구미동-41평형",
      "apt-까치마을4단지롯데-분당구구미동-26평형",
      "apt-까치마을4단지롯데-분당구구미동-31평형"
    ]
  },
  {
    "id": "apt-무지개10단지삼성-분당구구미동",
    "name": "무지개(10단지)(삼성)",
    "address": "경기도 성남시 분당구 구미동",
    "roadAddress": "경기도 성남시 분당구 구미로 100",
    "type": "apartment",
    "lat": 37.3382008,
    "lng": 127.1208271,
    "buildYear": 1996,
    "units": [
      "apt-무지개10단지삼성-분당구구미동-41평형",
      "apt-무지개10단지삼성-분당구구미동-31평형"
    ]
  },
  {
    "id": "apt-아름마을두산-분당구이매동",
    "name": "아름마을(두산)",
    "address": "경기도 성남시 분당구 이매동",
    "roadAddress": "경기도 성남시 분당구 탄천로 95",
    "type": "apartment",
    "lat": 37.4281926674793,
    "lng": 127.117407999519,
    "buildYear": 1993,
    "units": [
      "apt-아름마을두산-분당구이매동-48평형",
      "apt-아름마을두산-분당구이매동-54평형",
      "apt-아름마을두산-분당구이매동-40평형",
      "apt-아름마을두산-분당구이매동-26평형",
      "apt-아름마을두산-분당구이매동-18평형",
      "apt-아름마을두산-분당구이매동-31평형"
    ]
  },
  {
    "id": "apt-상록마을라이프2차-분당구정자동",
    "name": "상록마을(라이프2차)",
    "address": "경기도 성남시 분당구 정자동",
    "roadAddress": "경기도 성남시 분당구 정자로76번길 10",
    "type": "apartment",
    "lat": 37.36257681451,
    "lng": 127.113286270857,
    "buildYear": 1994,
    "units": [
      "apt-상록마을라이프2차-분당구정자동-15평형",
      "apt-상록마을라이프2차-분당구정자동-26평형",
      "apt-상록마을라이프2차-분당구정자동-22평형"
    ]
  },
  {
    "id": "apt-아름마을풍림-분당구이매동",
    "name": "아름마을(풍림)",
    "address": "경기도 성남시 분당구 이매동",
    "roadAddress": "경기도 성남시 분당구 탄천로 35",
    "type": "apartment",
    "lat": 37.4281926674793,
    "lng": 127.117407999519,
    "buildYear": 1993,
    "units": [
      "apt-아름마을풍림-분당구이매동-23평형",
      "apt-아름마을풍림-분당구이매동-41평형",
      "apt-아름마을풍림-분당구이매동-31평형",
      "apt-아름마을풍림-분당구이매동-18평형",
      "apt-아름마을풍림-분당구이매동-49평형"
    ]
  },
  {
    "id": "apt-봇들마을2단지이지더원-분당구삼평동",
    "name": "봇들마을2단지(이지더원)",
    "address": "경기도 성남시 분당구 삼평동",
    "roadAddress": "경기도 성남시 분당구 판교로 393",
    "type": "apartment",
    "lat": 37.4037315158232,
    "lng": 127.099034149705,
    "buildYear": 2009,
    "units": [
      "apt-봇들마을2단지이지더원-분당구삼평동-25평형"
    ]
  },
  {
    "id": "apt-판교원마을1단지파라곤-분당구판교동",
    "name": "판교원마을1단지(파라곤)",
    "address": "경기도 성남시 분당구 판교동",
    "roadAddress": "경기도 성남시 분당구 판교로 50",
    "type": "apartment",
    "lat": 37.3983672689709,
    "lng": 127.093182165399,
    "buildYear": 2009,
    "units": [
      "apt-판교원마을1단지파라곤-분당구판교동-31평형",
      "apt-판교원마을1단지파라곤-분당구판교동-36평형",
      "apt-판교원마을1단지파라곤-분당구판교동-46평형"
    ]
  },
  {
    "id": "apt-성원상떼뷰201동-분당구정자동",
    "name": "성원상떼뷰201동",
    "address": "경기도 성남시 분당구 정자동",
    "roadAddress": "경기도 성남시 분당구 정자일로213번길 18",
    "type": "apartment",
    "lat": 37.3701378,
    "lng": 127.1053174,
    "buildYear": 2004,
    "units": [
      "apt-성원상떼뷰201동-분당구정자동-44평형",
      "apt-성원상떼뷰201동-분당구정자동-26평형"
    ]
  },
  {
    "id": "apt-산운마을11단지판교포레라움-분당구운중동",
    "name": "산운마을11단지(판교포레라움)",
    "address": "경기도 성남시 분당구 운중동",
    "roadAddress": "경기도 성남시 분당구 판교원로 68",
    "type": "apartment",
    "lat": 37.3899460288483,
    "lng": 127.067634641202,
    "buildYear": 2009,
    "units": [
      "apt-산운마을11단지판교포레라움-분당구운중동-18평형",
      "apt-산운마을11단지판교포레라움-분당구운중동-15평형"
    ]
  },
  {
    "id": "apt-까치마을1단지대우롯데선경-분당구구미동",
    "name": "까치마을(1단지)(대우롯데선경)",
    "address": "경기도 성남시 분당구 구미동",
    "roadAddress": "경기도 성남시 분당구 미금로 184",
    "type": "apartment",
    "lat": 37.3367571580584,
    "lng": 127.118938110394,
    "buildYear": 1995,
    "units": [
      "apt-까치마을1단지대우롯데선경-분당구구미동-21평형",
      "apt-까치마을1단지대우롯데선경-분당구구미동-26평형",
      "apt-까치마을1단지대우롯데선경-분당구구미동-16평형",
      "apt-까치마을1단지대우롯데선경-분당구구미동-41평형",
      "apt-까치마을1단지대우롯데선경-분당구구미동-31평형"
    ]
  },
  {
    "id": "apt-봇들마을1단지판교신미주-분당구삼평동",
    "name": "봇들마을1단지(판교신미주)",
    "address": "경기도 성남시 분당구 삼평동",
    "roadAddress": "경기도 성남시 분당구 동판교로 275",
    "type": "apartment",
    "lat": 37.3987513673426,
    "lng": 127.116830460102,
    "buildYear": 2009,
    "units": [
      "apt-봇들마을1단지판교신미주-분당구삼평동-25평형"
    ]
  },
  {
    "id": "apt-산운마을13단지태영-분당구운중동",
    "name": "산운마을13단지(태영)",
    "address": "경기도 성남시 분당구 운중동",
    "roadAddress": "경기도 성남시 분당구 판교원로82번길 30",
    "type": "apartment",
    "lat": 37.3861228302611,
    "lng": 127.074351203092,
    "buildYear": 2010,
    "units": [
      "apt-산운마을13단지태영-분당구운중동-35평형",
      "apt-산운마을13단지태영-분당구운중동-26평형",
      "apt-산운마을13단지태영-분당구운중동-31평형"
    ]
  },
  {
    "id": "apt-파크타운롯데-분당구수내동",
    "name": "파크타운(롯데)",
    "address": "경기도 성남시 분당구 수내동",
    "roadAddress": "경기도 성남시 분당구 내정로 152",
    "type": "apartment",
    "lat": 37.3688410036702,
    "lng": 127.114797157872,
    "buildYear": 1993,
    "units": [
      "apt-파크타운롯데-분당구수내동-31평형",
      "apt-파크타운롯데-분당구수내동-26평형",
      "apt-파크타운롯데-분당구수내동-41평형",
      "apt-파크타운롯데-분당구수내동-40평형",
      "apt-파크타운롯데-분당구수내동-56평형",
      "apt-파크타운롯데-분당구수내동-58평형"
    ]
  },
  {
    "id": "apt-장미마을코오롱1-분당구야탑동",
    "name": "장미마을(코오롱)1",
    "address": "경기도 성남시 분당구 야탑동",
    "roadAddress": "경기도 성남시 분당구 장미로 55",
    "type": "apartment",
    "lat": 37.4136253292012,
    "lng": 127.132215267764,
    "buildYear": 1993,
    "units": [
      "apt-장미마을코오롱1-분당구야탑동-18평형",
      "apt-장미마을코오롱1-분당구야탑동-22평형",
      "apt-장미마을코오롱1-분당구야탑동-41평형",
      "apt-장미마을코오롱1-분당구야탑동-26평형",
      "apt-장미마을코오롱1-분당구야탑동-31평형"
    ]
  },
  {
    "id": "apt-효자촌미래타운-분당구서현동",
    "name": "효자촌(미래타운)",
    "address": "경기도 성남시 분당구 서현동",
    "roadAddress": "경기도 성남시 분당구 불정로376번길 31",
    "type": "apartment",
    "lat": 37.3731251042723,
    "lng": 127.138757989543,
    "buildYear": 1994,
    "units": [
      "apt-효자촌미래타운-분당구서현동-41평형",
      "apt-효자촌미래타운-분당구서현동-31평형"
    ]
  },
  {
    "id": "apt-이매촌동신9-분당구이매동",
    "name": "이매촌(동신9)",
    "address": "경기도 성남시 분당구 이매동",
    "roadAddress": "경기도 성남시 분당구 양현로166번길 20",
    "type": "apartment",
    "lat": 37.3986767035056,
    "lng": 127.126772199492,
    "buildYear": 1992,
    "units": [
      "apt-이매촌동신9-분당구이매동-35평형",
      "apt-이매촌동신9-분당구이매동-18평형",
      "apt-이매촌동신9-분당구이매동-31평형",
      "apt-이매촌동신9-분당구이매동-26평형",
      "apt-이매촌동신9-분당구이매동-41평형"
    ]
  },
  {
    "id": "apt-무지개7단지라이프-분당구구미동",
    "name": "무지개(7단지)(라이프)",
    "address": "경기도 성남시 분당구 구미동",
    "roadAddress": "경기도 성남시 분당구 구미로 143",
    "type": "apartment",
    "lat": 37.3384517227768,
    "lng": 127.119834191288,
    "buildYear": 1995,
    "units": [
      "apt-무지개7단지라이프-분당구구미동-40평형",
      "apt-무지개7단지라이프-분당구구미동-49평형",
      "apt-무지개7단지라이프-분당구구미동-31평형"
    ]
  },
  {
    "id": "apt-삼성아데나루체-분당구정자동",
    "name": "삼성아데나루체",
    "address": "경기도 성남시 분당구 정자동",
    "roadAddress": "경기도 성남시 분당구 정자일로 120",
    "type": "apartment",
    "lat": 37.3613378183697,
    "lng": 127.105989350458,
    "buildYear": 2004,
    "units": [
      "apt-삼성아데나루체-분당구정자동-39평형",
      "apt-삼성아데나루체-분당구정자동-26평형",
      "apt-삼성아데나루체-분당구정자동-46평형",
      "apt-삼성아데나루체-분당구정자동-43평형",
      "apt-삼성아데나루체-분당구정자동-41평형"
    ]
  },
  {
    "id": "apt-한솔마을6단지주공-분당구정자동",
    "name": "한솔마을(6단지)(주공)",
    "address": "경기도 성남시 분당구 정자동",
    "roadAddress": "경기도 성남시 분당구 내정로 54",
    "type": "apartment",
    "lat": 37.3607103278578,
    "lng": 127.113296333528,
    "buildYear": 1995,
    "units": [
      "apt-한솔마을6단지주공-분당구정자동-12평형",
      "apt-한솔마을6단지주공-분당구정자동-18평형",
      "apt-한솔마을6단지주공-분당구정자동-11평형"
    ]
  },
  {
    "id": "apt-산운마을12단지판교센트럴포레와이시티-분당구운중동",
    "name": "산운마을12단지판교센트럴포레와이시티",
    "address": "경기도 성남시 분당구 운중동",
    "roadAddress": "경기도 성남시 분당구 판교원로 46",
    "type": "apartment",
    "lat": 37.3899460288483,
    "lng": 127.067634641202,
    "buildYear": 2009,
    "units": [
      "apt-산운마을12단지판교센트럴포레와이시티-분당구운중동-17평형",
      "apt-산운마을12단지판교센트럴포레와이시티-분당구운중동-18평형"
    ]
  },
  {
    "id": "apt-탑마을경남1-분당구야탑동",
    "name": "탑마을(경남)1",
    "address": "경기도 성남시 분당구 야탑동",
    "roadAddress": "경기도 성남시 분당구 판교로 519",
    "type": "apartment",
    "lat": 37.4059725007389,
    "lng": 127.122271876441,
    "buildYear": 1994,
    "units": [
      "apt-탑마을경남1-분당구야탑동-41평형",
      "apt-탑마을경남1-분당구야탑동-21평형",
      "apt-탑마을경남1-분당구야탑동-35평형",
      "apt-탑마을경남1-분당구야탑동-31평형",
      "apt-탑마을경남1-분당구야탑동-26평형",
      "apt-탑마을경남1-분당구야탑동-18평형"
    ]
  },
  {
    "id": "apt-아름마을삼호-분당구이매동",
    "name": "아름마을(삼호)",
    "address": "경기도 성남시 분당구 이매동",
    "roadAddress": "경기도 성남시 분당구 탄천로 95",
    "type": "apartment",
    "lat": 37.4094997,
    "lng": 127.1229073,
    "buildYear": 1993,
    "units": [
      "apt-아름마을삼호-분당구이매동-40평형",
      "apt-아름마을삼호-분당구이매동-48평형",
      "apt-아름마을삼호-분당구이매동-26평형",
      "apt-아름마을삼호-분당구이매동-18평형",
      "apt-아름마을삼호-분당구이매동-31평형"
    ]
  },
  {
    "id": "apt-현대IPARK-분당구야탑동",
    "name": "현대I-PARK",
    "address": "경기도 성남시 분당구 야탑동",
    "roadAddress": "경기도 성남시 분당구 야탑로 125",
    "type": "apartment",
    "lat": 37.4093499911129,
    "lng": 127.139204070804,
    "buildYear": 2003,
    "units": [
      "apt-현대IPARK-분당구야탑동-44평형",
      "apt-현대IPARK-분당구야탑동-36평형",
      "apt-현대IPARK-분당구야탑동-54평형"
    ]
  },
  {
    "id": "apt-두산위브트레지움-분당구금곡동",
    "name": "두산위브트레지움",
    "address": "경기도 성남시 분당구 금곡동",
    "roadAddress": "경기도 성남시 분당구 정자일로 55",
    "type": "apartment",
    "lat": 37.3506184533259,
    "lng": 127.107606647258,
    "buildYear": 2003,
    "units": [
      "apt-두산위브트레지움-분당구금곡동-45평형",
      "apt-두산위브트레지움-분당구금곡동-26평형",
      "apt-두산위브트레지움-분당구금곡동-37평형",
      "apt-두산위브트레지움-분당구금곡동-36평형"
    ]
  },
  {
    "id": "apt-이매촌진흥-분당구이매동",
    "name": "이매촌(진흥)",
    "address": "경기도 성남시 분당구 이매동",
    "roadAddress": "경기도 성남시 분당구 양현로 138",
    "type": "apartment",
    "lat": 37.390934840402,
    "lng": 127.126027630076,
    "buildYear": 1993,
    "units": [
      "apt-이매촌진흥-분당구이매동-41평형",
      "apt-이매촌진흥-분당구이매동-26평형",
      "apt-이매촌진흥-분당구이매동-18평형",
      "apt-이매촌진흥-분당구이매동-31평형"
    ]
  },
  {
    "id": "apt-양지마을3단지금호-분당구수내동",
    "name": "양지마을(3단지)(금호)",
    "address": "경기도 성남시 분당구 수내동",
    "roadAddress": "경기도 성남시 분당구 내정로 151",
    "type": "apartment",
    "lat": 37.3688410036702,
    "lng": 127.114797157872,
    "buildYear": 1992,
    "units": [
      "apt-양지마을3단지금호-분당구수내동-31평형",
      "apt-양지마을3단지금호-분당구수내동-41평형",
      "apt-양지마을3단지금호-분당구수내동-58평형"
    ]
  },
  {
    "id": "apt-까치마을4단지선경-분당구구미동",
    "name": "까치마을(4단지)(선경)",
    "address": "경기도 성남시 분당구 구미동",
    "roadAddress": "경기도 성남시 분당구 미금일로 58",
    "type": "apartment",
    "lat": 37.3473649,
    "lng": 127.107228,
    "buildYear": 1995,
    "units": [
      "apt-까치마을4단지선경-분당구구미동-16평형",
      "apt-까치마을4단지선경-분당구구미동-26평형",
      "apt-까치마을4단지선경-분당구구미동-21평형",
      "apt-까치마을4단지선경-분당구구미동-31평형",
      "apt-까치마을4단지선경-분당구구미동-41평형"
    ]
  },
  {
    "id": "apt-힐스테이트판교엘포레A4BL-분당구대장동",
    "name": "힐스테이트판교엘포레A4BL",
    "address": "경기도 성남시 분당구 대장동",
    "roadAddress": "경기도 성남시 분당구 판교대장로5길 19",
    "type": "apartment",
    "lat": 37.3665745016943,
    "lng": 127.071068626111,
    "buildYear": 2021,
    "units": [
      "apt-힐스테이트판교엘포레A4BL-분당구대장동-40평형"
    ]
  },
  {
    "id": "apt-분당하우스토리-분당구금곡동",
    "name": "분당하우스토리",
    "address": "경기도 성남시 분당구 금곡동",
    "roadAddress": "경기도 성남시 분당구 정자일로 15",
    "type": "apartment",
    "lat": 37.3506184533259,
    "lng": 127.107606647258,
    "buildYear": 2004,
    "units": [
      "apt-분당하우스토리-분당구금곡동-54평형",
      "apt-분당하우스토리-분당구금곡동-26평형",
      "apt-분당하우스토리-분당구금곡동-40평형",
      "apt-분당하우스토리-분당구금곡동-48평형"
    ]
  },
  {
    "id": "apt-매화마을주공4-분당구야탑동",
    "name": "매화마을(주공4)",
    "address": "경기도 성남시 분당구 야탑동",
    "roadAddress": "경기도 성남시 분당구 장미로 193",
    "type": "apartment",
    "lat": 37.4136253292012,
    "lng": 127.132215267764,
    "buildYear": 1993,
    "units": [
      "apt-매화마을주공4-분당구야탑동-11평형",
      "apt-매화마을주공4-분당구야탑동-13평형"
    ]
  },
  {
    "id": "apt-산운마을9단지대방노블랜드-분당구운중동",
    "name": "산운마을9단지(대방노블랜드)",
    "address": "경기도 성남시 분당구 운중동",
    "roadAddress": "경기도 성남시 분당구 산운로 126",
    "type": "apartment",
    "lat": 37.3931362309343,
    "lng": 127.073888910259,
    "buildYear": 2008,
    "units": [
      "apt-산운마을9단지대방노블랜드-분당구운중동-26평형",
      "apt-산운마을9단지대방노블랜드-분당구운중동-18평형"
    ]
  },
  {
    "id": "apt-효자촌럭키-분당구서현동",
    "name": "효자촌(럭키)",
    "address": "경기도 성남시 분당구 서현동",
    "roadAddress": "경기도 성남시 분당구 불정로 362",
    "type": "apartment",
    "lat": 37.3720121,
    "lng": 127.135631,
    "buildYear": 1994,
    "units": [
      "apt-효자촌럭키-분당구서현동-16평형",
      "apt-효자촌럭키-분당구서현동-21평형",
      "apt-효자촌럭키-분당구서현동-26평형"
    ]
  },
  {
    "id": "apt-하얀마을5단지주공-분당구구미동",
    "name": "하얀마을(5단지)(주공)",
    "address": "경기도 성남시 분당구 구미동",
    "roadAddress": "경기도 성남시 분당구 미금일로 21",
    "type": "apartment",
    "lat": 37.3458381569367,
    "lng": 127.110995834022,
    "buildYear": 1995,
    "units": [
      "apt-하얀마을5단지주공-분당구구미동-11평형",
      "apt-하얀마을5단지주공-분당구구미동-12평형"
    ]
  },
  {
    "id": "apt-샛별마을삼부-분당구분당동",
    "name": "샛별마을(삼부)",
    "address": "경기도 성남시 분당구 분당동",
    "roadAddress": "경기도 성남시 분당구 수내로 201",
    "type": "apartment",
    "lat": 37.3763175773921,
    "lng": 127.12089834593,
    "buildYear": 1992,
    "units": [
      "apt-샛별마을삼부-분당구분당동-18평형",
      "apt-샛별마을삼부-분당구분당동-39평형",
      "apt-샛별마을삼부-분당구분당동-26평형",
      "apt-샛별마을삼부-분당구분당동-21평형"
    ]
  },
  {
    "id": "apt-아름마을건영-분당구이매동",
    "name": "아름마을(건영)",
    "address": "경기도 성남시 분당구 이매동",
    "roadAddress": "경기도 성남시 분당구 판교로 430",
    "type": "apartment",
    "lat": 37.4051627,
    "lng": 127.1493982,
    "buildYear": 1992,
    "units": [
      "apt-아름마을건영-분당구이매동-41평형",
      "apt-아름마을건영-분당구이매동-59평형",
      "apt-아름마을건영-분당구이매동-31평형",
      "apt-아름마을건영-분당구이매동-49평형"
    ]
  },
  {
    "id": "apt-더샵분당파크리버-분당구정자동",
    "name": "더샵분당파크리버",
    "address": "경기도 성남시 분당구 정자동",
    "roadAddress": "경기도 성남시 분당구 돌마로 171",
    "type": "apartment",
    "lat": 37.3693402,
    "lng": 127.1220036,
    "buildYear": 2021,
    "units": [
      "apt-더샵분당파크리버-분당구정자동-23평형",
      "apt-더샵분당파크리버-분당구정자동-18평형",
      "apt-더샵분당파크리버-분당구정자동-26평형"
    ]
  },
  {
    "id": "apt-판교푸르지오그랑블-분당구백현동",
    "name": "판교푸르지오그랑블",
    "address": "경기도 성남시 분당구 백현동",
    "roadAddress": "경기도 성남시 분당구 동판교로 123",
    "type": "apartment",
    "lat": 37.3865611039922,
    "lng": 127.114409643452,
    "buildYear": 2011,
    "units": [
      "apt-판교푸르지오그랑블-분당구백현동-30평형",
      "apt-판교푸르지오그랑블-분당구백현동-36평형",
      "apt-판교푸르지오그랑블-분당구백현동-31평형",
      "apt-판교푸르지오그랑블-분당구백현동-42평형",
      "apt-판교푸르지오그랑블-분당구백현동-32평형"
    ]
  },
  {
    "id": "apt-효자촌동아-분당구서현동",
    "name": "효자촌(동아)",
    "address": "경기도 성남시 분당구 서현동",
    "roadAddress": "경기도 성남시 분당구 돌마로486번길 7",
    "type": "apartment",
    "lat": 37.3761240894187,
    "lng": 127.135402383145,
    "buildYear": 1992,
    "units": [
      "apt-효자촌동아-분당구서현동-18평형",
      "apt-효자촌동아-분당구서현동-26평형",
      "apt-효자촌동아-분당구서현동-31평형",
      "apt-효자촌동아-분당구서현동-50평형",
      "apt-효자촌동아-분당구서현동-39평형"
    ]
  },
  {
    "id": "apt-판교원마을12단지힐스테이트-분당구판교동",
    "name": "판교원마을12단지(힐스테이트)",
    "address": "경기도 성남시 분당구 판교동",
    "roadAddress": "경기도 성남시 분당구 서판교로 165",
    "type": "apartment",
    "lat": 37.3960422612656,
    "lng": 127.098098318392,
    "buildYear": 2009,
    "units": [
      "apt-판교원마을12단지힐스테이트-분당구판교동-36평형",
      "apt-판교원마을12단지힐스테이트-분당구판교동-31평형",
      "apt-판교원마을12단지힐스테이트-분당구판교동-35평형",
      "apt-판교원마을12단지힐스테이트-분당구판교동-45평형"
    ]
  },
  {
    "id": "apt-판교원마을11단지힐스테이트-분당구판교동",
    "name": "판교원마을11단지(힐스테이트)",
    "address": "경기도 성남시 분당구 판교동",
    "roadAddress": "경기도 성남시 분당구 서판교로 147",
    "type": "apartment",
    "lat": 37.3960422612656,
    "lng": 127.098098318392,
    "buildYear": 2009,
    "units": [
      "apt-판교원마을11단지힐스테이트-분당구판교동-36평형",
      "apt-판교원마을11단지힐스테이트-분당구판교동-31평형",
      "apt-판교원마을11단지힐스테이트-분당구판교동-35평형"
    ]
  },
  {
    "id": "apt-느티마을4단지공무원-분당구정자동",
    "name": "느티마을(4단지)(공무원)",
    "address": "경기도 성남시 분당구 정자동",
    "roadAddress": "경기도 성남시 분당구 느티로 70",
    "type": "apartment",
    "lat": 37.3685431465027,
    "lng": 127.10954869583,
    "buildYear": 1994,
    "units": [
      "apt-느티마을4단지공무원-분당구정자동-20평형",
      "apt-느티마을4단지공무원-분당구정자동-18평형"
    ]
  },
  {
    "id": "apt-탑마을경향-분당구야탑동",
    "name": "탑마을(경향)",
    "address": "경기도 성남시 분당구 야탑동",
    "roadAddress": "경기도 성남시 분당구 양현로 272",
    "type": "apartment",
    "lat": 37.4113586256456,
    "lng": 127.125952835102,
    "buildYear": 1993,
    "units": [
      "apt-탑마을경향-분당구야탑동-40평형",
      "apt-탑마을경향-분당구야탑동-31평형"
    ]
  },
  {
    "id": "apt-상록마을임광-분당구정자동",
    "name": "상록마을(임광)",
    "address": "경기도 성남시 분당구 정자동",
    "roadAddress": "경기도 성남시 분당구 정자일로 80",
    "type": "apartment",
    "lat": 37.3619161,
    "lng": 127.1059814,
    "buildYear": 1995,
    "units": [
      "apt-상록마을임광-분당구정자동-26평형",
      "apt-상록마을임광-분당구정자동-15평형",
      "apt-상록마을임광-분당구정자동-20평형"
    ]
  },
  {
    "id": "apt-한솔마을2단지LG-분당구정자동",
    "name": "한솔마을(2단지)(LG)",
    "address": "경기도 성남시 분당구 정자동",
    "roadAddress": "경기도 성남시 분당구 정자로 143",
    "type": "apartment",
    "lat": 37.363464095084,
    "lng": 127.113901695517,
    "buildYear": 1995,
    "units": [
      "apt-한솔마을2단지LG-분당구정자동-31평형",
      "apt-한솔마을2단지LG-분당구정자동-41평형",
      "apt-한솔마을2단지LG-분당구정자동-50평형"
    ]
  },
  {
    "id": "apt-무지개1단지대림-분당구구미동",
    "name": "무지개(1단지)(대림)",
    "address": "경기도 성남시 분당구 구미동",
    "roadAddress": "경기도 성남시 분당구 미금로 23",
    "type": "apartment",
    "lat": 37.3367571580584,
    "lng": 127.118938110394,
    "buildYear": 1995,
    "units": [
      "apt-무지개1단지대림-분당구구미동-18평형",
      "apt-무지개1단지대림-분당구구미동-14평형",
      "apt-무지개1단지대림-분당구구미동-26평형",
      "apt-무지개1단지대림-분당구구미동-38평형",
      "apt-무지개1단지대림-분당구구미동-40평형",
      "apt-무지개1단지대림-분당구구미동-31평형"
    ]
  },
  {
    "id": "apt-백현마을2단지-분당구백현동",
    "name": "백현마을2단지",
    "address": "경기도 성남시 분당구 백현동",
    "roadAddress": "경기도 성남시 분당구 동판교로 122",
    "type": "apartment",
    "lat": 37.3865611039922,
    "lng": 127.114409643452,
    "buildYear": 2009,
    "units": [
      "apt-백현마을2단지-분당구백현동-26평형",
      "apt-백현마을2단지-분당구백현동-31평형",
      "apt-백현마을2단지-분당구백현동-36평형"
    ]
  },
  {
    "id": "apt-푸른마을벽산-분당구수내동",
    "name": "푸른마을(벽산)",
    "address": "경기도 성남시 분당구 수내동",
    "roadAddress": "경기도 성남시 분당구 수내로 206",
    "type": "apartment",
    "lat": 37.369708611255,
    "lng": 127.126280784178,
    "buildYear": 1992,
    "units": [
      "apt-푸른마을벽산-분당구수내동-31평형",
      "apt-푸른마을벽산-분당구수내동-18평형",
      "apt-푸른마을벽산-분당구수내동-26평형",
      "apt-푸른마을벽산-분당구수내동-40평형",
      "apt-푸른마을벽산-분당구수내동-50평형",
      "apt-푸른마을벽산-분당구수내동-53평형",
      "apt-푸른마을벽산-분당구수내동-42평형"
    ]
  },
  {
    "id": "apt-한솔마을3단지한일-분당구정자동",
    "name": "한솔마을(3단지)(한일)",
    "address": "경기도 성남시 분당구 정자동",
    "roadAddress": "경기도 성남시 분당구 백현로 234",
    "type": "apartment",
    "lat": 37.3724863709846,
    "lng": 127.113020958608,
    "buildYear": 1993,
    "units": [
      "apt-한솔마을3단지한일-분당구정자동-26평형",
      "apt-한솔마을3단지한일-분당구정자동-18평형",
      "apt-한솔마을3단지한일-분당구정자동-39평형",
      "apt-한솔마을3단지한일-분당구정자동-31평형"
    ]
  },
  {
    "id": "apt-매화마을공무원1-분당구야탑동",
    "name": "매화마을공무원1",
    "address": "경기도 성남시 분당구 야탑동",
    "roadAddress": "경기도 성남시 분당구 매화로 92",
    "type": "apartment",
    "lat": 37.4121102645266,
    "lng": 127.133897927458,
    "buildYear": 1995,
    "units": [
      "apt-매화마을공무원1-분당구야탑동-18평형",
      "apt-매화마을공무원1-분당구야탑동-15평형"
    ]
  },
  {
    "id": "apt-무지개9단지동아-분당구구미동",
    "name": "무지개(9단지)(동아)",
    "address": "경기도 성남시 분당구 구미동",
    "roadAddress": "경기도 성남시 분당구 구미로144번길 8",
    "type": "apartment",
    "lat": 37.3399527868317,
    "lng": 127.127470594303,
    "buildYear": 1995,
    "units": [
      "apt-무지개9단지동아-분당구구미동-31평형",
      "apt-무지개9단지동아-분당구구미동-41평형"
    ]
  },
  {
    "id": "apt-장안타운건영-분당구분당동",
    "name": "장안타운(건영)",
    "address": "경기도 성남시 분당구 분당동",
    "roadAddress": "경기도 성남시 분당구 분당로263번길 24",
    "type": "apartment",
    "lat": 37.3712350635965,
    "lng": 127.142289167751,
    "buildYear": 1993,
    "units": [
      "apt-장안타운건영-분당구분당동-26평형",
      "apt-장안타운건영-분당구분당동-21평형",
      "apt-장안타운건영-분당구분당동-40평형",
      "apt-장안타운건영-분당구분당동-20평형",
      "apt-장안타운건영-분당구분당동-49평형",
      "apt-장안타운건영-분당구분당동-16평형",
      "apt-장안타운건영-분당구분당동-31평형"
    ]
  },
  {
    "id": "apt-무지개3단지건영-분당구구미동",
    "name": "무지개(3단지)(건영)",
    "address": "경기도 성남시 분당구 구미동",
    "roadAddress": "경기도 성남시 분당구 미금로 63",
    "type": "apartment",
    "lat": 37.3390671,
    "lng": 127.114794,
    "buildYear": 1996,
    "units": [
      "apt-무지개3단지건영-분당구구미동-21평형",
      "apt-무지개3단지건영-분당구구미동-16평형",
      "apt-무지개3단지건영-분당구구미동-26평형"
    ]
  },
  {
    "id": "apt-상록마을보성-분당구정자동",
    "name": "상록마을(보성)",
    "address": "경기도 성남시 분당구 정자동",
    "roadAddress": "경기도 성남시 분당구 정자일로 80",
    "type": "apartment",
    "lat": 37.3613378183697,
    "lng": 127.105989350458,
    "buildYear": 1995,
    "units": [
      "apt-상록마을보성-분당구정자동-20평형",
      "apt-상록마을보성-분당구정자동-15평형",
      "apt-상록마을보성-분당구정자동-26평형"
    ]
  },
  {
    "id": "apt-효자촌화성-분당구서현동",
    "name": "효자촌(화성)",
    "address": "경기도 성남시 분당구 서현동",
    "roadAddress": "경기도 성남시 분당구 불정로 362",
    "type": "apartment",
    "lat": 37.3726221063004,
    "lng": 127.137949954999,
    "buildYear": 1994,
    "units": [
      "apt-효자촌화성-분당구서현동-16평형",
      "apt-효자촌화성-분당구서현동-26평형",
      "apt-효자촌화성-분당구서현동-21평형"
    ]
  },
  {
    "id": "apt-샛별마을우방-분당구분당동",
    "name": "샛별마을(우방)",
    "address": "경기도 성남시 분당구 분당동",
    "roadAddress": "경기도 성남시 분당구 수내로 181",
    "type": "apartment",
    "lat": 37.3763175773921,
    "lng": 127.12089834593,
    "buildYear": 1994,
    "units": [
      "apt-샛별마을우방-분당구분당동-17평형",
      "apt-샛별마을우방-분당구분당동-22평형",
      "apt-샛별마을우방-분당구분당동-26평형",
      "apt-샛별마을우방-분당구분당동-31평형",
      "apt-샛별마을우방-분당구분당동-56평형",
      "apt-샛별마을우방-분당구분당동-40평형"
    ]
  },
  {
    "id": "apt-양지마을6단지금호청구-분당구수내동",
    "name": "양지마을(6단지)(금호,청구)",
    "address": "경기도 성남시 분당구 수내동",
    "roadAddress": "경기도 성남시 분당구 내정로165번길 38",
    "type": "apartment",
    "lat": 37.3754200840288,
    "lng": 127.117029438801,
    "buildYear": 1992,
    "units": [
      "apt-양지마을6단지금호청구-분당구수내동-17평형",
      "apt-양지마을6단지금호청구-분당구수내동-20평형",
      "apt-양지마을6단지금호청구-분당구수내동-18평형"
    ]
  },
  {
    "id": "apt-무지개2단지엘지-분당구구미동",
    "name": "무지개(2단지)(엘지)",
    "address": "경기도 성남시 분당구 구미동",
    "roadAddress": "경기도 성남시 분당구 구미로 50",
    "type": "apartment",
    "lat": 37.3384517227768,
    "lng": 127.119834191288,
    "buildYear": 1995,
    "units": [
      "apt-무지개2단지엘지-분당구구미동-15평형",
      "apt-무지개2단지엘지-분당구구미동-26평형",
      "apt-무지개2단지엘지-분당구구미동-41평형",
      "apt-무지개2단지엘지-분당구구미동-31평형",
      "apt-무지개2단지엘지-분당구구미동-22평형"
    ]
  },
  {
    "id": "apt-판교더샵포레스트12단지-분당구대장동",
    "name": "판교더샵포레스트12단지",
    "address": "경기도 성남시 분당구 대장동",
    "roadAddress": "경기도 성남시 분당구 판교대장로5길 30",
    "type": "apartment",
    "lat": 37.3665745016943,
    "lng": 127.071068626111,
    "buildYear": 2021,
    "units": [
      "apt-판교더샵포레스트12단지-분당구대장동-26평형"
    ]
  },
  {
    "id": "apt-산운마을10단지대광로제비앙-분당구운중동",
    "name": "산운마을10단지(대광로제비앙)",
    "address": "경기도 성남시 분당구 운중동",
    "roadAddress": "경기도 성남시 분당구 판교원로81번길 15",
    "type": "apartment",
    "lat": 37.3905280498174,
    "lng": 127.075726914005,
    "buildYear": 2009,
    "units": [
      "apt-산운마을10단지대광로제비앙-분당구운중동-18평형",
      "apt-산운마을10단지대광로제비앙-분당구운중동-25평형"
    ]
  },
  {
    "id": "apt-목련마을영남-분당구야탑동",
    "name": "목련마을(영남)",
    "address": "경기도 성남시 분당구 야탑동",
    "roadAddress": "경기도 성남시 분당구 판교로 669",
    "type": "apartment",
    "lat": 37.4059725007389,
    "lng": 127.122271876441,
    "buildYear": 1995,
    "units": [
      "apt-목련마을영남-분당구야탑동-26평형",
      "apt-목련마을영남-분당구야탑동-16평형"
    ]
  },
  {
    "id": "apt-탑마을기산1-분당구야탑동",
    "name": "탑마을(기산)1",
    "address": "경기도 성남시 분당구 야탑동",
    "roadAddress": "경기도 성남시 분당구 양현로 272",
    "type": "apartment",
    "lat": 37.4113586256456,
    "lng": 127.125952835102,
    "buildYear": 1993,
    "units": [
      "apt-탑마을기산1-분당구야탑동-40평형",
      "apt-탑마을기산1-분당구야탑동-31평형"
    ]
  },
  {
    "id": "apt-청솔마을공무원-분당구금곡동",
    "name": "청솔마을(공무원)",
    "address": "경기도 성남시 분당구 금곡동",
    "roadAddress": "경기도 성남시 분당구 금곡로 263",
    "type": "apartment",
    "lat": 37.3502874,
    "lng": 127.1200719,
    "buildYear": 1995,
    "units": [
      "apt-청솔마을공무원-분당구금곡동-18평형",
      "apt-청솔마을공무원-분당구금곡동-20평형"
    ]
  },
  {
    "id": "apt-판교퍼스트힐푸르지오A2-분당구대장동",
    "name": "판교퍼스트힐푸르지오A2",
    "address": "경기도 성남시 분당구 대장동",
    "roadAddress": "경기도 성남시 분당구 판교대장로7길 57",
    "type": "apartment",
    "lat": 37.3738215454946,
    "lng": 127.068310431217,
    "buildYear": 2021,
    "units": [
      "apt-판교퍼스트힐푸르지오A2-분당구대장동-26평형"
    ]
  },
  {
    "id": "apt-판교원마을3단지푸르지오-분당구판교동",
    "name": "판교원마을3단지(푸르지오)",
    "address": "경기도 성남시 분당구 판교동",
    "roadAddress": "경기도 성남시 분당구 판교로 20",
    "type": "apartment",
    "lat": 37.3983672689709,
    "lng": 127.093182165399,
    "buildYear": 2009,
    "units": [
      "apt-판교원마을3단지푸르지오-분당구판교동-45평형",
      "apt-판교원마을3단지푸르지오-분당구판교동-26평형",
      "apt-판교원마을3단지푸르지오-분당구판교동-35평형",
      "apt-판교원마을3단지푸르지오-분당구판교동-31평형"
    ]
  },
  {
    "id": "apt-청솔마을대원-분당구금곡동",
    "name": "청솔마을(대원)",
    "address": "경기도 성남시 분당구 금곡동",
    "roadAddress": "경기도 성남시 분당구 미금로 215",
    "type": "apartment",
    "lat": 37.3470496488571,
    "lng": 127.116098314378,
    "buildYear": 1995,
    "units": [
      "apt-청솔마을대원-분당구금곡동-39평형",
      "apt-청솔마을대원-분당구금곡동-26평형",
      "apt-청솔마을대원-분당구금곡동-31평형",
      "apt-청솔마을대원-분당구금곡동-15평형"
    ]
  },
  {
    "id": "apt-목련마을한일-분당구야탑동",
    "name": "목련마을(한일)",
    "address": "경기도 성남시 분당구 야탑동",
    "roadAddress": "경기도 성남시 분당구 판교로 645",
    "type": "apartment",
    "lat": 37.4059725007389,
    "lng": 127.122271876441,
    "buildYear": 1995,
    "units": [
      "apt-목련마을한일-분당구야탑동-15평형",
      "apt-목련마을한일-분당구야탑동-26평형"
    ]
  },
  {
    "id": "apt-시범한신-분당구서현동",
    "name": "시범한신",
    "address": "경기도 성남시 분당구 서현동",
    "roadAddress": "경기도 성남시 분당구 중앙공원로 53",
    "type": "apartment",
    "lat": 37.3806177,
    "lng": 127.1290905,
    "buildYear": 1991,
    "units": [
      "apt-시범한신-분당구서현동-18평형",
      "apt-시범한신-분당구서현동-26평형",
      "apt-시범한신-분당구서현동-52평형",
      "apt-시범한신-분당구서현동-40평형"
    ]
  },
  {
    "id": "apt-성원상떼뷰101동-분당구정자동",
    "name": "성원상떼뷰101동",
    "address": "경기도 성남시 분당구 정자동",
    "roadAddress": "경기도 성남시 분당구 정자일로213번길 10",
    "type": "apartment",
    "lat": 37.3701378,
    "lng": 127.1053174,
    "buildYear": 2004,
    "units": [
      "apt-성원상떼뷰101동-분당구정자동-48평형",
      "apt-성원상떼뷰101동-분당구정자동-44평형",
      "apt-성원상떼뷰101동-분당구정자동-26평형"
    ]
  },
  {
    "id": "apt-봇들마을7단지-분당구삼평동",
    "name": "봇들마을7단지",
    "address": "경기도 성남시 분당구 삼평동",
    "roadAddress": "경기도 성남시 분당구 동판교로 155",
    "type": "apartment",
    "lat": 37.3987513673426,
    "lng": 127.116830460102,
    "buildYear": 2009,
    "units": [
      "apt-봇들마을7단지-분당구삼평동-33평형",
      "apt-봇들마을7단지-분당구삼평동-26평형"
    ]
  },
  {
    "id": "apt-무지개8단지제일-분당구구미동",
    "name": "무지개(8단지)(제일)",
    "address": "경기도 성남시 분당구 구미동",
    "roadAddress": "경기도 성남시 분당구 구미로144번길 7",
    "type": "apartment",
    "lat": 37.3393789,
    "lng": 127.1259603,
    "buildYear": 1995,
    "units": [
      "apt-무지개8단지제일-분당구구미동-31평형",
      "apt-무지개8단지제일-분당구구미동-41평형"
    ]
  },
  {
    "id": "apt-정든마을7단지한진-분당구정자동",
    "name": "정든마을(7단지)(한진)",
    "address": "경기도 성남시 분당구 정자동",
    "roadAddress": "경기도 성남시 분당구 내정로 10",
    "type": "apartment",
    "lat": 37.3607103278578,
    "lng": 127.113296333528,
    "buildYear": 1994,
    "units": [
      "apt-정든마을7단지한진-분당구정자동-21평형",
      "apt-정든마을7단지한진-분당구정자동-15평형",
      "apt-정든마을7단지한진-분당구정자동-26평형"
    ]
  },
  {
    "id": "apt-파크타운서안-분당구수내동",
    "name": "파크타운(서안)",
    "address": "경기도 성남시 분당구 수내동",
    "roadAddress": "경기도 성남시 분당구 수내로 148",
    "type": "apartment",
    "lat": 37.3723459956922,
    "lng": 127.121907373306,
    "buildYear": 1993,
    "units": [
      "apt-파크타운서안-분당구수내동-31평형",
      "apt-파크타운서안-분당구수내동-56평형",
      "apt-파크타운서안-분당구수내동-18평형",
      "apt-파크타운서안-분당구수내동-26평형",
      "apt-파크타운서안-분당구수내동-41평형",
      "apt-파크타운서안-분당구수내동-40평형"
    ]
  },
  {
    "id": "apt-청솔마을서광-분당구금곡동",
    "name": "청솔마을(서광)",
    "address": "경기도 성남시 분당구 금곡동",
    "roadAddress": "경기도 성남시 분당구 성남대로171번길 8",
    "type": "apartment",
    "lat": 37.3513067,
    "lng": 127.1075553,
    "buildYear": 1995,
    "units": [
      "apt-청솔마을서광-분당구금곡동-16평형",
      "apt-청솔마을서광-분당구금곡동-26평형",
      "apt-청솔마을서광-분당구금곡동-21평형"
    ]
  },
  {
    "id": "apt-청솔마을주공9단지-분당구금곡동",
    "name": "청솔마을(주공9단지)",
    "address": "경기도 성남시 분당구 금곡동",
    "roadAddress": "경기도 성남시 분당구 미금로 216",
    "type": "apartment",
    "lat": 37.3470496488571,
    "lng": 127.116098314378,
    "buildYear": 1996,
    "units": [
      "apt-청솔마을주공9단지-분당구금곡동-13평형",
      "apt-청솔마을주공9단지-분당구금곡동-11평형"
    ]
  },
  {
    "id": "apt-백현마을5단지주공-분당구백현동",
    "name": "백현마을5단지(주공)",
    "address": "경기도 성남시 분당구 백현동",
    "roadAddress": "경기도 성남시 분당구 판교역로 102",
    "type": "apartment",
    "lat": 37.3853391396126,
    "lng": 127.11243354368,
    "buildYear": 2009,
    "units": [
      "apt-백현마을5단지주공-분당구백현동-26평형",
      "apt-백현마을5단지주공-분당구백현동-23평형"
    ]
  },
  {
    "id": "apt-효자촌임광-분당구서현동",
    "name": "효자촌(임광)",
    "address": "경기도 성남시 분당구 서현동",
    "roadAddress": "경기도 성남시 분당구 불정로 397",
    "type": "apartment",
    "lat": 37.3726221063004,
    "lng": 127.137949954999,
    "buildYear": 1993,
    "units": [
      "apt-효자촌임광-분당구서현동-50평형",
      "apt-효자촌임광-분당구서현동-39평형",
      "apt-효자촌임광-분당구서현동-18평형",
      "apt-효자촌임광-분당구서현동-26평형",
      "apt-효자촌임광-분당구서현동-52평형",
      "apt-효자촌임광-분당구서현동-34평형",
      "apt-효자촌임광-분당구서현동-31평형"
    ]
  },
  {
    "id": "apt-청솔마을성원-분당구금곡동",
    "name": "청솔마을(성원)",
    "address": "경기도 성남시 분당구 금곡동",
    "roadAddress": "경기도 성남시 분당구 미금로 251",
    "type": "apartment",
    "lat": 37.3470496488571,
    "lng": 127.116098314378,
    "buildYear": 1994,
    "units": [
      "apt-청솔마을성원-분당구금곡동-41평형",
      "apt-청솔마을성원-분당구금곡동-34평형",
      "apt-청솔마을성원-분당구금곡동-31평형"
    ]
  },
  {
    "id": "apt-아데나팰리스-분당구정자동",
    "name": "아데나팰리스",
    "address": "경기도 성남시 분당구 정자동",
    "roadAddress": "경기도 성남시 분당구 성남대로 275",
    "type": "apartment",
    "lat": 37.365628899414,
    "lng": 127.106455289975,
    "buildYear": 2003,
    "units": [
      "apt-아데나팰리스-분당구정자동-42평형",
      "apt-아데나팰리스-분당구정자동-50평형",
      "apt-아데나팰리스-분당구정자동-26평형"
    ]
  },
  {
    "id": "apt-판교알파리움1단지-분당구백현동",
    "name": "판교알파리움1단지",
    "address": "경기도 성남시 분당구 백현동",
    "roadAddress": "경기도 성남시 분당구 대왕판교로606번길 10",
    "type": "apartment",
    "lat": 37.3978291,
    "lng": 127.1119601,
    "buildYear": 2015,
    "units": [
      "apt-판교알파리움1단지-분당구백현동-43평형",
      "apt-판교알파리움1단지-분당구백현동-37평형",
      "apt-판교알파리움1단지-분당구백현동-29평형",
      "apt-판교알파리움1단지-분당구백현동-33평형",
      "apt-판교알파리움1단지-분당구백현동-39평형"
    ]
  },
  {
    "id": "apt-봇들마을8단지주공-분당구삼평동",
    "name": "봇들마을8단지(주공)",
    "address": "경기도 성남시 분당구 삼평동",
    "roadAddress": "경기도 성남시 분당구 동판교로 153",
    "type": "apartment",
    "lat": 37.3987513673426,
    "lng": 127.116830460102,
    "buildYear": 2009,
    "units": [
      "apt-봇들마을8단지주공-분당구삼평동-31평형",
      "apt-봇들마을8단지주공-분당구삼평동-26평형",
      "apt-봇들마을8단지주공-분당구삼평동-36평형"
    ]
  },
  {
    "id": "apt-정든마을1단지동아-분당구정자동",
    "name": "정든마을(1단지)(동아)",
    "address": "경기도 성남시 분당구 정자동",
    "roadAddress": "경기도 성남시 분당구 불정로 141",
    "type": "apartment",
    "lat": 37.3608046082389,
    "lng": 127.111746176398,
    "buildYear": 1995,
    "units": [
      "apt-정든마을1단지동아-분당구정자동-50평형",
      "apt-정든마을1단지동아-분당구정자동-38평형",
      "apt-정든마을1단지동아-분당구정자동-31평형",
      "apt-정든마을1단지동아-분당구정자동-47평형"
    ]
  },
  {
    "id": "apt-힐스테이트판교엘포레A6BL-분당구대장동",
    "name": "힐스테이트판교엘포레A6BL",
    "address": "경기도 성남시 분당구 대장동",
    "roadAddress": "경기도 성남시 분당구 판교대장로7길 16",
    "type": "apartment",
    "lat": 37.3738215454946,
    "lng": 127.068310431217,
    "buildYear": 2021,
    "units": [
      "apt-힐스테이트판교엘포레A6BL-분당구대장동-39평형"
    ]
  },
  {
    "id": "apt-한솔마을5단지주공-분당구정자동",
    "name": "한솔마을(5단지)(주공)",
    "address": "경기도 성남시 분당구 정자동",
    "roadAddress": "경기도 성남시 분당구 정자로 115",
    "type": "apartment",
    "lat": 37.363464095084,
    "lng": 127.113901695517,
    "buildYear": 1994,
    "units": [
      "apt-한솔마을5단지주공-분당구정자동-16평형",
      "apt-한솔마을5단지주공-분당구정자동-13평형",
      "apt-한솔마을5단지주공-분당구정자동-23평형",
      "apt-한솔마을5단지주공-분당구정자동-22평형"
    ]
  },
  {
    "id": "apt-백현마을6단지주공-분당구백현동",
    "name": "백현마을6단지(주공)",
    "address": "경기도 성남시 분당구 백현동",
    "roadAddress": "경기도 성남시 분당구 판교역로 100",
    "type": "apartment",
    "lat": 37.3853391396126,
    "lng": 127.11243354368,
    "buildYear": 2009,
    "units": [
      "apt-백현마을6단지주공-분당구백현동-26평형",
      "apt-백현마을6단지주공-분당구백현동-23평형"
    ]
  },
  {
    "id": "apt-이매촌동부코오롱-분당구이매동",
    "name": "이매촌(동부코오롱)",
    "address": "경기도 성남시 분당구 이매동",
    "roadAddress": "경기도 성남시 분당구 양현로 88",
    "type": "apartment",
    "lat": 37.390934840402,
    "lng": 127.126027630076,
    "buildYear": 1993,
    "units": [
      "apt-이매촌동부코오롱-분당구이매동-38평형",
      "apt-이매촌동부코오롱-분당구이매동-50평형",
      "apt-이매촌동부코오롱-분당구이매동-31평형",
      "apt-이매촌동부코오롱-분당구이매동-37평형"
    ]
  },
  {
    "id": "apt-효자촌현대-분당구서현동",
    "name": "효자촌(현대)",
    "address": "경기도 성남시 분당구 서현동",
    "roadAddress": "경기도 성남시 분당구 분당로201번길 17",
    "type": "apartment",
    "lat": 37.3743227992891,
    "lng": 127.133466400091,
    "buildYear": 1992,
    "units": [
      "apt-효자촌현대-분당구서현동-31평형",
      "apt-효자촌현대-분당구서현동-39평형",
      "apt-효자촌현대-분당구서현동-18평형",
      "apt-효자촌현대-분당구서현동-26평형",
      "apt-효자촌현대-분당구서현동-59평형",
      "apt-효자촌현대-분당구서현동-48평형",
      "apt-효자촌현대-분당구서현동-49평형"
    ]
  },
  {
    "id": "apt-산운마을8단지부영사랑으로-분당구운중동",
    "name": "산운마을8단지(부영사랑으로)",
    "address": "경기도 성남시 분당구 운중동",
    "roadAddress": "경기도 성남시 분당구 산운로 98",
    "type": "apartment",
    "lat": 37.3931362309343,
    "lng": 127.073888910259,
    "buildYear": 2008,
    "units": [
      "apt-산운마을8단지부영사랑으로-분당구운중동-25평형",
      "apt-산운마을8단지부영사랑으로-분당구운중동-18평형"
    ]
  },
  {
    "id": "apt-아름마을태영-분당구이매동",
    "name": "아름마을(태영)",
    "address": "경기도 성남시 분당구 이매동",
    "roadAddress": "경기도 성남시 분당구 판교로 430",
    "type": "apartment",
    "lat": 37.4054600193076,
    "lng": 127.1193434494,
    "buildYear": 1992,
    "units": [
      "apt-아름마을태영-분당구이매동-50평형",
      "apt-아름마을태영-분당구이매동-41평형",
      "apt-아름마을태영-분당구이매동-31평형"
    ]
  },
  {
    "id": "apt-백현마을9단지e편한세상-분당구백현동",
    "name": "백현마을9단지(e편한세상)",
    "address": "경기도 성남시 분당구 백현동",
    "roadAddress": "경기도 성남시 분당구 판교역로 49",
    "type": "apartment",
    "lat": 37.3853391396126,
    "lng": 127.11243354368,
    "buildYear": 2009,
    "units": [
      "apt-백현마을9단지e편한세상-분당구백현동-35평형",
      "apt-백현마을9단지e편한세상-분당구백현동-31평형",
      "apt-백현마을9단지e편한세상-분당구백현동-36평형"
    ]
  },
  {
    "id": "apt-두산제니스-분당구정자동",
    "name": "두산제니스",
    "address": "경기도 성남시 분당구 정자동",
    "roadAddress": "경기도 성남시 분당구 정자일로232번길 25",
    "type": "apartment",
    "lat": 37.3701977178677,
    "lng": 127.107069230349,
    "buildYear": 2003,
    "units": [
      "apt-두산제니스-분당구정자동-40평형",
      "apt-두산제니스-분당구정자동-26평형",
      "apt-두산제니스-분당구정자동-48평형"
    ]
  },
  {
    "id": "apt-판교원마을2단지푸르지오-분당구판교동",
    "name": "판교원마을2단지(푸르지오)",
    "address": "경기도 성남시 분당구 판교동",
    "roadAddress": "경기도 성남시 분당구 판교로 30",
    "type": "apartment",
    "lat": 37.3983672689709,
    "lng": 127.093182165399,
    "buildYear": 2009,
    "units": [
      "apt-판교원마을2단지푸르지오-분당구판교동-35평형",
      "apt-판교원마을2단지푸르지오-분당구판교동-31평형"
    ]
  },
  {
    "id": "apt-동양정자파라곤1단지-분당구정자동",
    "name": "동양정자파라곤(1단지)",
    "address": "경기도 성남시 분당구 정자동",
    "roadAddress": "경기도 성남시 분당구 정자일로 210",
    "type": "apartment",
    "lat": 37.3613378183697,
    "lng": 127.105989350458,
    "buildYear": 2004,
    "units": [
      "apt-동양정자파라곤1단지-분당구정자동-44평형",
      "apt-동양정자파라곤1단지-분당구정자동-42평형",
      "apt-동양정자파라곤1단지-분당구정자동-50평형",
      "apt-동양정자파라곤1단지-분당구정자동-26평형"
    ]
  },
  {
    "id": "apt-동양정자파라곤2단지-분당구정자동",
    "name": "동양정자파라곤(2단지)",
    "address": "경기도 성남시 분당구 정자동",
    "roadAddress": "경기도 성남시 분당구 정자일로 220",
    "type": "apartment",
    "lat": 37.3619161,
    "lng": 127.1059814,
    "buildYear": 2004,
    "units": [
      "apt-동양정자파라곤2단지-분당구정자동-24평형",
      "apt-동양정자파라곤2단지-분당구정자동-50평형",
      "apt-동양정자파라곤2단지-분당구정자동-44평형"
    ]
  },
  {
    "id": "apt-판교퍼스트힐푸르지오1단지-분당구대장동",
    "name": "판교퍼스트힐푸르지오1단지",
    "address": "경기도 성남시 분당구 대장동",
    "roadAddress": "경기도 성남시 분당구 판교대장로7길 69",
    "type": "apartment",
    "lat": 37.3738215454946,
    "lng": 127.068310431217,
    "buildYear": 2021,
    "units": [
      "apt-판교퍼스트힐푸르지오1단지-분당구대장동-26평형"
    ]
  },
  {
    "id": "apt-힐스테이트판교엘포레A3BL-분당구대장동",
    "name": "힐스테이트판교엘포레A3BL",
    "address": "경기도 성남시 분당구 대장동",
    "roadAddress": "경기도 성남시 분당구 판교대장로 117",
    "type": "apartment",
    "lat": 37.3765554,
    "lng": 127.073673,
    "buildYear": 2021,
    "units": [
      "apt-힐스테이트판교엘포레A3BL-분당구대장동-42평형"
    ]
  },
  {
    "id": "apt-백현마을8단지대림-분당구백현동",
    "name": "백현마을8단지(대림)",
    "address": "경기도 성남시 분당구 백현동",
    "roadAddress": "경기도 성남시 분당구 판교역로 72",
    "type": "apartment",
    "lat": 37.3853391396126,
    "lng": 127.11243354368,
    "buildYear": 2009,
    "units": [
      "apt-백현마을8단지대림-분당구백현동-36평형",
      "apt-백현마을8단지대림-분당구백현동-31평형",
      "apt-백현마을8단지대림-분당구백현동-35평형",
      "apt-백현마을8단지대림-분당구백현동-55평형",
      "apt-백현마을8단지대림-분당구백현동-46평형"
    ]
  },
  {
    "id": "apt-산운마을5단지한성필하우스-분당구운중동",
    "name": "산운마을5단지(한성필하우스)",
    "address": "경기도 성남시 분당구 운중동",
    "roadAddress": "경기도 성남시 분당구 산운로 97",
    "type": "apartment",
    "lat": 37.3937851,
    "lng": 127.0720546,
    "buildYear": 2009,
    "units": [
      "apt-산운마을5단지한성필하우스-분당구운중동-26평형"
    ]
  },
  {
    "id": "apt-SKVIEW-분당구야탑동",
    "name": "SK-VIEW",
    "address": "경기도 성남시 분당구 야탑동",
    "roadAddress": "경기도 성남시 분당구 돌마로 906",
    "type": "apartment",
    "lat": 37.392356,
    "lng": 127.1373052,
    "buildYear": 2003,
    "units": [
      "apt-SKVIEW-분당구야탑동-26평형",
      "apt-SKVIEW-분당구야탑동-37평형"
    ]
  },
  {
    "id": "apt-상록마을라이프1차-분당구정자동",
    "name": "상록마을(라이프1차)",
    "address": "경기도 성남시 분당구 정자동",
    "roadAddress": "경기도 성남시 분당구 정자로 56",
    "type": "apartment",
    "lat": 37.363464095084,
    "lng": 127.113901695517,
    "buildYear": 1995,
    "units": [
      "apt-상록마을라이프1차-분당구정자동-39평형",
      "apt-상록마을라이프1차-분당구정자동-48평형",
      "apt-상록마을라이프1차-분당구정자동-31평형"
    ]
  },
  {
    "id": "apt-효자촌대창-분당구서현동",
    "name": "효자촌(대창)",
    "address": "경기도 성남시 분당구 서현동",
    "roadAddress": "경기도 성남시 분당구 분당로263번길 13",
    "type": "apartment",
    "lat": 37.3704207,
    "lng": 127.1370355,
    "buildYear": 1994,
    "units": [
      "apt-효자촌대창-분당구서현동-21평형",
      "apt-효자촌대창-분당구서현동-26평형",
      "apt-효자촌대창-분당구서현동-16평형"
    ]
  },
  {
    "id": "apt-아름마을효성-분당구이매동",
    "name": "아름마을(효성)",
    "address": "경기도 성남시 분당구 이매동",
    "roadAddress": "경기도 성남시 분당구 이매로 16",
    "type": "apartment",
    "lat": 37.3936793054465,
    "lng": 127.130147831891,
    "buildYear": 1994,
    "units": [
      "apt-아름마을효성-분당구이매동-31평형",
      "apt-아름마을효성-분당구이매동-50평형",
      "apt-아름마을효성-분당구이매동-39평형"
    ]
  },
  {
    "id": "apt-청솔마을동아-분당구금곡동",
    "name": "청솔마을(동아)",
    "address": "경기도 성남시 분당구 금곡동",
    "roadAddress": "경기도 성남시 분당구 금곡로 233",
    "type": "apartment",
    "lat": 37.3502874,
    "lng": 127.1200719,
    "buildYear": 1995,
    "units": [
      "apt-청솔마을동아-분당구금곡동-41평형",
      "apt-청솔마을동아-분당구금곡동-31평형"
    ]
  },
  {
    "id": "apt-탑마을대우-분당구야탑동",
    "name": "탑마을(대우)",
    "address": "경기도 성남시 분당구 야탑동",
    "roadAddress": "경기도 성남시 분당구 판교로 421",
    "type": "apartment",
    "lat": 37.4059725007389,
    "lng": 127.122271876441,
    "buildYear": 1992,
    "units": [
      "apt-탑마을대우-분당구야탑동-31평형",
      "apt-탑마을대우-분당구야탑동-41평형",
      "apt-탑마을대우-분당구야탑동-50평형",
      "apt-탑마을대우-분당구야탑동-58평형"
    ]
  },
  {
    "id": "apt-푸른마을신성-분당구수내동",
    "name": "푸른마을(신성)",
    "address": "경기도 성남시 분당구 수내동",
    "roadAddress": "경기도 성남시 분당구 수내로 206",
    "type": "apartment",
    "lat": 37.3798425680456,
    "lng": 127.116220995491,
    "buildYear": 1993,
    "units": [
      "apt-푸른마을신성-분당구수내동-26평형",
      "apt-푸른마을신성-분당구수내동-40평형",
      "apt-푸른마을신성-분당구수내동-18평형",
      "apt-푸른마을신성-분당구수내동-31평형"
    ]
  },
  {
    "id": "apt-탑마을진덕-분당구야탑동",
    "name": "탑마을(진덕)",
    "address": "경기도 성남시 분당구 야탑동",
    "roadAddress": "경기도 성남시 분당구 양현로 254",
    "type": "apartment",
    "lat": 37.4113586256456,
    "lng": 127.125952835102,
    "buildYear": 1993,
    "units": [
      "apt-탑마을진덕-분당구야탑동-31평형",
      "apt-탑마을진덕-분당구야탑동-40평형"
    ]
  },
  {
    "id": "apt-탑마을쌍용1-분당구야탑동",
    "name": "탑마을(쌍용)1",
    "address": "경기도 성남시 분당구 야탑동",
    "roadAddress": "경기도 성남시 분당구 양현로 254",
    "type": "apartment",
    "lat": 37.415905,
    "lng": 127.1368251,
    "buildYear": 1993,
    "units": [
      "apt-탑마을쌍용1-분당구야탑동-40평형"
    ]
  },
  {
    "id": "apt-삼라마이다스빌-분당구금곡동",
    "name": "삼라마이다스빌",
    "address": "경기도 성남시 분당구 금곡동",
    "roadAddress": "경기도 성남시 분당구 정자일로 21",
    "type": "apartment",
    "lat": 37.3516141,
    "lng": 127.1058724,
    "buildYear": 2004,
    "units": [
      "apt-삼라마이다스빌-분당구금곡동-44평형",
      "apt-삼라마이다스빌-분당구금곡동-45평형"
    ]
  },
  {
    "id": "apt-정든마을4단지우성-분당구정자동",
    "name": "정든마을(4단지)(우성)",
    "address": "경기도 성남시 분당구 정자동",
    "roadAddress": "경기도 성남시 분당구 정자로 144",
    "type": "apartment",
    "lat": 37.363464095084,
    "lng": 127.113901695517,
    "buildYear": 1995,
    "units": [
      "apt-정든마을4단지우성-분당구정자동-39평형",
      "apt-정든마을4단지우성-분당구정자동-49평형",
      "apt-정든마을4단지우성-분당구정자동-31평형"
    ]
  },
  {
    "id": "apt-무지개10단지건영-분당구구미동",
    "name": "무지개(10단지)(건영)",
    "address": "경기도 성남시 분당구 구미동",
    "roadAddress": "경기도 성남시 분당구 구미로 100",
    "type": "apartment",
    "lat": 37.3384517227768,
    "lng": 127.119834191288,
    "buildYear": 1996,
    "units": [
      "apt-무지개10단지건영-분당구구미동-31평형",
      "apt-무지개10단지건영-분당구구미동-41평형"
    ]
  },
  {
    "id": "apt-샛별마을동성-분당구분당동",
    "name": "샛별마을(동성)",
    "address": "경기도 성남시 분당구 분당동",
    "roadAddress": "경기도 성남시 분당구 분당로 212",
    "type": "apartment",
    "lat": 37.3741666285054,
    "lng": 127.131799827018,
    "buildYear": 1993,
    "units": [
      "apt-샛별마을동성-분당구분당동-40평형",
      "apt-샛별마을동성-분당구분당동-21평형",
      "apt-샛별마을동성-분당구분당동-26평형",
      "apt-샛별마을동성-분당구분당동-18평형",
      "apt-샛별마을동성-분당구분당동-31평형"
    ]
  },
  {
    "id": "apt-양지마을6단지한양603동-분당구수내동",
    "name": "양지마을(6단지)(한양603동)",
    "address": "경기도 성남시 분당구 수내동",
    "roadAddress": "경기도 성남시 분당구 내정로173번길 11",
    "type": "apartment",
    "lat": 37.3759753364196,
    "lng": 127.117804929549,
    "buildYear": 1993,
    "units": [
      "apt-양지마을6단지한양603동-분당구수내동-18평형"
    ]
  },
  {
    "id": "apt-무지개11단지금강센테리움-분당구구미동",
    "name": "무지개(11단지)(금강센테리움)",
    "address": "경기도 성남시 분당구 구미동",
    "roadAddress": "경기도 성남시 분당구 미금로22번길 9",
    "type": "apartment",
    "lat": 37.3367571580584,
    "lng": 127.118938110394,
    "buildYear": 1995,
    "units": [
      "apt-무지개11단지금강센테리움-분당구구미동-15평형",
      "apt-무지개11단지금강센테리움-분당구구미동-26평형"
    ]
  },
  {
    "id": "apt-판교풍경채어바니티7단지-분당구대장동",
    "name": "판교풍경채어바니티(7단지)",
    "address": "경기도 성남시 분당구 대장동",
    "roadAddress": "경기도 성남시 분당구 판교대장로 77",
    "type": "apartment",
    "lat": 37.3709137102728,
    "lng": 127.070688535695,
    "buildYear": 2021,
    "units": [
      "apt-판교풍경채어바니티7단지-분당구대장동-26평형"
    ]
  },
  {
    "id": "apt-동원로얄듀크-분당구야탑동",
    "name": "동원로얄듀크",
    "address": "경기도 성남시 분당구 야탑동",
    "roadAddress": "경기도 성남시 분당구 돌마로 908",
    "type": "apartment",
    "lat": 37.3693402,
    "lng": 127.1220036,
    "buildYear": 2003,
    "units": [
      "apt-동원로얄듀크-분당구야탑동-29평형",
      "apt-동원로얄듀크-분당구야탑동-37평형"
    ]
  },
  {
    "id": "apt-야탑진흥더블파크-분당구야탑동",
    "name": "야탑진흥더블파크",
    "address": "경기도 성남시 분당구 야탑동",
    "roadAddress": "경기도 성남시 분당구 야탑로 162",
    "type": "apartment",
    "lat": 37.4093499911129,
    "lng": 127.139204070804,
    "buildYear": 2005,
    "units": [
      "apt-야탑진흥더블파크-분당구야탑동-26평형"
    ]
  },
  {
    "id": "apt-코오롱더프라우-분당구금곡동",
    "name": "코오롱더프라우",
    "address": "경기도 성남시 분당구 금곡동",
    "roadAddress": "경기도 성남시 분당구 정자일로 27",
    "type": "apartment",
    "lat": 37.3506184533259,
    "lng": 127.107606647258,
    "buildYear": 2004,
    "units": [
      "apt-코오롱더프라우-분당구금곡동-47평형",
      "apt-코오롱더프라우-분당구금곡동-52평형",
      "apt-코오롱더프라우-분당구금곡동-26평형"
    ]
  },
  {
    "id": "apt-산운마을4단지리가-분당구운중동",
    "name": "산운마을4단지(리가)",
    "address": "경기도 성남시 분당구 운중동",
    "roadAddress": "경기도 성남시 분당구 판교원로 7",
    "type": "apartment",
    "lat": 37.3899460288483,
    "lng": 127.067634641202,
    "buildYear": 2009,
    "units": [
      "apt-산운마을4단지리가-분당구운중동-26평형"
    ]
  },
  {
    "id": "apt-목련마을한신-분당구야탑동",
    "name": "목련마을(한신)",
    "address": "경기도 성남시 분당구 야탑동",
    "roadAddress": "경기도 성남시 분당구 판교로 627",
    "type": "apartment",
    "lat": 37.4059725007389,
    "lng": 127.122271876441,
    "buildYear": 1994,
    "units": [
      "apt-목련마을한신-분당구야탑동-18평형",
      "apt-목련마을한신-분당구야탑동-24평형"
    ]
  },
  {
    "id": "apt-아름마을한성-분당구이매동",
    "name": "아름마을(한성)",
    "address": "경기도 성남시 분당구 이매동",
    "roadAddress": "경기도 성남시 분당구 판교로 430",
    "type": "apartment",
    "lat": 37.4051627,
    "lng": 127.1493982,
    "buildYear": 1992,
    "units": [
      "apt-아름마을한성-분당구이매동-18평형",
      "apt-아름마을한성-분당구이매동-25평형",
      "apt-아름마을한성-분당구이매동-26평형"
    ]
  },
  {
    "id": "apt-판교푸르지오월드마크-분당구삼평동",
    "name": "판교푸르지오월드마크",
    "address": "경기도 성남시 분당구 삼평동",
    "roadAddress": "경기도 성남시 분당구 대왕판교로606번길 58",
    "type": "apartment",
    "lat": 37.3955082,
    "lng": 127.1136139,
    "buildYear": 2013,
    "units": [
      "apt-판교푸르지오월드마크-분당구삼평동-39평형",
      "apt-판교푸르지오월드마크-분당구삼평동-41평형"
    ]
  },
  {
    "id": "apt-분당지웰푸르지오-분당구수내동",
    "name": "분당지웰푸르지오",
    "address": "경기도 성남시 분당구 수내동",
    "roadAddress": "경기도 성남시 분당구 수내로 39",
    "type": "apartment",
    "lat": 37.374396,
    "lng": 127.1229579,
    "buildYear": 2022,
    "units": [
      "apt-분당지웰푸르지오-분당구수내동-29평형",
      "apt-분당지웰푸르지오-분당구수내동-36평형"
    ]
  },
  {
    "id": "opt-라포르테블랑서현-분당구서현동",
    "name": "라포르테 블랑 서현",
    "address": "경기도 성남시 분당구 서현동",
    "roadAddress": "경기도 성남시 분당구 황새울로311번길 28",
    "type": "officetel",
    "lat": 37.3859617,
    "lng": 127.1205597,
    "buildYear": 1997,
    "units": [
      "opt-라포르테블랑서현-분당구서현동-18평형",
      "opt-라포르테블랑서현-분당구서현동-16평형",
      "opt-라포르테블랑서현-분당구서현동-22평형",
      "opt-라포르테블랑서현-분당구서현동-15평형",
      "opt-라포르테블랑서현-분당구서현동-17평형",
      "opt-라포르테블랑서현-분당구서현동-14평형"
    ]
  },
  {
    "id": "opt-성우스타우스오피스텔-분당구구미동",
    "name": "성우스타우스오피스텔",
    "address": "경기도 성남시 분당구 구미동",
    "roadAddress": "경기도 성남시 분당구 구미로 16",
    "type": "officetel",
    "lat": 37.3384517227768,
    "lng": 127.119834191288,
    "buildYear": 2004,
    "units": [
      "opt-성우스타우스오피스텔-분당구구미동-18평형",
      "opt-성우스타우스오피스텔-분당구구미동-10평형",
      "opt-성우스타우스오피스텔-분당구구미동-13평형",
      "opt-성우스타우스오피스텔-분당구구미동-17평형",
      "opt-성우스타우스오피스텔-분당구구미동-16평형",
      "opt-성우스타우스오피스텔-분당구구미동-11평형",
      "opt-성우스타우스오피스텔-분당구구미동-19평형",
      "opt-성우스타우스오피스텔-분당구구미동-12평형"
    ]
  },
  {
    "id": "opt-힐스테이트판교역71BL-분당구백현동",
    "name": "힐스테이트 판교역(7-1BL)",
    "address": "경기도 성남시 분당구 백현동",
    "roadAddress": "경기도 성남시 분당구 판교역로 136",
    "type": "officetel",
    "lat": 37.3853391396126,
    "lng": 127.11243354368,
    "buildYear": 2022,
    "units": [
      "opt-힐스테이트판교역71BL-분당구백현동-26평형",
      "opt-힐스테이트판교역71BL-분당구백현동-25평형"
    ]
  },
  {
    "id": "opt-시그마3-분당구야탑동",
    "name": "시그마 3",
    "address": "경기도 성남시 분당구 야탑동",
    "roadAddress": "경기도 성남시 분당구 장미로 78",
    "type": "officetel",
    "lat": 37.4136253292012,
    "lng": 127.132215267764,
    "buildYear": 2003,
    "units": [
      "opt-시그마3-분당구야탑동-14평형",
      "opt-시그마3-분당구야탑동-9평형",
      "opt-시그마3-분당구야탑동-10평형",
      "opt-시그마3-분당구야탑동-12평형"
    ]
  },
  {
    "id": "opt-분당엠코헤리츠-분당구구미동",
    "name": "분당 엠코 헤리츠",
    "address": "경기도 성남시 분당구 구미동",
    "roadAddress": "경기도 성남시 분당구 성남대로 151",
    "type": "officetel",
    "lat": 37.3358829953945,
    "lng": 127.110366076466,
    "buildYear": 2014,
    "units": [
      "opt-분당엠코헤리츠-분당구구미동-9평형",
      "opt-분당엠코헤리츠-분당구구미동-19평형",
      "opt-분당엠코헤리츠-분당구구미동-13평형"
    ]
  },
  {
    "id": "opt-천사의도시오피스텔-분당구금곡동",
    "name": "천사의도시 오피스텔",
    "address": "경기도 성남시 분당구 금곡동",
    "roadAddress": "경기도 성남시 분당구 성남대로 165",
    "type": "officetel",
    "lat": 37.3513704551257,
    "lng": 127.107602867339,
    "buildYear": 2004,
    "units": [
      "opt-천사의도시오피스텔-분당구금곡동-11평형",
      "opt-천사의도시오피스텔-분당구금곡동-9평형",
      "opt-천사의도시오피스텔-분당구금곡동-10평형",
      "opt-천사의도시오피스텔-분당구금곡동-18평형",
      "opt-천사의도시오피스텔-분당구금곡동-17평형",
      "opt-천사의도시오피스텔-분당구금곡동-34평형",
      "opt-천사의도시오피스텔-분당구금곡동-16평형",
      "opt-천사의도시오피스텔-분당구금곡동-20평형"
    ]
  },
  {
    "id": "opt-뉴젠빌원룸텔-분당구야탑동",
    "name": "뉴젠빌원룸텔",
    "address": "경기도 성남시 분당구 야탑동",
    "roadAddress": "경기도 성남시 분당구 야탑로 102",
    "type": "officetel",
    "lat": 37.4095772,
    "lng": 127.130148,
    "buildYear": 1998,
    "units": [
      "opt-뉴젠빌원룸텔-분당구야탑동-7평형",
      "opt-뉴젠빌원룸텔-분당구야탑동-6평형"
    ]
  },
  {
    "id": "opt-엘지분당에클라트-분당구서현동",
    "name": "엘지분당에클라트",
    "address": "경기도 성남시 분당구 서현동",
    "roadAddress": "경기도 성남시 분당구 서현로 184",
    "type": "officetel",
    "lat": 37.3879746443467,
    "lng": 127.12248993928,
    "buildYear": 2004,
    "units": [
      "opt-엘지분당에클라트-분당구서현동-14평형",
      "opt-엘지분당에클라트-분당구서현동-11평형",
      "opt-엘지분당에클라트-분당구서현동-10평형"
    ]
  },
  {
    "id": "opt-포스빌-분당구구미동",
    "name": "포스빌",
    "address": "경기도 성남시 분당구 구미동",
    "roadAddress": "경기도 성남시 분당구 성남대로 51",
    "type": "officetel",
    "lat": 37.3358829953945,
    "lng": 127.110366076466,
    "buildYear": 2004,
    "units": [
      "opt-포스빌-분당구구미동-11평형",
      "opt-포스빌-분당구구미동-12평형",
      "opt-포스빌-분당구구미동-10평형",
      "opt-포스빌-분당구구미동-14평형",
      "opt-포스빌-분당구구미동-13평형"
    ]
  },
  {
    "id": "opt-두산위브센티움2-분당구수내동",
    "name": "두산위브센티움 2",
    "address": "경기도 성남시 분당구 수내동",
    "roadAddress": "경기도 성남시 분당구 수내로 42",
    "type": "officetel",
    "lat": 37.3798425680456,
    "lng": 127.116220995491,
    "buildYear": 2003,
    "units": [
      "opt-두산위브센티움2-분당구수내동-10평형",
      "opt-두산위브센티움2-분당구수내동-11평형",
      "opt-두산위브센티움2-분당구수내동-13평형"
    ]
  },
  {
    "id": "opt-노블리치2오피스텔-분당구야탑동",
    "name": "노블리치2오피스텔",
    "address": "경기도 성남시 분당구 야탑동",
    "roadAddress": "경기도 성남시 분당구 야탑로 103",
    "type": "officetel",
    "lat": 37.4093499911129,
    "lng": 127.139204070804,
    "buildYear": 2002,
    "units": [
      "opt-노블리치2오피스텔-분당구야탑동-11평형",
      "opt-노블리치2오피스텔-분당구야탑동-15평형",
      "opt-노블리치2오피스텔-분당구야탑동-16평형"
    ]
  },
  {
    "id": "opt-로얄팰리스하우스빌-분당구수내동",
    "name": "로얄팰리스 하우스빌",
    "address": "경기도 성남시 분당구 수내동",
    "roadAddress": "경기도 성남시 분당구 백현로 105",
    "type": "officetel",
    "lat": 37.3740112903996,
    "lng": 127.113934350668,
    "buildYear": 2004,
    "units": [
      "opt-로얄팰리스하우스빌-분당구수내동-17평형",
      "opt-로얄팰리스하우스빌-분당구수내동-12평형",
      "opt-로얄팰리스하우스빌-분당구수내동-15평형",
      "opt-로얄팰리스하우스빌-분당구수내동-11평형",
      "opt-로얄팰리스하우스빌-분당구수내동-10평형",
      "opt-로얄팰리스하우스빌-분당구수내동-14평형",
      "opt-로얄팰리스하우스빌-분당구수내동-9평형",
      "opt-로얄팰리스하우스빌-분당구수내동-8평형",
      "opt-로얄팰리스하우스빌-분당구수내동-35평형",
      "opt-로얄팰리스하우스빌-분당구수내동-7평형",
      "opt-로얄팰리스하우스빌-분당구수내동-16평형",
      "opt-로얄팰리스하우스빌-분당구수내동-21평형",
      "opt-로얄팰리스하우스빌-분당구수내동-22평형"
    ]
  },
  {
    "id": "opt-분당트라팰리스-분당구수내동",
    "name": "분당 트라팰리스",
    "address": "경기도 성남시 분당구 수내동",
    "roadAddress": "경기도 성남시 분당구 황새울로 234",
    "type": "officetel",
    "lat": 37.3765030554807,
    "lng": 127.109956112626,
    "buildYear": 2004,
    "units": [
      "opt-분당트라팰리스-분당구수내동-16평형",
      "opt-분당트라팰리스-분당구수내동-15평형",
      "opt-분당트라팰리스-분당구수내동-27평형",
      "opt-분당트라팰리스-분당구수내동-13평형",
      "opt-분당트라팰리스-분당구수내동-17평형"
    ]
  },
  {
    "id": "opt-한솔인피니티오피스텔-분당구수내동",
    "name": "한솔인피니티오피스텔",
    "address": "경기도 성남시 분당구 수내동",
    "roadAddress": "경기도 성남시 분당구 황새울로200번길 22",
    "type": "officetel",
    "lat": 37.3767338585266,
    "lng": 127.112772958446,
    "buildYear": 2004,
    "units": [
      "opt-한솔인피니티오피스텔-분당구수내동-11평형",
      "opt-한솔인피니티오피스텔-분당구수내동-10평형",
      "opt-한솔인피니티오피스텔-분당구수내동-13평형"
    ]
  },
  {
    "id": "opt-엘지분당에클라트2차-분당구서현동",
    "name": "엘지분당에클라트2차",
    "address": "경기도 성남시 분당구 서현동",
    "roadAddress": "경기도 성남시 분당구 서현로 204",
    "type": "officetel",
    "lat": 37.3879746443467,
    "lng": 127.12248993928,
    "buildYear": 2004,
    "units": [
      "opt-엘지분당에클라트2차-분당구서현동-17평형",
      "opt-엘지분당에클라트2차-분당구서현동-14평형",
      "opt-엘지분당에클라트2차-분당구서현동-19평형"
    ]
  },
  {
    "id": "opt-분당인텔리지2-분당구정자동",
    "name": "분당인텔리지2",
    "address": "경기도 성남시 분당구 정자동",
    "roadAddress": "경기도 성남시 분당구 정자일로 177",
    "type": "officetel",
    "lat": 37.3613378183697,
    "lng": 127.105989350458,
    "buildYear": 2004,
    "units": [
      "opt-분당인텔리지2-분당구정자동-8평형",
      "opt-분당인텔리지2-분당구정자동-10평형",
      "opt-분당인텔리지2-분당구정자동-12평형",
      "opt-분당인텔리지2-분당구정자동-23평형",
      "opt-분당인텔리지2-분당구정자동-20평형",
      "opt-분당인텔리지2-분당구정자동-19평형",
      "opt-분당인텔리지2-분당구정자동-17평형",
      "opt-분당인텔리지2-분당구정자동-13평형"
    ]
  },
  {
    "id": "opt-금호리빙스텔-분당구서현동",
    "name": "금호리빙스텔",
    "address": "경기도 성남시 분당구 서현동",
    "roadAddress": "경기도 성남시 분당구 황새울로342번길 11",
    "type": "officetel",
    "lat": 37.3861788,
    "lng": 127.123637,
    "buildYear": 1997,
    "units": [
      "opt-금호리빙스텔-분당구서현동-11평형",
      "opt-금호리빙스텔-분당구서현동-10평형",
      "opt-금호리빙스텔-분당구서현동-19평형",
      "opt-금호리빙스텔-분당구서현동-9평형"
    ]
  },
  {
    "id": "opt-분당두산위브파빌리온-분당구정자동",
    "name": "분당두산위브파빌리온",
    "address": "경기도 성남시 분당구 정자동",
    "roadAddress": "경기도 성남시 분당구 성남대로 393",
    "type": "officetel",
    "lat": 37.365628899414,
    "lng": 127.106455289975,
    "buildYear": 2005,
    "units": [
      "opt-분당두산위브파빌리온-분당구정자동-13평형",
      "opt-분당두산위브파빌리온-분당구정자동-23평형",
      "opt-분당두산위브파빌리온-분당구정자동-11평형",
      "opt-분당두산위브파빌리온-분당구정자동-29평형",
      "opt-분당두산위브파빌리온-분당구정자동-21평형",
      "opt-분당두산위브파빌리온-분당구정자동-30평형",
      "opt-분당두산위브파빌리온-분당구정자동-20평형",
      "opt-분당두산위브파빌리온-분당구정자동-16평형",
      "opt-분당두산위브파빌리온-분당구정자동-32평형",
      "opt-분당두산위브파빌리온-분당구정자동-19평형",
      "opt-분당두산위브파빌리온-분당구정자동-22평형",
      "opt-분당두산위브파빌리온-분당구정자동-17평형"
    ]
  },
  {
    "id": "opt-판교역SKHUB-분당구백현동",
    "name": "판교역 SK HUB",
    "address": "경기도 성남시 분당구 백현동",
    "roadAddress": "경기도 성남시 분당구 판교역로 109",
    "type": "officetel",
    "lat": 37.3853391396126,
    "lng": 127.11243354368,
    "buildYear": 2014,
    "units": [
      "opt-판교역SKHUB-분당구백현동-11평형",
      "opt-판교역SKHUB-분당구백현동-10평형",
      "opt-판교역SKHUB-분당구백현동-9평형",
      "opt-판교역SKHUB-분당구백현동-26평형",
      "opt-판교역SKHUB-분당구백현동-7평형",
      "opt-판교역SKHUB-분당구백현동-8평형",
      "opt-판교역SKHUB-분당구백현동-15평형"
    ]
  },
  {
    "id": "opt-한라시그마파크-분당구서현동",
    "name": "한라시그마파크",
    "address": "경기도 성남시 분당구 서현동",
    "roadAddress": "경기도 성남시 분당구 황새울로 307",
    "type": "officetel",
    "lat": 37.3857746020852,
    "lng": 127.119599391556,
    "buildYear": 2003,
    "units": [
      "opt-한라시그마파크-분당구서현동-11평형",
      "opt-한라시그마파크-분당구서현동-22평형",
      "opt-한라시그마파크-분당구서현동-10평형",
      "opt-한라시그마파크-분당구서현동-23평형"
    ]
  },
  {
    "id": "opt-청구블루빌-분당구수내동",
    "name": "청구블루빌",
    "address": "경기도 성남시 분당구 수내동",
    "roadAddress": "경기도 성남시 분당구 황새울로 224",
    "type": "officetel",
    "lat": 37.3765030554807,
    "lng": 127.109956112626,
    "buildYear": 2000,
    "units": [
      "opt-청구블루빌-분당구수내동-11평형",
      "opt-청구블루빌-분당구수내동-15평형",
      "opt-청구블루빌-분당구수내동-27평형",
      "opt-청구블루빌-분당구수내동-13평형",
      "opt-청구블루빌-분당구수내동-46평형",
      "opt-청구블루빌-분당구수내동-23평형",
      "opt-청구블루빌-분당구수내동-9평형",
      "opt-청구블루빌-분당구수내동-39평형",
      "opt-청구블루빌-분당구수내동-14평형"
    ]
  },
  {
    "id": "opt-현대아리온오피스텔-분당구금곡동",
    "name": "현대아리온 오피스텔",
    "address": "경기도 성남시 분당구 금곡동",
    "roadAddress": "경기도 성남시 분당구 성남대로172번길 12",
    "type": "officetel",
    "lat": 37.3513809098656,
    "lng": 127.111108733769,
    "buildYear": 2003,
    "units": [
      "opt-현대아리온오피스텔-분당구금곡동-14평형",
      "opt-현대아리온오피스텔-분당구금곡동-9평형",
      "opt-현대아리온오피스텔-분당구금곡동-11평형",
      "opt-현대아리온오피스텔-분당구금곡동-15평형",
      "opt-현대아리온오피스텔-분당구금곡동-13평형",
      "opt-현대아리온오피스텔-분당구금곡동-19평형",
      "opt-현대아리온오피스텔-분당구금곡동-12평형"
    ]
  },
  {
    "id": "opt-정자동2차푸르지오시티-분당구정자동",
    "name": "정자동2차푸르지오시티",
    "address": "경기도 성남시 분당구 정자동",
    "roadAddress": "경기도 성남시 분당구 정자일로 197",
    "type": "officetel",
    "lat": 37.3613378183697,
    "lng": 127.105989350458,
    "buildYear": 2013,
    "units": [
      "opt-정자동2차푸르지오시티-분당구정자동-9평형",
      "opt-정자동2차푸르지오시티-분당구정자동-10평형",
      "opt-정자동2차푸르지오시티-분당구정자동-11평형"
    ]
  },
  {
    "id": "opt-판교역푸르지오시티-분당구삼평동",
    "name": "판교역 푸르지오시티",
    "address": "경기도 성남시 분당구 삼평동",
    "roadAddress": "경기도 성남시 분당구 대왕판교로606번길 45",
    "type": "officetel",
    "lat": 37.3962294132136,
    "lng": 127.111888078065,
    "buildYear": 2014,
    "units": [
      "opt-판교역푸르지오시티-분당구삼평동-9평형",
      "opt-판교역푸르지오시티-분당구삼평동-8평형",
      "opt-판교역푸르지오시티-분당구삼평동-7평형"
    ]
  },
  {
    "id": "opt-분당풍림아이원플러스오피스텔-분당구서현동",
    "name": "분당풍림아이원플러스오피스텔",
    "address": "경기도 성남시 분당구 서현동",
    "roadAddress": "경기도 성남시 분당구 서현로 170",
    "type": "officetel",
    "lat": 37.3879746443467,
    "lng": 127.12248993928,
    "buildYear": 2004,
    "units": [
      "opt-분당풍림아이원플러스오피스텔-분당구서현동-12평형",
      "opt-분당풍림아이원플러스오피스텔-분당구서현동-18평형",
      "opt-분당풍림아이원플러스오피스텔-분당구서현동-43평형",
      "opt-분당풍림아이원플러스오피스텔-분당구서현동-11평형",
      "opt-분당풍림아이원플러스오피스텔-분당구서현동-27평형",
      "opt-분당풍림아이원플러스오피스텔-분당구서현동-24평형",
      "opt-분당풍림아이원플러스오피스텔-분당구서현동-21평형",
      "opt-분당풍림아이원플러스오피스텔-분당구서현동-36평형",
      "opt-분당풍림아이원플러스오피스텔-분당구서현동-19평형",
      "opt-분당풍림아이원플러스오피스텔-분당구서현동-22평형"
    ]
  },
  {
    "id": "opt-클라우드베이II-분당구대장동",
    "name": "클라우드베이 II",
    "address": "경기도 성남시 분당구 대장동",
    "roadAddress": "경기도 성남시 분당구 판교대장로8길 22",
    "type": "officetel",
    "lat": 37.3718255,
    "lng": 127.0714852,
    "buildYear": 2022,
    "units": [
      "opt-클라우드베이II-분당구대장동-16평형"
    ]
  },
  {
    "id": "opt-대림아크로텔-분당구정자동",
    "name": "대림아크로텔",
    "address": "경기도 성남시 분당구 정자동",
    "roadAddress": "경기도 성남시 분당구 성남대로 295",
    "type": "officetel",
    "lat": 37.365628899414,
    "lng": 127.106455289975,
    "buildYear": 2004,
    "units": [
      "opt-대림아크로텔-분당구정자동-13평형",
      "opt-대림아크로텔-분당구정자동-12평형",
      "opt-대림아크로텔-분당구정자동-10평형",
      "opt-대림아크로텔-분당구정자동-16평형",
      "opt-대림아크로텔-분당구정자동-11평형",
      "opt-대림아크로텔-분당구정자동-19평형",
      "opt-대림아크로텔-분당구정자동-9평형",
      "opt-대림아크로텔-분당구정자동-15평형",
      "opt-대림아크로텔-분당구정자동-8평형",
      "opt-대림아크로텔-분당구정자동-17평형"
    ]
  },
  {
    "id": "opt-정자역엠코헤리츠1단지-분당구정자동",
    "name": "정자역 엠코헤리츠 1단지",
    "address": "경기도 성남시 분당구 정자동",
    "roadAddress": "경기도 성남시 분당구 정자일로 146",
    "type": "officetel",
    "lat": 37.3613378183697,
    "lng": 127.105989350458,
    "buildYear": 2014,
    "units": [
      "opt-정자역엠코헤리츠1단지-분당구정자동-8평형",
      "opt-정자역엠코헤리츠1단지-분당구정자동-9평형"
    ]
  },
  {
    "id": "opt-정자동3차푸르지오시티-분당구정자동",
    "name": "정자동3차 푸르지오 시티",
    "address": "경기도 성남시 분당구 정자동",
    "roadAddress": "경기도 성남시 분당구 정자동",
    "type": "officetel",
    "lat": 37.3613378183697,
    "lng": 127.105989350458,
    "buildYear": 2015,
    "units": [
      "opt-정자동3차푸르지오시티-분당구정자동-8평형",
      "opt-정자동3차푸르지오시티-분당구정자동-9평형",
      "opt-정자동3차푸르지오시티-분당구정자동-14평형",
      "opt-정자동3차푸르지오시티-분당구정자동-13평형"
    ]
  },
  {
    "id": "opt-FORESTHOUSE-분당구야탑동",
    "name": "FOREST HOUSE",
    "address": "경기도 성남시 분당구 야탑동",
    "roadAddress": "경기도 성남시 분당구 벌말로30번길 46",
    "type": "officetel",
    "lat": 37.410037638325,
    "lng": 127.140886552878,
    "buildYear": 2003,
    "units": [
      "opt-FORESTHOUSE-분당구야탑동-21평형",
      "opt-FORESTHOUSE-분당구야탑동-25평형"
    ]
  },
  {
    "id": "opt-정자역엠코헤리츠4단지-분당구정자동",
    "name": "정자역 엠코헤리츠 4단지",
    "address": "경기도 성남시 분당구 정자동",
    "roadAddress": "경기도 성남시 분당구 정자일로 132",
    "type": "officetel",
    "lat": 37.3613378183697,
    "lng": 127.105989350458,
    "buildYear": 2014,
    "units": [
      "opt-정자역엠코헤리츠4단지-분당구정자동-9평형",
      "opt-정자역엠코헤리츠4단지-분당구정자동-8평형",
      "opt-정자역엠코헤리츠4단지-분당구정자동-17평형"
    ]
  },
  {
    "id": "opt-판교테크노밸리브릿지타워-분당구삼평동",
    "name": "판교 테크노밸리 브릿지타워",
    "address": "경기도 성남시 분당구 삼평동",
    "roadAddress": "경기도 성남시 분당구 판교로227번길 6",
    "type": "officetel",
    "lat": 37.4037315158232,
    "lng": 127.099034149705,
    "buildYear": 2015,
    "units": [
      "opt-판교테크노밸리브릿지타워-분당구삼평동-7평형",
      "opt-판교테크노밸리브릿지타워-분당구삼평동-6평형"
    ]
  },
  {
    "id": "opt-천지오피스텔-분당구서현동",
    "name": "천지오피스텔",
    "address": "경기도 성남시 분당구 서현동",
    "roadAddress": "경기도 성남시 분당구 황새울로330번길 16",
    "type": "officetel",
    "lat": 37.3847469225638,
    "lng": 127.121954546874,
    "buildYear": 1998,
    "units": [
      "opt-천지오피스텔-분당구서현동-9평형",
      "opt-천지오피스텔-분당구서현동-10평형"
    ]
  },
  {
    "id": "opt-르네상스분당오피스텔-분당구야탑동",
    "name": "르네상스분당오피스텔",
    "address": "경기도 성남시 분당구 야탑동",
    "roadAddress": "경기도 성남시 분당구 장미로48번길 10",
    "type": "officetel",
    "lat": 37.4130939577955,
    "lng": 127.126065875481,
    "buildYear": 2003,
    "units": [
      "opt-르네상스분당오피스텔-분당구야탑동-11평형",
      "opt-르네상스분당오피스텔-분당구야탑동-16평형",
      "opt-르네상스분당오피스텔-분당구야탑동-10평형",
      "opt-르네상스분당오피스텔-분당구야탑동-13평형",
      "opt-르네상스분당오피스텔-분당구야탑동-15평형"
    ]
  },
  {
    "id": "opt-아델파크빌-분당구야탑동",
    "name": "아델파크빌",
    "address": "경기도 성남시 분당구 야탑동",
    "roadAddress": "경기도 성남시 분당구 장미로 198",
    "type": "officetel",
    "lat": 37.4136253292012,
    "lng": 127.132215267764,
    "buildYear": 2004,
    "units": [
      "opt-아델파크빌-분당구야탑동-26평형",
      "opt-아델파크빌-분당구야탑동-21평형",
      "opt-아델파크빌-분당구야탑동-25평형"
    ]
  },
  {
    "id": "opt-시그마2오피스텔-분당구구미동",
    "name": "시그마2 오피스텔",
    "address": "경기도 성남시 분당구 구미동",
    "roadAddress": "경기도 성남시 분당구 탄천상로 164",
    "type": "officetel",
    "lat": 37.3413811526693,
    "lng": 127.111444629113,
    "buildYear": 1999,
    "units": [
      "opt-시그마2오피스텔-분당구구미동-11평형",
      "opt-시그마2오피스텔-분당구구미동-15평형",
      "opt-시그마2오피스텔-분당구구미동-23평형",
      "opt-시그마2오피스텔-분당구구미동-12평형",
      "opt-시그마2오피스텔-분당구구미동-9평형",
      "opt-시그마2오피스텔-분당구구미동-17평형",
      "opt-시그마2오피스텔-분당구구미동-19평형",
      "opt-시그마2오피스텔-분당구구미동-30평형",
      "opt-시그마2오피스텔-분당구구미동-31평형",
      "opt-시그마2오피스텔-분당구구미동-27평형",
      "opt-시그마2오피스텔-분당구구미동-13평형"
    ]
  },
  {
    "id": "opt-한승베네피아오피스텔-분당구야탑동",
    "name": "한승 베네피아 오피스텔",
    "address": "경기도 성남시 분당구 야탑동",
    "roadAddress": "경기도 성남시 분당구 성남대로925번길 37",
    "type": "officetel",
    "lat": 37.4123629677772,
    "lng": 127.126059680297,
    "buildYear": 2003,
    "units": [
      "opt-한승베네피아오피스텔-분당구야탑동-10평형",
      "opt-한승베네피아오피스텔-분당구야탑동-12평형"
    ]
  },
  {
    "id": "opt-삼라마이다스빌-분당구수내동",
    "name": "삼라마이다스빌",
    "address": "경기도 성남시 분당구 수내동",
    "roadAddress": "경기도 성남시 분당구 황새울로200번길 32",
    "type": "officetel",
    "lat": 37.3767338585266,
    "lng": 127.112772958446,
    "buildYear": 2004,
    "units": [
      "opt-삼라마이다스빌-분당구수내동-34평형",
      "opt-삼라마이다스빌-분당구수내동-35평형",
      "opt-삼라마이다스빌-분당구수내동-22평형"
    ]
  },
  {
    "id": "opt-코오롱트리폴리스-분당구금곡동",
    "name": "코오롱트리폴리스Ⅰ",
    "address": "경기도 성남시 분당구 금곡동",
    "roadAddress": "경기도 성남시 분당구 정자일로 1",
    "type": "officetel",
    "lat": 37.3506184533259,
    "lng": 127.107606647258,
    "buildYear": 2001,
    "units": [
      "opt-코오롱트리폴리스-분당구금곡동-64평형",
      "opt-코오롱트리폴리스-분당구금곡동-27평형",
      "opt-코오롱트리폴리스-분당구금곡동-16평형",
      "opt-코오롱트리폴리스-분당구금곡동-36평형",
      "opt-코오롱트리폴리스-분당구금곡동-47평형",
      "opt-코오롱트리폴리스-분당구금곡동-42평형",
      "opt-코오롱트리폴리스-분당구금곡동-52평형",
      "opt-코오롱트리폴리스-분당구금곡동-31평형",
      "opt-코오롱트리폴리스-분당구금곡동-14평형",
      "opt-코오롱트리폴리스-분당구금곡동-17평형"
    ]
  },
  {
    "id": "opt-MTOWER-분당구삼평동",
    "name": "M TOWER",
    "address": "경기도 성남시 분당구 삼평동",
    "roadAddress": "경기도 성남시 분당구 판교역로241번길 22",
    "type": "officetel",
    "lat": 37.4024146,
    "lng": 127.1076677,
    "buildYear": 2012,
    "units": [
      "opt-MTOWER-분당구삼평동-6평형",
      "opt-MTOWER-분당구삼평동-5평형"
    ]
  },
  {
    "id": "opt-힐스테이트판교모비우스-분당구운중동",
    "name": "힐스테이트 판교 모비우스",
    "address": "경기도 성남시 분당구 운중동",
    "roadAddress": "경기도 성남시 분당구 석운로 440",
    "type": "officetel",
    "lat": 37.3823100586122,
    "lng": 127.046714331067,
    "buildYear": 2018,
    "units": [
      "opt-힐스테이트판교모비우스-분당구운중동-25평형",
      "opt-힐스테이트판교모비우스-분당구운중동-26평형"
    ]
  },
  {
    "id": "opt-클라우드베이VI-분당구대장동",
    "name": "클라우드베이 VI",
    "address": "경기도 성남시 분당구 대장동",
    "roadAddress": "경기도 성남시 분당구 판교대장로8길 10",
    "type": "officetel",
    "lat": 37.3718255,
    "lng": 127.0714852,
    "buildYear": 2022,
    "units": [
      "opt-클라우드베이VI-분당구대장동-17평형",
      "opt-클라우드베이VI-분당구대장동-18평형"
    ]
  },
  {
    "id": "opt-분당오벨리스크-분당구서현동",
    "name": "분당오벨리스크",
    "address": "경기도 성남시 분당구 서현동",
    "roadAddress": "경기도 성남시 분당구 서현로 216",
    "type": "officetel",
    "lat": 37.3879746443467,
    "lng": 127.12248993928,
    "buildYear": 2003,
    "units": [
      "opt-분당오벨리스크-분당구서현동-14평형",
      "opt-분당오벨리스크-분당구서현동-18평형",
      "opt-분당오벨리스크-분당구서현동-11평형",
      "opt-분당오벨리스크-분당구서현동-10평형"
    ]
  },
  {
    "id": "opt-백궁동양파라곤-분당구정자동",
    "name": "백궁 동양파라곤",
    "address": "경기도 성남시 분당구 정자동",
    "roadAddress": "경기도 성남시 분당구 느티로 22",
    "type": "officetel",
    "lat": 37.3685431465027,
    "lng": 127.10954869583,
    "buildYear": 2004,
    "units": [
      "opt-백궁동양파라곤-분당구정자동-9평형",
      "opt-백궁동양파라곤-분당구정자동-8평형",
      "opt-백궁동양파라곤-분당구정자동-11평형",
      "opt-백궁동양파라곤-분당구정자동-12평형",
      "opt-백궁동양파라곤-분당구정자동-13평형",
      "opt-백궁동양파라곤-분당구정자동-10평형",
      "opt-백궁동양파라곤-분당구정자동-16평형",
      "opt-백궁동양파라곤-분당구정자동-29평형",
      "opt-백궁동양파라곤-분당구정자동-17평형",
      "opt-백궁동양파라곤-분당구정자동-19평형"
    ]
  },
  {
    "id": "opt-더샵분당파크리버-분당구정자동",
    "name": "더샵 분당파크리버",
    "address": "경기도 성남시 분당구 정자동",
    "roadAddress": "경기도 성남시 분당구 돌마로 169",
    "type": "officetel",
    "lat": 37.3693402,
    "lng": 127.1220036,
    "buildYear": 2021,
    "units": [
      "opt-더샵분당파크리버-분당구정자동-26평형"
    ]
  },
  {
    "id": "opt-세종그랑시아-분당구구미동",
    "name": "세종그랑시아∥",
    "address": "경기도 성남시 분당구 구미동",
    "roadAddress": "경기도 성남시 분당구 구미로9번길 10",
    "type": "officetel",
    "lat": 37.3394096026267,
    "lng": 127.110297433836,
    "buildYear": 2003,
    "units": [
      "opt-세종그랑시아-분당구구미동-11평형",
      "opt-세종그랑시아-분당구구미동-10평형",
      "opt-세종그랑시아-분당구구미동-15평형"
    ]
  },
  {
    "id": "opt-647-분당구삼평동",
    "name": "(647)",
    "address": "경기도 성남시 분당구 삼평동",
    "roadAddress": "경기도 성남시 분당구 대왕판교로606번길 31",
    "type": "officetel",
    "lat": 37.3962294132136,
    "lng": 127.111888078065,
    "buildYear": 2012,
    "units": [
      "opt-647-분당구삼평동-9평형",
      "opt-647-분당구삼평동-8평형"
    ]
  },
  {
    "id": "opt-정자IPARK-분당구정자동",
    "name": "정자 I′PARK",
    "address": "경기도 성남시 분당구 정자동",
    "roadAddress": "경기도 성남시 분당구 백현로 100",
    "type": "officetel",
    "lat": 37.3724863709846,
    "lng": 127.113020958608,
    "buildYear": 2002,
    "units": [
      "opt-정자IPARK-분당구정자동-72평형",
      "opt-정자IPARK-분당구정자동-29평형",
      "opt-정자IPARK-분당구정자동-28평형",
      "opt-정자IPARK-분당구정자동-30평형",
      "opt-정자IPARK-분당구정자동-69평형",
      "opt-정자IPARK-분당구정자동-55평형",
      "opt-정자IPARK-분당구정자동-24평형",
      "opt-정자IPARK-분당구정자동-45평형",
      "opt-정자IPARK-분당구정자동-57평형",
      "opt-정자IPARK-분당구정자동-44평형"
    ]
  },
  {
    "id": "opt-씨티밸리-분당구금곡동",
    "name": "씨티밸리",
    "address": "경기도 성남시 분당구 금곡동",
    "roadAddress": "경기도 성남시 분당구 성남대로171번길 17",
    "type": "officetel",
    "lat": 37.3513704551257,
    "lng": 127.107602867339,
    "buildYear": 2003,
    "units": [
      "opt-씨티밸리-분당구금곡동-11평형",
      "opt-씨티밸리-분당구금곡동-7평형",
      "opt-씨티밸리-분당구금곡동-8평형"
    ]
  },
  {
    "id": "opt-현대판테온I오피스텔-분당구수내동",
    "name": "현대판테온I오피스텔",
    "address": "경기도 성남시 분당구 수내동",
    "roadAddress": "경기도 성남시 분당구 황새울로200번길 9-7",
    "type": "officetel",
    "lat": 37.3767338585266,
    "lng": 127.112772958446,
    "buildYear": 2000,
    "units": [
      "opt-현대판테온I오피스텔-분당구수내동-28평형",
      "opt-현대판테온I오피스텔-분당구수내동-27평형",
      "opt-현대판테온I오피스텔-분당구수내동-50평형",
      "opt-현대판테온I오피스텔-분당구수내동-42평형",
      "opt-현대판테온I오피스텔-분당구수내동-41평형"
    ]
  },
  {
    "id": "opt-정자역엠코헤리츠2단지-분당구정자동",
    "name": "정자역 엠코헤리츠 2단지",
    "address": "경기도 성남시 분당구 정자동",
    "roadAddress": "경기도 성남시 분당구 정자일로 140",
    "type": "officetel",
    "lat": 37.3613378183697,
    "lng": 127.105989350458,
    "buildYear": 2014,
    "units": [
      "opt-정자역엠코헤리츠2단지-분당구정자동-9평형",
      "opt-정자역엠코헤리츠2단지-분당구정자동-17평형",
      "opt-정자역엠코헤리츠2단지-분당구정자동-8평형"
    ]
  },
  {
    "id": "opt-삼성보보스쉐르빌-분당구수내동",
    "name": "삼성보보스쉐르빌",
    "address": "경기도 성남시 분당구 수내동",
    "roadAddress": "경기도 성남시 분당구 수내로 54",
    "type": "officetel",
    "lat": 37.3798425680456,
    "lng": 127.116220995491,
    "buildYear": 2004,
    "units": [
      "opt-삼성보보스쉐르빌-분당구수내동-10평형",
      "opt-삼성보보스쉐르빌-분당구수내동-9평형",
      "opt-삼성보보스쉐르빌-분당구수내동-11평형"
    ]
  },
  {
    "id": "opt-두산위브센티움-분당구수내동",
    "name": "두산위브센티움Ⅰ",
    "address": "경기도 성남시 분당구 수내동",
    "roadAddress": "경기도 성남시 분당구 수내로 38",
    "type": "officetel",
    "lat": 37.3798425680456,
    "lng": 127.116220995491,
    "buildYear": 2003,
    "units": [
      "opt-두산위브센티움-분당구수내동-10평형",
      "opt-두산위브센티움-분당구수내동-11평형",
      "opt-두산위브센티움-분당구수내동-13평형"
    ]
  },
  {
    "id": "opt-LG트윈하우스-분당구구미동",
    "name": "LG트윈하우스",
    "address": "경기도 성남시 분당구 구미동",
    "roadAddress": "경기도 성남시 분당구 성남대로2번길 6",
    "type": "officetel",
    "lat": 37.3352543,
    "lng": 127.1099062,
    "buildYear": 1999,
    "units": [
      "opt-LG트윈하우스-분당구구미동-13평형",
      "opt-LG트윈하우스-분당구구미동-15평형",
      "opt-LG트윈하우스-분당구구미동-27평형",
      "opt-LG트윈하우스-분당구구미동-25평형"
    ]
  },
  {
    "id": "opt-프리아오피스텔-분당구야탑동",
    "name": "프리아오피스텔",
    "address": "경기도 성남시 분당구 야탑동",
    "roadAddress": "경기도 성남시 분당구 야탑로 106",
    "type": "officetel",
    "lat": 37.4095554,
    "lng": 127.1305944,
    "buildYear": 2002,
    "units": [
      "opt-프리아오피스텔-분당구야탑동-11평형",
      "opt-프리아오피스텔-분당구야탑동-10평형",
      "opt-프리아오피스텔-분당구야탑동-13평형"
    ]
  },
  {
    "id": "opt-엔즈빌오피스텔-분당구야탑동",
    "name": "엔즈 빌 오피스텔",
    "address": "경기도 성남시 분당구 야탑동",
    "roadAddress": "경기도 성남시 분당구 장미로48번길 14",
    "type": "officetel",
    "lat": 37.4130939577955,
    "lng": 127.126065875481,
    "buildYear": 2003,
    "units": [
      "opt-엔즈빌오피스텔-분당구야탑동-9평형",
      "opt-엔즈빌오피스텔-분당구야탑동-10평형",
      "opt-엔즈빌오피스텔-분당구야탑동-11평형",
      "opt-엔즈빌오피스텔-분당구야탑동-23평형",
      "opt-엔즈빌오피스텔-분당구야탑동-29평형"
    ]
  },
  {
    "id": "opt-큐브타워-분당구운중동",
    "name": "큐브타워",
    "address": "경기도 성남시 분당구 운중동",
    "roadAddress": "경기도 성남시 분당구 운중동",
    "type": "officetel",
    "lat": 0.0,
    "lng": 0.0,
    "buildYear": 2015,
    "units": [
      "opt-큐브타워-분당구운중동-10평형",
      "opt-큐브타워-분당구운중동-9평형"
    ]
  },