[
  {
    "id": "경기도-성남시-분당구-서현동-292",
    "name": "효자촌(임광)",
    "siGunGu": "경기도 성남시 분당구 서현동",
    "roadName": "불정로 397",
    "bonBeon": 292,
    "buBeon": 0,
    "floor": 15,
    "type": "apartment",
    "lat": 37.3726221063004,
    "lng": 127.137949954999,
    "constructionYear": 1993
  },
  {
    "id": "경기도-성남시-분당구-수내동-34",
    "name": "양지마을(금호1)",
    "siGunGu": "경기도 성남시 분당구 수내동",
    "roadName": "수내로 74",
    "bonBeon": 34,
    "buBeon": 0,
    "floor": 7,
    "type": "apartment",
    "lat": 37.3798425680456,
    "lng": 127.116220995491,
    "constructionYear": 1993
  },
  {
    "id": "경기도-성남시-분당구-운중동-958",
    "name": "산운마을9단지(대방노블랜드)",
    "siGunGu": "경기도 성남시 분당구 운중동",
    "roadName": "산운로 126",
    "bonBeon": 958,
    "buBeon": 0,
    "floor": 6,
    "type": "apartment",
    "lat": 37.3931362309343,
    "lng": 127.073888910259,
    "constructionYear": 2008
  },
  {
    "id": "경기도-성남시-분당구-서현동-96",
    "name": "시범우성",
    "siGunGu": "경기도 성남시 분당구 서현동",
    "roadName": "중앙공원로 54",
    "bonBeon": 96,
    "buBeon": 0,
    "floor": 13,
    "type": "apartment",
    "lat": 37.3810714084689,
    "lng": 127.129716061485,
    "constructionYear": 1991
  },
  {
    "id": "경기도-성남시-분당구-야탑동-156",
    "name": "목련마을(영남)",
    "siGunGu": "경기도 성남시 분당구 야탑동",
    "roadName": "판교로 669",
    "bonBeon": 156,
    "buBeon": 0,
    "floor": 1,
    "type": "apartment",
    "lat": 37.4059725007389,
    "lng": 127.122271876441,
    "constructionYear": 1995
  },
  {
    "id": "경기도-성남시-분당구-야탑동-215",
    "name": "매화마을공무원2",
    "siGunGu": "경기도 성남시 분당구 야탑동",
    "roadName": "장미로 139",
    "bonBeon": 215,
    "buBeon": 0,
    "floor": 4,
    "type": "apartment",
    "lat": 37.4136253292012,
    "lng": 127.132215267764,
    "constructionYear": 1995
  },
  {
    "id": "경기도-성남시-분당구-구미동-66",
    "name": "까치마을(3단지)(신원)",
    "siGunGu": "경기도 성남시 분당구 구미동",
    "roadName": "미금로 177",
    "bonBeon": 66,
    "buBeon": 0,
    "floor": 14,
    "type": "apartment",
    "lat": 37.3367571580584,
    "lng": 127.118938110394,
    "constructionYear": 1995
  },
  {
    "id": "경기도-성남시-분당구-백현동-555",
    "name": "백현마을6단지(주공)",
    "siGunGu": "경기도 성남시 분당구 백현동",
    "roadName": "판교역로 100",
    "bonBeon": 555,
    "buBeon": 0,
    "floor": 10,
    "type": "apartment",
    "lat": 37.3853391396126,
    "lng": 127.11243354368,
    "constructionYear": 2009
  },
  {
    "id": "경기도-성남시-분당구-야탑동-536",
    "name": "탑마을(선경)1",
    "siGunGu": "경기도 성남시 분당구 야탑동",
    "roadName": "야탑로 20",
    "bonBeon": 536,
    "buBeon": 0,
    "floor": 1,
    "type": "apartment",
    "lat": 37.4093499911129,
    "lng": 127.139204070804,
    "constructionYear": 1992
  },
  {
    "id": "경기도-성남시-분당구-구미동-212",
    "name": "무지개(12단지)(주공뜨란체)",
    "siGunGu": "경기도 성남시 분당구 구미동",
    "roadName": "미금로22번길 10",
    "bonBeon": 212,
    "buBeon": 0,
    "floor": 8,
    "type": "apartment",
    "lat": 37.3367571580584,
    "lng": 127.118938110394,
    "constructionYear": 1996
  },
  {
    "id": "경기도-성남시-분당구-수내동-29",
    "name": "양지마을(6단지)(한양603동)",
    "siGunGu": "경기도 성남시 분당구 수내동",
    "roadName": "내정로173번길 11",
    "bonBeon": 29,
    "buBeon": 0,
    "floor": 22,
    "type": "apartment",
    "lat": 37.3759753364196,
    "lng": 127.117804929549,
    "constructionYear": 1993
  },
  {
    "id": "경기도-성남시-분당구-서현동-91",
    "name": "시범한양",
    "siGunGu": "경기도 성남시 분당구 서현동",
    "roadName": "중앙공원로 17",
    "bonBeon": 91,
    "buBeon": 0,
    "floor": 20,
    "type": "apartment",
    "lat": 37.3810714084689,
    "lng": 127.129716061485,
    "constructionYear": 1992
  },
  {
    "id": "경기도-성남시-분당구-구미동-211",
    "name": "무지개(1단지)(대림)",
    "siGunGu": "경기도 성남시 분당구 구미동",
    "roadName": "미금로 23",
    "bonBeon": 211,
    "buBeon": 0,
    "floor": 8,
    "type": "apartment",
    "lat": 37.3367571580584,
    "lng": 127.118938110394,
    "constructionYear": 1995
  },
  {
    "id": "경기도-성남시-분당구-정자동-192",
    "name": "정든마을(5단지)(신화)",
    "siGunGu": "경기도 성남시 분당구 정자동",
    "roadName": "정자로 112",
    "bonBeon": 192,
    "buBeon": 0,
    "floor": 10,
    "type": "apartment",
    "lat": 37.363464095084,
    "lng": 127.113901695517,
    "constructionYear": 1995
  },
  {
    "id": "경기도-성남시-분당구-정자동-102",
    "name": "한솔마을(4단지)(주공)",
    "siGunGu": "경기도 성남시 분당구 정자동",
    "roadName": "백현로 206",
    "bonBeon": 102,
    "buBeon": 0,
    "floor": 13,
    "type": "apartment",
    "lat": 37.3724863709846,
    "lng": 127.113020958608,
    "constructionYear": 1994
  },
  {
    "id": "경기도-성남시-분당구-정자동-117",
    "name": "한솔마을(6단지)(주공)",
    "siGunGu": "경기도 성남시 분당구 정자동",
    "roadName": "내정로 54",
    "bonBeon": 117,
    "buBeon": 0,
    "floor": 12,
    "type": "apartment",
    "lat": 37.3607103278578,
    "lng": 127.113296333528,
    "constructionYear": 1995
  },
  {
    "id": "경기도-성남시-분당구-정자동-112",
    "name": "한솔마을(5단지)(주공)",
    "siGunGu": "경기도 성남시 분당구 정자동",
    "roadName": "정자로 115",
    "bonBeon": 112,
    "buBeon": 0,
    "floor": 25,
    "type": "apartment",
    "lat": 37.363464095084,
    "lng": 127.113901695517,
    "constructionYear": 1994
  },
  {
    "id": "경기도-성남시-분당구-금곡동-180",
    "name": "청솔마을(유천)",
    "siGunGu": "경기도 성남시 분당구 금곡동",
    "roadName": "정자일로 46",
    "bonBeon": 180,
    "buBeon": 0,
    "floor": 1,
    "type": "apartment",
    "lat": 37.3506184533259,
    "lng": 127.107606647258,
    "constructionYear": 1995
  },
  {
    "id": "경기도-성남시-분당구-야탑동-518",
    "name": "탑마을(주공)",
    "siGunGu": "경기도 성남시 분당구 야탑동",
    "roadName": "매화로 12",
    "bonBeon": 518,
    "buBeon": 0,
    "floor": 8,
    "type": "apartment",
    "lat": 37.4121102645266,
    "lng": 127.133897927458,
    "constructionYear": 1993
  },
  {
    "id": "경기도-성남시-분당구-대장동-623",
    "name": "판교풍경채어바니티(7단지)",
    "siGunGu": "경기도 성남시 분당구 대장동",
    "roadName": "판교대장로 77",
    "bonBeon": 623,
    "buBeon": 0,
    "floor": 13,
    "type": "apartment",
    "lat": 37.3709137102728,
    "lng": 127.070688535695,
    "constructionYear": 2021
  },
  {
    "id": "경기도-성남시-분당구-정자동-28-1",
    "name": "로얄팰리스",
    "siGunGu": "경기도 성남시 분당구 정자동",
    "roadName": "성남대로 449",
    "bonBeon": 28,
    "buBeon": 1,
    "floor": 24,
    "type": "apartment",
    "lat": 37.365628899414,
    "lng": 127.106455289975,
    "constructionYear": 2003
  },
  {
    "id": "경기도-성남시-분당구-분당동-34",
    "name": "샛별마을(라이프)",
    "siGunGu": "경기도 성남시 분당구 분당동",
    "roadName": "분당로 190",
    "bonBeon": 34,
    "buBeon": 0,
    "floor": 20,
    "type": "apartment",
    "lat": 37.3741666285054,
    "lng": 127.131799827018,
    "constructionYear": 1993
  },
  {
    "id": "경기도-성남시-분당구-야탑동-334",
    "name": "장미마을(현대)",
    "siGunGu": "경기도 성남시 분당구 야탑동",
    "roadName": "장미로 101",
    "bonBeon": 334,
    "buBeon": 0,
    "floor": 5,
    "type": "apartment",
    "lat": 37.4136253292012,
    "lng": 127.132215267764,
    "constructionYear": 1993
  },
  {
    "id": "경기도-성남시-분당구-정자동-215",
    "name": "더샵분당파크리버",
    "siGunGu": "경기도 성남시 분당구 정자동",
    "roadName": "돌마로 171",
    "bonBeon": 215,
    "buBeon": 0,
    "floor": 7,
    "type": "apartment",
    "lat": 0.0,
    "lng": 0.0,
    "constructionYear": 2021
  },
  {
    "id": "경기도-성남시-분당구-정자동-88",
    "name": "느티마을(3단지)(공무원)",
    "siGunGu": "경기도 성남시 분당구 정자동",
    "roadName": "느티로 70",
    "bonBeon": 88,
    "buBeon": 0,
    "floor": 12,
    "type": "apartment",
    "lat": 37.3685431465027,
    "lng": 127.10954869583,
    "constructionYear": 1995
  },
  {
    "id": "경기도-성남시-분당구-이매동-132",
    "name": "아름마을(태영)",
    "siGunGu": "경기도 성남시 분당구 이매동",
    "roadName": "판교로 430",
    "bonBeon": 132,
    "buBeon": 0,
    "floor": 5,
    "type": "apartment",
    "lat": 37.4054600193076,
    "lng": 127.1193434494,
    "constructionYear": 1992
  },
  {
    "id": "경기도-성남시-분당구-이매동-124",
    "name": "이매촌(한신)",
    "siGunGu": "경기도 성남시 분당구 이매동",
    "roadName": "서현로 181",
    "bonBeon": 124,
    "buBeon": 0,
    "floor": 1,
    "type": "apartment",
    "lat": 0.0,
    "lng": 0.0,
    "constructionYear": 1992
  },
  {
    "id": "경기도-성남시-분당구-운중동-918",
    "name": "산운마을13단지(태영)",
    "siGunGu": "경기도 성남시 분당구 운중동",
    "roadName": "판교원로82번길 30",
    "bonBeon": 918,
    "buBeon": 0,
    "floor": 3,
    "type": "apartment",
    "lat": 37.3861228302611,
    "lng": 127.074351203092,
    "constructionYear": 2010
  },
  {
    "id": "경기도-성남시-분당구-대장동-592",
    "name": "판교퍼스트힐푸르지오1단지",
    "siGunGu": "경기도 성남시 분당구 대장동",
    "roadName": "판교대장로7길 69",
    "bonBeon": 592,
    "buBeon": 0,
    "floor": 9,
    "type": "apartment",
    "lat": 37.3738215454946,
    "lng": 127.068310431217,
    "constructionYear": 2021
  },
  {
    "id": "경기도-성남시-분당구-수내동-51",
    "name": "파크타운(대림)",
    "siGunGu": "경기도 성남시 분당구 수내동",
    "roadName": "내정로 186",
    "bonBeon": 51,
    "buBeon": 0,
    "floor": 1,
    "type": "apartment",
    "lat": 37.3688410036702,
    "lng": 127.114797157872,
    "constructionYear": 1993
  },
  {
    "id": "경기도-성남시-분당구-이매동-110",
    "name": "이매촌(동신9)",
    "siGunGu": "경기도 성남시 분당구 이매동",
    "roadName": "양현로166번길 20",
    "bonBeon": 110,
    "buBeon": 0,
    "floor": 3,
    "type": "apartment",
    "lat": 37.3986767035056,
    "lng": 127.126772199492,
    "constructionYear": 1992
  },
  {
    "id": "경기도-성남시-분당구-운중동-988",
    "name": "산운마을6단지(신동아파밀리에)",
    "siGunGu": "경기도 성남시 분당구 운중동",
    "roadName": "산운로 121",
    "bonBeon": 988,
    "buBeon": 0,
    "floor": 2,
    "type": "apartment",
    "lat": 37.3931362309343,
    "lng": 127.073888910259,
    "constructionYear": 2009
  },
  {
    "id": "경기도-성남시-분당구-구미동-220",
    "name": "무지개(4단지)(주공)",
    "siGunGu": "경기도 성남시 분당구 구미동",
    "roadName": "미금로 66",
    "bonBeon": 220,
    "buBeon": 0,
    "floor": 22,
    "type": "apartment",
    "lat": 37.3367571580584,
    "lng": 127.118938110394,
    "constructionYear": 1995
  },
  {
    "id": "경기도-성남시-분당구-야탑동-201",
    "name": "매화마을공무원1",
    "siGunGu": "경기도 성남시 분당구 야탑동",
    "roadName": "매화로 92",
    "bonBeon": 201,
    "buBeon": 0,
    "floor": 10,
    "type": "apartment",
    "lat": 37.4121102645266,
    "lng": 127.133897927458,
    "constructionYear": 1995
  },
  {
    "id": "경기도-성남시-분당구-수내동-24",
    "name": "양지마을(5단지)(한양501-514)",
    "siGunGu": "경기도 성남시 분당구 수내동",
    "roadName": "내정로165번길 35",
    "bonBeon": 24,
    "buBeon": 0,
    "floor": 2,
    "type": "apartment",
    "lat": 37.3754200840288,
    "lng": 127.117029438801,
    "constructionYear": 1992
  },
  {
    "id": "경기도-성남시-분당구-분당동-66",
    "name": "장안타운(건영)",
    "siGunGu": "경기도 성남시 분당구 분당동",
    "roadName": "장안로41번길 13",
    "bonBeon": 66,
    "buBeon": 0,
    "floor": 12,
    "type": "apartment",
    "lat": 37.3712350635965,
    "lng": 127.142289167751,
    "constructionYear": 1994
  },
  {
    "id": "경기도-성남시-분당구-서현동-301",
    "name": "효자촌(삼환)",
    "siGunGu": "경기도 성남시 분당구 서현동",
    "roadName": "불정로 361",
    "bonBeon": 301,
    "buBeon": 0,
    "floor": 1,
    "type": "apartment",
    "lat": 37.3726221063004,
    "lng": 127.137949954999,
    "constructionYear": 1993
  },
  {
    "id": "경기도-성남시-분당구-금곡동-141",
    "name": "청솔마을(대원)",
    "siGunGu": "경기도 성남시 분당구 금곡동",
    "roadName": "미금로 215",
    "bonBeon": 141,
    "buBeon": 0,
    "floor": 11,
    "type": "apartment",
    "lat": 37.3470496488571,
    "lng": 127.116098314378,
    "constructionYear": 1994
  },
  {
    "id": "경기도-성남시-분당구-이매동-100",
    "name": "이매촌(삼성)",
    "siGunGu": "경기도 성남시 분당구 이매동",
    "roadName": "양현로 192",
    "bonBeon": 100,
    "buBeon": 0,
    "floor": 2,
    "type": "apartment",
    "lat": 37.390934840402,
    "lng": 127.126027630076,
    "constructionYear": 1994
  },
  {
    "id": "경기도-성남시-분당구-대장동-638",
    "name": "판교더샵포레스트11단지",
    "siGunGu": "경기도 성남시 분당구 대장동",
    "roadName": "판교대장로5길 58",
    "bonBeon": 638,
    "buBeon": 0,
    "floor": 14,
    "type": "apartment",
    "lat": 37.3665745016943,
    "lng": 127.071068626111,
    "constructionYear": 2021
  },
  {
    "id": "경기도-성남시-분당구-판교동-635",
    "name": "판교원마을6단지(판교대광로제비앙)",
    "siGunGu": "경기도 성남시 분당구 판교동",
    "roadName": "판교원로 209",
    "bonBeon": 635,
    "buBeon": 0,
    "floor": 2,
    "type": "apartment",
    "lat": 37.3878118616897,
    "lng": 127.084707149849,
    "constructionYear": 2009
  },
  {
    "id": "경기도-성남시-분당구-대장동-642",
    "name": "판교풍경채어바니티(5단지)",
    "siGunGu": "경기도 성남시 분당구 대장동",
    "roadName": "판교대장로5길 20",
    "bonBeon": 642,
    "buBeon": 0,
    "floor": 5,
    "type": "apartment",
    "lat": 37.3665745016943,
    "lng": 127.071068626111,
    "constructionYear": 2021
  },
  {
    "id": "경기도-성남시-분당구-구미동-201",
    "name": "무지개(3단지)(신한)",
    "siGunGu": "경기도 성남시 분당구 구미동",
    "roadName": "미금로 63",
    "bonBeon": 201,
    "buBeon": 0,
    "floor": 2,
    "type": "apartment",
    "lat": 37.3367571580584,
    "lng": 127.118938110394,
    "constructionYear": 1996
  },
  {
    "id": "경기도-성남시-분당구-야탑동-517",
    "name": "탑마을(벽산)",
    "siGunGu": "경기도 성남시 분당구 야탑동",
    "roadName": "야탑로 124",
    "bonBeon": 517,
    "buBeon": 0,
    "floor": 3,
    "type": "apartment",
    "lat": 37.4093499911129,
    "lng": 127.139204070804,
    "constructionYear": 1994
  },
  {
    "id": "경기도-성남시-분당구-수내동-55",
    "name": "파크타운(롯데)",
    "siGunGu": "경기도 성남시 분당구 수내동",
    "roadName": "내정로 152",
    "bonBeon": 55,
    "buBeon": 0,
    "floor": 8,
    "type": "apartment",
    "lat": 37.3688410036702,
    "lng": 127.114797157872,
    "constructionYear": 1993
  },
  {
    "id": "경기도-성남시-분당구-구미동-202",
    "name": "무지개(2단지)(엘지)",
    "siGunGu": "경기도 성남시 분당구 구미동",
    "roadName": "구미로 50",
    "bonBeon": 202,
    "buBeon": 0,
    "floor": 4,
    "type": "apartment",
    "lat": 37.3384517227768,
    "lng": 127.119834191288,
    "constructionYear": 1995
  },
  {
    "id": "경기도-성남시-분당구-구미동-110",
    "name": "하얀마을(5단지)(주공)",
    "siGunGu": "경기도 성남시 분당구 구미동",
    "roadName": "미금일로 21",
    "bonBeon": 110,
    "buBeon": 0,
    "floor": 9,
    "type": "apartment",
    "lat": 37.3458381569367,
    "lng": 127.110995834022,
    "constructionYear": 1995
  },
  {
    "id": "경기도-성남시-분당구-구미동-221",
    "name": "무지개(5단지)(청구)",
    "siGunGu": "경기도 성남시 분당구 구미동",
    "roadName": "무지개로 144",
    "bonBeon": 221,
    "buBeon": 0,
    "floor": 8,
    "type": "apartment",
    "lat": 37.3388639982998,
    "lng": 127.113379855812,
    "constructionYear": 1995
  },
  {
    "id": "경기도-성남시-분당구-삼평동-718",
    "name": "봇들마을4단지(주공)",
    "siGunGu": "경기도 성남시 분당구 삼평동",
    "roadName": "동판교로 226",
    "bonBeon": 718,
    "buBeon": 0,
    "floor": 14,
    "type": "apartment",
    "lat": 37.3987513673426,
    "lng": 127.116830460102,
    "constructionYear": 2009
  },
  {
    "id": "경기도-성남시-분당구-야탑동-330",
    "name": "장미마을(코오롱)1",
    "siGunGu": "경기도 성남시 분당구 야탑동",
    "roadName": "장미로 55",
    "bonBeon": 330,
    "buBeon": 0,
    "floor": 2,
    "type": "apartment",
    "lat": 37.4136253292012,
    "lng": 127.132215267764,
    "constructionYear": 1993
  },
  {
    "id": "경기도-성남시-분당구-정자동-198",
    "name": "정든마을(2단지)(동아)",
    "siGunGu": "경기도 성남시 분당구 정자동",
    "roadName": "불정로 179",
    "bonBeon": 198,
    "buBeon": 0,
    "floor": 12,
    "type": "apartment",
    "lat": 37.3608046082389,
    "lng": 127.111746176398,
    "constructionYear": 1995
  },
  {
    "id": "경기도-성남시-분당구-야탑동-211",
    "name": "매화마을(주공4)",
    "siGunGu": "경기도 성남시 분당구 야탑동",
    "roadName": "장미로 193",
    "bonBeon": 211,
    "buBeon": 0,
    "floor": 4,
    "type": "apartment",
    "lat": 37.4136253292012,
    "lng": 127.132215267764,
    "constructionYear": 1993
  },
  {
    "id": "경기도-성남시-분당구-야탑동-188",
    "name": "SK-VIEW",
    "siGunGu": "경기도 성남시 분당구 야탑동",
    "roadName": "돌마로 906",
    "bonBeon": 188,
    "buBeon": 0,
    "floor": 7,
    "type": "apartment",
    "lat": 0.0,
    "lng": 0.0,
    "constructionYear": 2003
  },
  {
    "id": "경기도-성남시-분당구-운중동-899",
    "name": "산운마을4단지(리가)",
    "siGunGu": "경기도 성남시 분당구 운중동",
    "roadName": "판교원로 7",
    "bonBeon": 899,
    "buBeon": 0,
    "floor": 25,
    "type": "apartment",
    "lat": 37.3899460288483,
    "lng": 127.067634641202,
    "constructionYear": 2009
  },
  {
    "id": "경기도-성남시-분당구-정자동-111",
    "name": "한솔마을(2단지)(LG)",
    "siGunGu": "경기도 성남시 분당구 정자동",
    "roadName": "정자로 143",
    "bonBeon": 111,
    "buBeon": 0,
    "floor": 11,
    "type": "apartment",
    "lat": 37.363464095084,
    "lng": 127.113901695517,
    "constructionYear": 1995
  },
  {
    "id": "경기도-성남시-분당구-서현동-308",
    "name": "효자촌(화성)",
    "siGunGu": "경기도 성남시 분당구 서현동",
    "roadName": "불정로 362",
    "bonBeon": 308,
    "buBeon": 0,
    "floor": 14,
    "type": "apartment",
    "lat": 37.3726221063004,
    "lng": 127.137949954999,
    "constructionYear": 1994
  },
  {
    "id": "경기도-성남시-분당구-정자동-174-1",
    "name": "분당더샾스타파크",
    "siGunGu": "경기도 성남시 분당구 정자동",
    "roadName": "정자일로 121",
    "bonBeon": 174,
    "buBeon": 1,
    "floor": 30,
    "type": "apartment",
    "lat": 37.3613378183697,
    "lng": 127.105989350458,
    "constructionYear": 2007
  },
  {
    "id": "경기도-성남시-분당구-정자동-180",
    "name": "미켈란쉐르빌",
    "siGunGu": "경기도 성남시 분당구 정자동",
    "roadName": "정자일로 100",
    "bonBeon": 180,
    "buBeon": 0,
    "floor": 7,
    "type": "apartment",
    "lat": 37.3613378183697,
    "lng": 127.105989350458,
    "constructionYear": 2003
  },
  {
    "id": "경기도-성남시-분당구-구미동-63",
    "name": "까치마을(4단지)(롯데)",
    "siGunGu": "경기도 성남시 분당구 구미동",
    "roadName": "미금일로 58",
    "bonBeon": 63,
    "buBeon": 0,
    "floor": 7,
    "type": "apartment",
    "lat": 37.3458381569367,
    "lng": 127.110995834022,
    "constructionYear": 1995
  },
  {
    "id": "경기도-성남시-분당구-삼평동-705",
    "name": "봇들마을1단지(판교신미주)",
    "siGunGu": "경기도 성남시 분당구 삼평동",
    "roadName": "동판교로 275",
    "bonBeon": 705,
    "buBeon": 0,
    "floor": 6,
    "type": "apartment",
    "lat": 37.3987513673426,
    "lng": 127.116830460102,
    "constructionYear": 2009
  },
  {
    "id": "경기도-성남시-분당구-운중동-956",
    "name": "산운마을8단지(부영사랑으로)",
    "siGunGu": "경기도 성남시 분당구 운중동",
    "roadName": "산운로 98",
    "bonBeon": 956,
    "buBeon": 0,
    "floor": 6,
    "type": "apartment",
    "lat": 37.3931362309343,
    "lng": 127.073888910259,
    "constructionYear": 2008
  },
  {
    "id": "경기도-성남시-분당구-금곡동-133",
    "name": "청솔마을(주공9단지)",
    "siGunGu": "경기도 성남시 분당구 금곡동",
    "roadName": "미금로 216",
    "bonBeon": 133,
    "buBeon": 0,
    "floor": 12,
    "type": "apartment",
    "lat": 37.3470496488571,
    "lng": 127.116098314378,
    "constructionYear": 1995
  },
  {
    "id": "경기도-성남시-분당구-분당동-39",
    "name": "샛별마을(삼부)",
    "siGunGu": "경기도 성남시 분당구 분당동",
    "roadName": "수내로 201",
    "bonBeon": 39,
    "buBeon": 0,
    "floor": 2,
    "type": "apartment",
    "lat": 37.3763175773921,
    "lng": 127.12089834593,
    "constructionYear": 1992
  },
  {
    "id": "경기도-성남시-분당구-정자동-194",
    "name": "정든마을(7단지)(한진)",
    "siGunGu": "경기도 성남시 분당구 정자동",
    "roadName": "내정로 10",
    "bonBeon": 194,
    "buBeon": 0,
    "floor": 12,
    "type": "apartment",
    "lat": 37.3607103278578,
    "lng": 127.113296333528,
    "constructionYear": 1994
  },
  {
    "id": "경기도-성남시-분당구-백현동-608",
    "name": "THESHARP판교퍼스트파크",
    "siGunGu": "경기도 성남시 분당구 백현동",
    "roadName": "판교백현로 38",
    "bonBeon": 608,
    "buBeon": 0,
    "floor": 18,
    "type": "apartment",
    "lat": 0.0,
    "lng": 0.0,
    "constructionYear": 2021
  },
  {
    "id": "경기도-성남시-분당구-야탑동-205",
    "name": "매화마을(주공3)",
    "siGunGu": "경기도 성남시 분당구 야탑동",
    "roadName": "양현로 507",
    "bonBeon": 205,
    "buBeon": 0,
    "floor": 1,
    "type": "apartment",
    "lat": 37.4113586256456,
    "lng": 127.125952835102,
    "constructionYear": 1993
  },
  {
    "id": "경기도-성남시-분당구-정자동-121",
    "name": "상록마을(우성)1",
    "siGunGu": "경기도 성남시 분당구 정자동",
    "roadName": "내정로 55",
    "bonBeon": 121,
    "buBeon": 0,
    "floor": 3,
    "type": "apartment",
    "lat": 37.3607103278578,
    "lng": 127.113296333528,
    "constructionYear": 1994
  },
  {
    "id": "경기도-성남시-분당구-정자동-200",
    "name": "정든마을(1단지)(동아)",
    "siGunGu": "경기도 성남시 분당구 정자동",
    "roadName": "불정로 141",
    "bonBeon": 200,
    "buBeon": 0,
    "floor": 3,
    "type": "apartment",
    "lat": 37.3608046082389,
    "lng": 127.111746176398,
    "constructionYear": 1995
  },
  {
    "id": "경기도-성남시-분당구-판교동-629",
    "name": "판교원마을3단지(푸르지오)",
    "siGunGu": "경기도 성남시 분당구 판교동",
    "roadName": "판교로 20",
    "bonBeon": 629,
    "buBeon": 0,
    "floor": 4,
    "type": "apartment",
    "lat": 37.3983672689709,
    "lng": 127.093182165399,
    "constructionYear": 2009
  },
  {
    "id": "경기도-성남시-분당구-구미동-88",
    "name": "까치마을(2단지)(주공)",
    "siGunGu": "경기도 성남시 분당구 구미동",
    "roadName": "미금일로 22",
    "bonBeon": 88,
    "buBeon": 0,
    "floor": 3,
    "type": "apartment",
    "lat": 37.3458381569367,
    "lng": 127.110995834022,
    "constructionYear": 1995
  },
  {
    "id": "경기도-성남시-분당구-수내동-54",
    "name": "파크타운(삼익)",
    "siGunGu": "경기도 성남시 분당구 수내동",
    "roadName": "내정로166번길 42",
    "bonBeon": 54,
    "buBeon": 0,
    "floor": 13,
    "type": "apartment",
    "lat": 37.3717869919063,
    "lng": 127.12112567443,
    "constructionYear": 1993
  },
  {
    "id": "경기도-성남시-분당구-수내동-75",
    "name": "푸른마을(쌍용)",
    "siGunGu": "경기도 성남시 분당구 수내동",
    "roadName": "백현로 227",
    "bonBeon": 75,
    "buBeon": 0,
    "floor": 7,
    "type": "apartment",
    "lat": 37.3740112903996,
    "lng": 127.113934350668,
    "constructionYear": 1992
  },
  {
    "id": "경기도-성남시-분당구-판교동-513",
    "name": "판교원마을11단지(힐스테이트)",
    "siGunGu": "경기도 성남시 분당구 판교동",
    "roadName": "서판교로 147",
    "bonBeon": 513,
    "buBeon": 0,
    "floor": 12,
    "type": "apartment",
    "lat": 37.3960422612656,
    "lng": 127.098098318392,
    "constructionYear": 2009
  },
  {
    "id": "경기도-성남시-분당구-야탑동-525",
    "name": "탑마을(경남)1",
    "siGunGu": "경기도 성남시 분당구 야탑동",
    "roadName": "판교로 519",
    "bonBeon": 525,
    "buBeon": 0,
    "floor": 2,
    "type": "apartment",
    "lat": 37.4059725007389,
    "lng": 127.122271876441,
    "constructionYear": 1994
  },
  {
    "id": "경기도-성남시-분당구-서현동-92",
    "name": "시범현대",
    "siGunGu": "경기도 성남시 분당구 서현동",
    "roadName": "중앙공원로 20",
    "bonBeon": 92,
    "buBeon": 0,
    "floor": 6,
    "type": "apartment",
    "lat": 37.3810714084689,
    "lng": 127.129716061485,
    "constructionYear": 1992
  },
  {
    "id": "경기도-성남시-분당구-삼평동-717",
    "name": "봇들마을2단지(이지더원)",
    "siGunGu": "경기도 성남시 분당구 삼평동",
    "roadName": "판교로 393",
    "bonBeon": 717,
    "buBeon": 0,
    "floor": 13,
    "type": "apartment",
    "lat": 37.4037315158232,
    "lng": 127.099034149705,
    "constructionYear": 2009
  },
  {
    "id": "경기도-성남시-분당구-금곡동-143",
    "name": "청솔마을(성원)",
    "siGunGu": "경기도 성남시 분당구 금곡동",
    "roadName": "미금로 251",
    "bonBeon": 143,
    "buBeon": 0,
    "floor": 16,
    "type": "apartment",
    "lat": 37.3470496488571,
    "lng": 127.116098314378,
    "constructionYear": 1994
  },
  {
    "id": "경기도-성남시-분당구-이매동-122",
    "name": "이매촌(금강)",
    "siGunGu": "경기도 성남시 분당구 이매동",
    "roadName": "서현로 177",
    "bonBeon": 122,
    "buBeon": 0,
    "floor": 6,
    "type": "apartment",
    "lat": 0.0,
    "lng": 0.0,
    "constructionYear": 1993
  },
  {
    "id": "경기도-성남시-분당구-대장동-591",
    "name": "판교퍼스트힐푸르지오A2",
    "siGunGu": "경기도 성남시 분당구 대장동",
    "roadName": "판교대장로7길 57",
    "bonBeon": 591,
    "buBeon": 0,
    "floor": 9,
    "type": "apartment",
    "lat": 37.3738215454946,
    "lng": 127.068310431217,
    "constructionYear": 2021
  },
  {
    "id": "경기도-성남시-분당구-야탑동-190",
    "name": "동원로얄듀크",
    "siGunGu": "경기도 성남시 분당구 야탑동",
    "roadName": "돌마로 908",
    "bonBeon": 190,
    "buBeon": 0,
    "floor": 15,
    "type": "apartment",
    "lat": 0.0,
    "lng": 0.0,
    "constructionYear": 2003
  },
  {
    "id": "경기도-성남시-분당구-수내동-52",
    "name": "파크타운(서안)",
    "siGunGu": "경기도 성남시 분당구 수내동",
    "roadName": "내정로174번길 42",
    "bonBeon": 52,
    "buBeon": 0,
    "floor": 17,
    "type": "apartment",
    "lat": 37.3723459956922,
    "lng": 127.121907373306,
    "constructionYear": 1993
  },
  {
    "id": "경기도-성남시-분당구-대장동-595",
    "name": "힐스테이트판교엘포레A6BL",
    "siGunGu": "경기도 성남시 분당구 대장동",
    "roadName": "판교대장로7길 16",
    "bonBeon": 595,
    "buBeon": 0,
    "floor": 5,
    "type": "apartment",
    "lat": 37.3738215454946,
    "lng": 127.068310431217,
    "constructionYear": 2021
  },
  {
    "id": "경기도-성남시-분당구-대장동-641",
    "name": "판교더샵포레스트12단지",
    "siGunGu": "경기도 성남시 분당구 대장동",
    "roadName": "판교대장로5길 30",
    "bonBeon": 641,
    "buBeon": 0,
    "floor": 16,
    "type": "apartment",
    "lat": 37.3665745016943,
    "lng": 127.071068626111,
    "constructionYear": 2021
  },
  {
    "id": "경기도-성남시-분당구-백현동-558",
    "name": "백현마을8단지(대림)",
    "siGunGu": "경기도 성남시 분당구 백현동",
    "roadName": "판교역로 72",
    "bonBeon": 558,
    "buBeon": 0,
    "floor": 16,
    "type": "apartment",
    "lat": 37.3853391396126,
    "lng": 127.11243354368,
    "constructionYear": 2009
  },
  {
    "id": "경기도-성남시-분당구-분당동-35",
    "name": "샛별마을(동성)",
    "siGunGu": "경기도 성남시 분당구 분당동",
    "roadName": "분당로 212",
    "bonBeon": 35,
    "buBeon": 0,
    "floor": 10,
    "type": "apartment",
    "lat": 37.3741666285054,
    "lng": 127.131799827018,
    "constructionYear": 1992
  },
  {
    "id": "경기도-성남시-분당구-정자동-11",
    "name": "현대I-PARK3",
    "siGunGu": "경기도 성남시 분당구 정자동",
    "roadName": "정자일로213번길 5",
    "bonBeon": 11,
    "buBeon": 0,
    "floor": 16,
    "type": "apartment",
    "lat": 37.3701774804762,
    "lng": 127.10532351536,
    "constructionYear": 2003
  },
  {
    "id": "경기도-성남시-분당구-운중동-922",
    "name": "산운마을11단지(판교포레라움)",
    "siGunGu": "경기도 성남시 분당구 운중동",
    "roadName": "판교원로 68",
    "bonBeon": 922,
    "buBeon": 0,
    "floor": 2,
    "type": "apartment",
    "lat": 37.3899460288483,
    "lng": 127.067634641202,
    "constructionYear": 2009
  },
  {
    "id": "경기도-성남시-분당구-판교동-637",
    "name": "판교원마을7단지(모아미래도)",
    "siGunGu": "경기도 성남시 분당구 판교동",
    "roadName": "판교원로 237",
    "bonBeon": 637,
    "buBeon": 0,
    "floor": 5,
    "type": "apartment",
    "lat": 37.3878118616897,
    "lng": 127.084707149849,
    "constructionYear": 2009
  },
  {
    "id": "경기도-성남시-분당구-야탑동-511",
    "name": "탑마을(기산)1",
    "siGunGu": "경기도 성남시 분당구 야탑동",
    "roadName": "양현로 272",
    "bonBeon": 511,
    "buBeon": 0,
    "floor": 13,
    "type": "apartment",
    "lat": 37.4113586256456,
    "lng": 127.125952835102,
    "constructionYear": 1993
  },
  {
    "id": "경기도-성남시-분당구-야탑동-162",
    "name": "목련마을(한일)",
    "siGunGu": "경기도 성남시 분당구 야탑동",
    "roadName": "판교로 645",
    "bonBeon": 162,
    "buBeon": 0,
    "floor": 11,
    "type": "apartment",
    "lat": 37.4059725007389,
    "lng": 127.122271876441,
    "constructionYear": 1995
  },
  {
    "id": "경기도-성남시-분당구-백현동-531",
    "name": "판교알파리움1단지",
    "siGunGu": "경기도 성남시 분당구 백현동",
    "roadName": "대왕판교로606번길 10",
    "bonBeon": 531,
    "buBeon": 0,
    "floor": 6,
    "type": "apartment",
    "lat": 0.0,
    "lng": 0.0,
    "constructionYear": 2015
  },
  {
    "id": "경기도-성남시-분당구-금곡동-192",
    "name": "두산위브트레지움",
    "siGunGu": "경기도 성남시 분당구 금곡동",
    "roadName": "정자일로 55",
    "bonBeon": 192,
    "buBeon": 0,
    "floor": 16,
    "type": "apartment",
    "lat": 37.3506184533259,
    "lng": 127.107606647258,
    "constructionYear": 2003
  },
  {
    "id": "경기도-성남시-분당구-판교동-622",
    "name": "판교원마을1단지(파라곤)",
    "siGunGu": "경기도 성남시 분당구 판교동",
    "roadName": "판교로 50",
    "bonBeon": 622,
    "buBeon": 0,
    "floor": 4,
    "type": "apartment",
    "lat": 37.3983672689709,
    "lng": 127.093182165399,
    "constructionYear": 2009
  },
  {
    "id": "경기도-성남시-분당구-운중동-921",
    "name": "산운마을12단지판교센트럴포레와이시티",
    "siGunGu": "경기도 성남시 분당구 운중동",
    "roadName": "판교원로 46",
    "bonBeon": 921,
    "buBeon": 0,
    "floor": 2,
    "type": "apartment",
    "lat": 37.3899460288483,
    "lng": 127.067634641202,
    "constructionYear": 2009
  },
  {
    "id": "경기도-성남시-분당구-정자동-169-1",
    "name": "아데나팰리스",
    "siGunGu": "경기도 성남시 분당구 정자동",
    "roadName": "성남대로 275",
    "bonBeon": 169,
    "buBeon": 1,
    "floor": 10,
    "type": "apartment",
    "lat": 37.365628899414,
    "lng": 127.106455289975,
    "constructionYear": 2003
  },
  {
    "id": "경기도-성남시-분당구-구미동-77",
    "name": "까치마을(1단지)(대우롯데선경)",
    "siGunGu": "경기도 성남시 분당구 구미동",
    "roadName": "미금로 184",
    "bonBeon": 77,
    "buBeon": 0,
    "floor": 3,
    "type": "apartment",
    "lat": 37.3367571580584,
    "lng": 127.118938110394,
    "constructionYear": 1995
  },
  {
    "id": "경기도-성남시-분당구-삼평동-738",
    "name": "봇들마을7단지",
    "siGunGu": "경기도 성남시 분당구 삼평동",
    "roadName": "동판교로 155",
    "bonBeon": 738,
    "buBeon": 0,
    "floor": 8,
    "type": "apartment",
    "lat": 37.3987513673426,
    "lng": 127.116830460102,
    "constructionYear": 2009
  },
  {
    "id": "경기도-성남시-분당구-정자동-6",
    "name": "파크뷰",
    "siGunGu": "경기도 성남시 분당구 정자동",
    "roadName": "정자일로 248",
    "bonBeon": 6,
    "buBeon": 0,
    "floor": 13,
    "type": "apartment",
    "lat": 37.3613378183697,
    "lng": 127.105989350458,
    "constructionYear": 2004
  },
  {
    "id": "경기도-성남시-분당구-백현동-525",
    "name": "백현마을9단지(e편한세상)",
    "siGunGu": "경기도 성남시 분당구 백현동",
    "roadName": "판교역로 49",
    "bonBeon": 525,
    "buBeon": 0,
    "floor": 5,
    "type": "apartment",
    "lat": 37.3853391396126,
    "lng": 127.11243354368,
    "constructionYear": 2009
  },
  {
    "id": "경기도-성남시-분당구-구미동-240",
    "name": "무지개(9단지)(동아)",
    "siGunGu": "경기도 성남시 분당구 구미동",
    "roadName": "구미로144번길 8",
    "bonBeon": 240,
    "buBeon": 0,
    "floor": 6,
    "type": "apartment",
    "lat": 37.3399527868317,
    "lng": 127.127470594303,
    "constructionYear": 1995
  },
  {
    "id": "경기도-성남시-분당구-분당동-38",
    "name": "샛별마을(우방)",
    "siGunGu": "경기도 성남시 분당구 분당동",
    "roadName": "수내로 181",
    "bonBeon": 38,
    "buBeon": 0,
    "floor": 4,
    "type": "apartment",
    "lat": 37.3763175773921,
    "lng": 127.12089834593,
    "constructionYear": 1994
  },
  {
    "id": "경기도-성남시-분당구-이매동-140",
    "name": "아름마을(풍림)",
    "siGunGu": "경기도 성남시 분당구 이매동",
    "roadName": "탄천로 59",
    "bonBeon": 140,
    "buBeon": 0,
    "floor": 3,
    "type": "apartment",
    "lat": 37.4281926674793,
    "lng": 127.117407999519,
    "constructionYear": 1993
  },
  {
    "id": "경기도-성남시-분당구-이매동-133",
    "name": "아름마을(두산)",
    "siGunGu": "경기도 성남시 분당구 이매동",
    "roadName": "탄천로 95",
    "bonBeon": 133,
    "buBeon": 0,
    "floor": 2,
    "type": "apartment",
    "lat": 37.4281926674793,
    "lng": 127.117407999519,
    "constructionYear": 1993
  },
  {
    "id": "경기도-성남시-분당구-판교동-494",
    "name": "판교원마을12단지(힐스테이트)",
    "siGunGu": "경기도 성남시 분당구 판교동",
    "roadName": "서판교로 165",
    "bonBeon": 494,
    "buBeon": 0,
    "floor": 3,
    "type": "apartment",
    "lat": 37.3960422612656,
    "lng": 127.098098318392,
    "constructionYear": 2009
  },
  {
    "id": "경기도-성남시-분당구-이매동-123",
    "name": "이매촌(청구)",
    "siGunGu": "경기도 성남시 분당구 이매동",
    "roadName": "양현로94번길 29",
    "bonBeon": 123,
    "buBeon": 0,
    "floor": 4,
    "type": "apartment",
    "lat": 37.390934840402,
    "lng": 127.126027630076,
    "constructionYear": 1992
  },
  {
    "id": "경기도-성남시-분당구-백현동-556",
    "name": "백현마을7단지(주공)",
    "siGunGu": "경기도 성남시 분당구 백현동",
    "roadName": "판교역로 98",
    "bonBeon": 556,
    "buBeon": 0,
    "floor": 5,
    "type": "apartment",
    "lat": 37.3853391396126,
    "lng": 127.11243354368,
    "constructionYear": 2009
  },
  {
    "id": "경기도-성남시-분당구-이매동-142",
    "name": "아름마을(선경)",
    "siGunGu": "경기도 성남시 분당구 이매동",
    "roadName": "이매로 11",
    "bonBeon": 142,
    "buBeon": 0,
    "floor": 3,
    "type": "apartment",
    "lat": 37.3936793054465,
    "lng": 127.130147831891,
    "constructionYear": 1993
  },
  {
    "id": "경기도-성남시-분당구-운중동-916",
    "name": "산운마을14단지(경남아너스빌)",
    "siGunGu": "경기도 성남시 분당구 운중동",
    "roadName": "판교원로82번길 60",
    "bonBeon": 916,
    "buBeon": 0,
    "floor": 5,
    "type": "apartment",
    "lat": 37.3861228302611,
    "lng": 127.074351203092,
    "constructionYear": 2009
  },
  {
    "id": "경기도-성남시-분당구-정자동-110",
    "name": "한솔마을(1단지)(청구)",
    "siGunGu": "경기도 성남시 분당구 정자동",
    "roadName": "불정로 219",
    "bonBeon": 110,
    "buBeon": 0,
    "floor": 20,
    "type": "apartment",
    "lat": 37.3608046082389,
    "lng": 127.111746176398,
    "constructionYear": 1994
  },
  {
    "id": "경기도-성남시-분당구-정자동-9",
    "name": "현대I-PARK1",
    "siGunGu": "경기도 성남시 분당구 정자동",
    "roadName": "정자일로 239",
    "bonBeon": 9,
    "buBeon": 0,
    "floor": 23,
    "type": "apartment",
    "lat": 37.3613378183697,
    "lng": 127.105989350458,
    "constructionYear": 2003
  },
  {
    "id": "경기도-성남시-분당구-금곡동-181",
    "name": "청솔마을(한라)",
    "siGunGu": "경기도 성남시 분당구 금곡동",
    "roadName": "정자일로 72",
    "bonBeon": 181,
    "buBeon": 0,
    "floor": 9,
    "type": "apartment",
    "lat": 37.3506184533259,
    "lng": 127.107606647258,
    "constructionYear": 1995
  },
  {
    "id": "경기도-성남시-분당구-금곡동-177",
    "name": "청솔마을(영남)",
    "siGunGu": "경기도 성남시 분당구 금곡동",
    "roadName": "성남대로171번길 8",
    "bonBeon": 177,
    "buBeon": 0,
    "floor": 13,
    "type": "apartment",
    "lat": 37.3513704551257,
    "lng": 127.107602867339,
    "constructionYear": 1995
  },
  {
    "id": "경기도-성남시-분당구-금곡동-125",
    "name": "청솔마을(공무원)",
    "siGunGu": "경기도 성남시 분당구 금곡동",
    "roadName": "금곡로 263",
    "bonBeon": 125,
    "buBeon": 0,
    "floor": 2,
    "type": "apartment",
    "lat": 0.0,
    "lng": 0.0,
    "constructionYear": 1994
  },
  {
    "id": "경기도-성남시-분당구-수내동-32",
    "name": "양지마을(6단지)(금호,청구)",
    "siGunGu": "경기도 성남시 분당구 수내동",
    "roadName": "내정로165번길 38",
    "bonBeon": 32,
    "buBeon": 0,
    "floor": 3,
    "type": "apartment",
    "lat": 37.3754200840288,
    "lng": 127.117029438801,
    "constructionYear": 1992
  },
  {
    "id": "경기도-성남시-분당구-삼평동-742",
    "name": "봇들마을8단지(주공)",
    "siGunGu": "경기도 성남시 분당구 삼평동",
    "roadName": "동판교로 153",
    "bonBeon": 742,
    "buBeon": 0,
    "floor": 16,
    "type": "apartment",
    "lat": 37.3987513673426,
    "lng": 127.116830460102,
    "constructionYear": 2009
  },
  {
    "id": "경기도-성남시-분당구-삼평동-722",
    "name": "봇들마을3단지(주공)",
    "siGunGu": "경기도 성남시 분당구 삼평동",
    "roadName": "동판교로 225",
    "bonBeon": 722,
    "buBeon": 0,
    "floor": 1,
    "type": "apartment",
    "lat": 37.3987513673426,
    "lng": 127.116830460102,
    "constructionYear": 2009
  },
  {
    "id": "경기도-성남시-분당구-구미동-213",
    "name": "무지개(11단지)(금강센테리움)",
    "siGunGu": "경기도 성남시 분당구 구미동",
    "roadName": "미금로22번길 9",
    "bonBeon": 213,
    "buBeon": 0,
    "floor": 3,
    "type": "apartment",
    "lat": 37.3367571580584,
    "lng": 127.118938110394,
    "constructionYear": 1995
  },
  {
    "id": "경기도-성남시-분당구-금곡동-176",
    "name": "청솔마을(계룡)",
    "siGunGu": "경기도 성남시 분당구 금곡동",
    "roadName": "정자일로 30",
    "bonBeon": 176,
    "buBeon": 0,
    "floor": 5,
    "type": "apartment",
    "lat": 37.3506184533259,
    "lng": 127.107606647258,
    "constructionYear": 1996
  },
  {
    "id": "경기도-성남시-분당구-백현동-542",
    "name": "판교푸르지오그랑블",
    "siGunGu": "경기도 성남시 분당구 백현동",
    "roadName": "동판교로 123",
    "bonBeon": 542,
    "buBeon": 0,
    "floor": 6,
    "type": "apartment",
    "lat": 37.3865611039922,
    "lng": 127.114409643452,
    "constructionYear": 2011
  },
  {
    "id": "경기도-성남시-분당구-수내동-27",
    "name": "양지마을(3단지)(금호)",
    "siGunGu": "경기도 성남시 분당구 수내동",
    "roadName": "내정로 151",
    "bonBeon": 27,
    "buBeon": 0,
    "floor": 10,
    "type": "apartment",
    "lat": 37.3688410036702,
    "lng": 127.114797157872,
    "constructionYear": 1992
  },
  {
    "id": "경기도-성남시-분당구-서현동-299",
    "name": "효자촌(현대)",
    "siGunGu": "경기도 성남시 분당구 서현동",
    "roadName": "분당로201번길 17",
    "bonBeon": 299,
    "buBeon": 0,
    "floor": 8,
    "type": "apartment",
    "lat": 37.3743227992891,
    "lng": 127.133466400091,
    "constructionYear": 1992
  },
  {
    "id": "경기도-성남시-분당구-정자동-124",
    "name": "상록마을(라이프1차)",
    "siGunGu": "경기도 성남시 분당구 정자동",
    "roadName": "정자로 56",
    "bonBeon": 124,
    "buBeon": 0,
    "floor": 3,
    "type": "apartment",
    "lat": 37.363464095084,
    "lng": 127.113901695517,
    "constructionYear": 1994
  },
  {
    "id": "경기도-성남시-분당구-정자동-10-1",
    "name": "현대I-PARK2",
    "siGunGu": "경기도 성남시 분당구 정자동",
    "roadName": "정자일로213번길 19",
    "bonBeon": 10,
    "buBeon": 1,
    "floor": 6,
    "type": "apartment",
    "lat": 37.3701774804762,
    "lng": 127.10532351536,
    "constructionYear": 2003
  },
  {
    "id": "경기도-성남시-분당구-서현동-87",
    "name": "시범삼성",
    "siGunGu": "경기도 성남시 분당구 서현동",
    "roadName": "중앙공원로 53",
    "bonBeon": 87,
    "buBeon": 0,
    "floor": 9,
    "type": "apartment",
    "lat": 37.3810714084689,
    "lng": 127.129716061485,
    "constructionYear": 1991
  },
  {
    "id": "경기도-성남시-분당구-판교동-634",
    "name": "판교원마을5단지(푸르지오)",
    "siGunGu": "경기도 성남시 분당구 판교동",
    "roadName": "판교원로 207",
    "bonBeon": 634,
    "buBeon": 0,
    "floor": 9,
    "type": "apartment",
    "lat": 37.3878118616897,
    "lng": 127.084707149849,
    "constructionYear": 2009
  },
  {
    "id": "경기도-성남시-분당구-야탑동-530",
    "name": "탑마을(진덕)",
    "siGunGu": "경기도 성남시 분당구 야탑동",
    "roadName": "양현로 254",
    "bonBeon": 530,
    "buBeon": 0,
    "floor": 1,
    "type": "apartment",
    "lat": 37.4113586256456,
    "lng": 127.125952835102,
    "constructionYear": 1993
  },
  {
    "id": "경기도-성남시-분당구-백현동-554",
    "name": "백현마을5단지(주공)",
    "siGunGu": "경기도 성남시 분당구 백현동",
    "roadName": "판교역로 102",
    "bonBeon": 554,
    "buBeon": 0,
    "floor": 1,
    "type": "apartment",
    "lat": 37.3853391396126,
    "lng": 127.11243354368,
    "constructionYear": 2009
  },
  {
    "id": "경기도-성남시-분당구-서현동-310",
    "name": "효자촌(대창)",
    "siGunGu": "경기도 성남시 분당구 서현동",
    "roadName": "분당로263번길 13",
    "bonBeon": 310,
    "buBeon": 0,
    "floor": 9,
    "type": "apartment",
    "lat": 0.0,
    "lng": 0.0,
    "constructionYear": 1994
  },
  {
    "id": "경기도-성남시-분당구-운중동-989",
    "name": "산운마을5단지(한성필하우스)",
    "siGunGu": "경기도 성남시 분당구 운중동",
    "roadName": "산운로 97",
    "bonBeon": 989,
    "buBeon": 0,
    "floor": 13,
    "type": "apartment",
    "lat": 37.3931362309343,
    "lng": 127.073888910259,
    "constructionYear": 2009
  },
  {
    "id": "경기도-성남시-분당구-정자동-107",
    "name": "한솔마을(3단지)(한일)",
    "siGunGu": "경기도 성남시 분당구 정자동",
    "roadName": "백현로 234",
    "bonBeon": 107,
    "buBeon": 0,
    "floor": 8,
    "type": "apartment",
    "lat": 37.3724863709846,
    "lng": 127.113020958608,
    "constructionYear": 1993
  },
  {
    "id": "경기도-성남시-분당구-삼평동-741",
    "name": "판교푸르지오월드마크",
    "siGunGu": "경기도 성남시 분당구 삼평동",
    "roadName": "대왕판교로606번길 58",
    "bonBeon": 741,
    "buBeon": 0,
    "floor": 18,
    "type": "apartment",
    "lat": 37.3962294132136,
    "lng": 127.111888078065,
    "constructionYear": 2013
  },
  {
    "id": "경기도-성남시-분당구-백현동-530",
    "name": "판교알파리움2단지",
    "siGunGu": "경기도 성남시 분당구 백현동",
    "roadName": "판교역로 145",
    "bonBeon": 530,
    "buBeon": 0,
    "floor": 15,
    "type": "apartment",
    "lat": 37.3853391396126,
    "lng": 127.11243354368,
    "constructionYear": 2015
  },
  {
    "id": "경기도-성남시-분당구-판교동-623",
    "name": "판교원마을2단지(푸르지오)",
    "siGunGu": "경기도 성남시 분당구 판교동",
    "roadName": "판교로 30",
    "bonBeon": 623,
    "buBeon": 0,
    "floor": 9,
    "type": "apartment",
    "lat": 37.3983672689709,
    "lng": 127.093182165399,
    "constructionYear": 2009
  },
  {
    "id": "경기도-성남시-분당구-판교동-585",
    "name": "판교원마을9단지(한림풀에버)",
    "siGunGu": "경기도 성남시 분당구 판교동",
    "roadName": "서판교로 29",
    "bonBeon": 585,
    "buBeon": 0,
    "floor": 3,
    "type": "apartment",
    "lat": 37.3960422612656,
    "lng": 127.098098318392,
    "constructionYear": 2009
  },
  {
    "id": "경기도-성남시-분당구-이매동-111",
    "name": "이매촌(진흥)",
    "siGunGu": "경기도 성남시 분당구 이매동",
    "roadName": "양현로 138",
    "bonBeon": 111,
    "buBeon": 0,
    "floor": 4,
    "type": "apartment",
    "lat": 37.390934840402,
    "lng": 127.126027630076,
    "constructionYear": 1993
  },
  {
    "id": "경기도-성남시-분당구-백현동-545",
    "name": "백현마을2단지",
    "siGunGu": "경기도 성남시 분당구 백현동",
    "roadName": "동판교로 122",
    "bonBeon": 545,
    "buBeon": 0,
    "floor": 1,
    "type": "apartment",
    "lat": 37.3865611039922,
    "lng": 127.114409643452,
    "constructionYear": 2009
  },
  {
    "id": "경기도-성남시-분당구-금곡동-202",
    "name": "분당하우스토리",
    "siGunGu": "경기도 성남시 분당구 금곡동",
    "roadName": "정자일로 15",
    "bonBeon": 202,
    "buBeon": 0,
    "floor": 6,
    "type": "apartment",
    "lat": 37.3506184533259,
    "lng": 127.107606647258,
    "constructionYear": 2004
  },
  {
    "id": "경기도-성남시-분당구-구미동-225",
    "name": "무지개(6단지)(건영)",
    "siGunGu": "경기도 성남시 분당구 구미동",
    "roadName": "구미로 115",
    "bonBeon": 225,
    "buBeon": 0,
    "floor": 12,
    "type": "apartment",
    "lat": 37.3384517227768,
    "lng": 127.119834191288,
    "constructionYear": 1995
  },
  {
    "id": "경기도-성남시-분당구-이매동-121",
    "name": "이매촌(동부코오롱)",
    "siGunGu": "경기도 성남시 분당구 이매동",
    "roadName": "양현로 88",
    "bonBeon": 121,
    "buBeon": 0,
    "floor": 16,
    "type": "apartment",
    "lat": 37.390934840402,
    "lng": 127.126027630076,
    "constructionYear": 1993
  },
  {
    "id": "경기도-성남시-분당구-서현동-291",
    "name": "효자촌(동아)",
    "siGunGu": "경기도 성남시 분당구 서현동",
    "roadName": "돌마로486번길 7",
    "bonBeon": 291,
    "buBeon": 0,
    "floor": 6,
    "type": "apartment",
    "lat": 37.3761240894187,
    "lng": 127.135402383145,
    "constructionYear": 1992
  },
  {
    "id": "경기도-성남시-분당구-정자동-14-1",
    "name": "동양정자파라곤(2단지)",
    "siGunGu": "경기도 성남시 분당구 정자동",
    "roadName": "정자일로 220",
    "bonBeon": 14,
    "buBeon": 1,
    "floor": 2,
    "type": "apartment",
    "lat": 37.3613378183697,
    "lng": 127.105989350458,
    "constructionYear": 2004
  },
  {
    "id": "경기도-성남시-분당구-야탑동-535",
    "name": "탑마을(대우)",
    "siGunGu": "경기도 성남시 분당구 야탑동",
    "roadName": "판교로 421",
    "bonBeon": 535,
    "buBeon": 0,
    "floor": 11,
    "type": "apartment",
    "lat": 37.4059725007389,
    "lng": 127.122271876441,
    "constructionYear": 1992
  },
  {
    "id": "경기도-성남시-분당구-수내동-73",
    "name": "푸른마을(신성)",
    "siGunGu": "경기도 성남시 분당구 수내동",
    "roadName": "수내로 206",
    "bonBeon": 73,
    "buBeon": 0,
    "floor": 15,
    "type": "apartment",
    "lat": 37.3798425680456,
    "lng": 127.116220995491,
    "constructionYear": 1993
  },
  {
    "id": "경기도-성남시-분당구-수내동-36",
    "name": "양지마을(2단지)(청구)",
    "siGunGu": "경기도 성남시 분당구 수내동",
    "roadName": "내정로 185",
    "bonBeon": 36,
    "buBeon": 0,
    "floor": 23,
    "type": "apartment",
    "lat": 37.3688410036702,
    "lng": 127.114797157872,
    "constructionYear": 1992
  },
  {
    "id": "경기도-성남시-분당구-야탑동-391",
    "name": "현대I-PARK",
    "siGunGu": "경기도 성남시 분당구 야탑동",
    "roadName": "야탑로 125",
    "bonBeon": 391,
    "buBeon": 0,
    "floor": 4,
    "type": "apartment",
    "lat": 37.4093499911129,
    "lng": 127.139204070804,
    "constructionYear": 2003
  },
  {
    "id": "경기도-성남시-분당구-이매동-116",
    "name": "이매촌(성지)",
    "siGunGu": "경기도 성남시 분당구 이매동",
    "roadName": "이매로 54",
    "bonBeon": 116,
    "buBeon": 0,
    "floor": 7,
    "type": "apartment",
    "lat": 37.3936793054465,
    "lng": 127.130147831891,
    "constructionYear": 1992
  },
  {
    "id": "경기도-성남시-분당구-구미동-222",
    "name": "무지개(10단지)(건영)",
    "siGunGu": "경기도 성남시 분당구 구미동",
    "roadName": "구미로 100",
    "bonBeon": 222,
    "buBeon": 0,
    "floor": 1,
    "type": "apartment",
    "lat": 37.3384517227768,
    "lng": 127.119834191288,
    "constructionYear": 1996
  },
  {
    "id": "경기도-성남시-분당구-정자동-12-2",
    "name": "성원상떼뷰201동",
    "siGunGu": "경기도 성남시 분당구 정자동",
    "roadName": "정자일로213번길 18",
    "bonBeon": 12,
    "buBeon": 2,
    "floor": 14,
    "type": "apartment",
    "lat": 37.3701774804762,
    "lng": 127.10532351536,
    "constructionYear": 2004
  },
  {
    "id": "경기도-성남시-분당구-정자동-181",
    "name": "상록마을(보성)",
    "siGunGu": "경기도 성남시 분당구 정자동",
    "roadName": "정자일로 80",
    "bonBeon": 181,
    "buBeon": 0,
    "floor": 2,
    "type": "apartment",
    "lat": 37.3613378183697,
    "lng": 127.105989350458,
    "constructionYear": 1995
  },
  {
    "id": "경기도-성남시-분당구-운중동-949",
    "name": "산운마을10단지(대광로제비앙)",
    "siGunGu": "경기도 성남시 분당구 운중동",
    "roadName": "판교원로81번길 15",
    "bonBeon": 949,
    "buBeon": 0,
    "floor": 10,
    "type": "apartment",
    "lat": 37.3905280498174,
    "lng": 127.075726914005,
    "constructionYear": 2009
  },
  {
    "id": "경기도-성남시-분당구-삼평동-744",
    "name": "봇들마을9단지(금호어울림)",
    "siGunGu": "경기도 성남시 분당구 삼평동",
    "roadName": "동판교로 156",
    "bonBeon": 744,
    "buBeon": 0,
    "floor": 15,
    "type": "apartment",
    "lat": 37.3987513673426,
    "lng": 127.116830460102,
    "constructionYear": 2009
  },
  {
    "id": "경기도-성남시-분당구-금곡동-201",
    "name": "코오롱더프라우",
    "siGunGu": "경기도 성남시 분당구 금곡동",
    "roadName": "정자일로 27",
    "bonBeon": 201,
    "buBeon": 0,
    "floor": 9,
    "type": "apartment",
    "lat": 37.3506184533259,
    "lng": 127.107606647258,
    "constructionYear": 2004
  },
  {
    "id": "경기도-성남시-분당구-정자동-191",
    "name": "정든마을(6단지)(한진)",
    "siGunGu": "경기도 성남시 분당구 정자동",
    "roadName": "내정로 24",
    "bonBeon": 191,
    "buBeon": 0,
    "floor": 17,
    "type": "apartment",
    "lat": 37.3607103278578,
    "lng": 127.113296333528,
    "constructionYear": 1995
  },
  {
    "id": "경기도-성남시-분당구-삼평동-740",
    "name": "판교호반써밋플레이스",
    "siGunGu": "경기도 성남시 분당구 삼평동",
    "roadName": "동판교로177번길 25",
    "bonBeon": 740,
    "buBeon": 0,
    "floor": 17,
    "type": "apartment",
    "lat": 37.3983287903711,
    "lng": 127.114897458712,
    "constructionYear": 2012
  },
  {
    "id": "경기도-성남시-분당구-이매동-99",
    "name": "이매촌(삼환)",
    "siGunGu": "경기도 성남시 분당구 이매동",
    "roadName": "양현로 220",
    "bonBeon": 99,
    "buBeon": 0,
    "floor": 3,
    "type": "apartment",
    "lat": 37.390934840402,
    "lng": 127.126027630076,
    "constructionYear": 1994
  },
  {
    "id": "경기도-성남시-분당구-정자동-90",
    "name": "느티마을(4단지)(공무원)",
    "siGunGu": "경기도 성남시 분당구 정자동",
    "roadName": "느티로 70",
    "bonBeon": 90,
    "buBeon": 0,
    "floor": 3,
    "type": "apartment",
    "lat": 37.3685431465027,
    "lng": 127.10954869583,
    "constructionYear": 1994
  },
  {
    "id": "경기도-성남시-분당구-수내동-71",
    "name": "푸른마을(벽산)",
    "siGunGu": "경기도 성남시 분당구 수내동",
    "roadName": "수내로192번길 25",
    "bonBeon": 71,
    "buBeon": 0,
    "floor": 22,
    "type": "apartment",
    "lat": 37.369708611255,
    "lng": 127.126280784178,
    "constructionYear": 1993
  },
  {
    "id": "경기도-성남시-분당구-정자동-15-4",
    "name": "두산제니스",
    "siGunGu": "경기도 성남시 분당구 정자동",
    "roadName": "정자일로232번길 25",
    "bonBeon": 15,
    "buBeon": 4,
    "floor": 26,
    "type": "apartment",
    "lat": 37.3701977178677,
    "lng": 127.107069230349,
    "constructionYear": 2003
  },
  {
    "id": "경기도-성남시-분당구-대장동-634",
    "name": "힐스테이트판교엘포레A4BL",
    "siGunGu": "경기도 성남시 분당구 대장동",
    "roadName": "판교대장로5길 19",
    "bonBeon": 634,
    "buBeon": 0,
    "floor": 2,
    "type": "apartment",
    "lat": 37.3665745016943,
    "lng": 127.071068626111,
    "constructionYear": 2021
  },
  {
    "id": "경기도-성남시-분당구-정자동-197",
    "name": "정든마을(4단지)(우성)",
    "siGunGu": "경기도 성남시 분당구 정자동",
    "roadName": "정자로 144",
    "bonBeon": 197,
    "buBeon": 0,
    "floor": 19,
    "type": "apartment",
    "lat": 37.363464095084,
    "lng": 127.113901695517,
    "constructionYear": 1995
  },
  {
    "id": "경기도-성남시-분당구-야탑동-147",
    "name": "목련마을SK",
    "siGunGu": "경기도 성남시 분당구 야탑동",
    "roadName": "판교로743번길 7",
    "bonBeon": 147,
    "buBeon": 0,
    "floor": 5,
    "type": "apartment",
    "lat": 37.4061783218892,
    "lng": 127.155191012049,
    "constructionYear": 1998
  },
  {
    "id": "경기도-성남시-분당구-정자동-14-3",
    "name": "동양정자파라곤(1단지)",
    "siGunGu": "경기도 성남시 분당구 정자동",
    "roadName": "정자일로 210",
    "bonBeon": 14,
    "buBeon": 3,
    "floor": 13,
    "type": "apartment",
    "lat": 37.3613378183697,
    "lng": 127.105989350458,
    "constructionYear": 2004
  },
  {
    "id": "경기도-성남시-분당구-구미동-243",
    "name": "무지개(8단지)(제일)",
    "siGunGu": "경기도 성남시 분당구 구미동",
    "roadName": "구미로144번길 7",
    "bonBeon": 243,
    "buBeon": 0,
    "floor": 3,
    "type": "apartment",
    "lat": 37.3399527868317,
    "lng": 127.127470594303,
    "constructionYear": 1995
  },
  {
    "id": "경기도-성남시-분당구-야탑동-163",
    "name": "목련마을(한신)",
    "siGunGu": "경기도 성남시 분당구 야탑동",
    "roadName": "판교로 627",
    "bonBeon": 163,
    "buBeon": 0,
    "floor": 9,
    "type": "apartment",
    "lat": 37.4059725007389,
    "lng": 127.122271876441,
    "constructionYear": 1994
  },
  {
    "id": "경기도-성남시-분당구-이매동-117",
    "name": "이매촌(동신3)",
    "siGunGu": "경기도 성남시 분당구 이매동",
    "roadName": "양현로94번길 28",
    "bonBeon": 117,
    "buBeon": 0,
    "floor": 18,
    "type": "apartment",
    "lat": 37.390934840402,
    "lng": 127.126027630076,
    "constructionYear": 1992
  },
  {
    "id": "경기도-성남시-분당구-정자동-170-1",
    "name": "삼성아데나루체",
    "siGunGu": "경기도 성남시 분당구 정자동",
    "roadName": "정자일로 120",
    "bonBeon": 170,
    "buBeon": 1,
    "floor": 3,
    "type": "apartment",
    "lat": 37.3613378183697,
    "lng": 127.105989350458,
    "constructionYear": 2004
  },
  {
    "id": "경기도-성남시-분당구-이매동-143",
    "name": "아름마을(효성)",
    "siGunGu": "경기도 성남시 분당구 이매동",
    "roadName": "이매로 16",
    "bonBeon": 143,
    "buBeon": 0,
    "floor": 1,
    "type": "apartment",
    "lat": 37.3936793054465,
    "lng": 127.130147831891,
    "constructionYear": 1994
  },
  {
    "id": "경기도-성남시-분당구-야탑동-519",
    "name": "야탑진흥더블파크",
    "siGunGu": "경기도 성남시 분당구 야탑동",
    "roadName": "야탑로 162",
    "bonBeon": 519,
    "buBeon": 0,
    "floor": 1,
    "type": "apartment",
    "lat": 37.4093499911129,
    "lng": 127.139204070804,
    "constructionYear": 2005
  },
  {
    "id": "경기도-성남시-분당구-정자동-125",
    "name": "상록마을(라이프2차)",
    "siGunGu": "경기도 성남시 분당구 정자동",
    "roadName": "정자로76번길 10",
    "bonBeon": 125,
    "buBeon": 0,
    "floor": 11,
    "type": "apartment",
    "lat": 37.36257681451,
    "lng": 127.113286270857,
    "constructionYear": 1994
  },
  {
    "id": "경기도-성남시-분당구-수내동-1-1",
    "name": "분당지웰푸르지오",
    "siGunGu": "경기도 성남시 분당구 수내동",
    "roadName": "수내로 39",
    "bonBeon": 1,
    "buBeon": 1,
    "floor": 13,
    "type": "apartment",
    "lat": 37.3798425680456,
    "lng": 127.116220995491,
    "constructionYear": 2022
  },
  {
    "id": "경기도-성남시-분당구-금곡동-208",
    "name": "삼라마이다스빌",
    "siGunGu": "경기도 성남시 분당구 금곡동",
    "roadName": "정자일로 21",
    "bonBeon": 208,
    "buBeon": 0,
    "floor": 9,
    "type": "apartment",
    "lat": 37.3506184533259,
    "lng": 127.107606647258,
    "constructionYear": 2004
  },
  {
    "id": "경기도-성남시-분당구-야탑동-510",
    "name": "탑마을(경향)",
    "siGunGu": "경기도 성남시 분당구 야탑동",
    "roadName": "양현로 272",
    "bonBeon": 510,
    "buBeon": 0,
    "floor": 8,
    "type": "apartment",
    "lat": 37.4113586256456,
    "lng": 127.125952835102,
    "constructionYear": 1993
  },
  {
    "id": "경기도-성남시-분당구-정자동-12-3",
    "name": "성원상떼뷰101동",
    "siGunGu": "경기도 성남시 분당구 정자동",
    "roadName": "정자일로213번길 10",
    "bonBeon": 12,
    "buBeon": 3,
    "floor": 13,
    "type": "apartment",
    "lat": 37.3701774804762,
    "lng": 127.10532351536,
    "constructionYear": 2004
  },
  {
    "id": "경기도-성남시-분당구-금곡동-132",
    "name": "청솔마을(동아)",
    "siGunGu": "경기도 성남시 분당구 금곡동",
    "roadName": "금곡로 233",
    "bonBeon": 132,
    "buBeon": 0,
    "floor": 2,
    "type": "apartment",
    "lat": 0.0,
    "lng": 0.0,
    "constructionYear": 1995
  },
  {
    "id": "경기도-성남시-분당구-구미동-242",
    "name": "무지개(7단지)(라이프)",
    "siGunGu": "경기도 성남시 분당구 구미동",
    "roadName": "구미로 143",
    "bonBeon": 242,
    "buBeon": 0,
    "floor": 11,
    "type": "apartment",
    "lat": 37.3384517227768,
    "lng": 127.119834191288,
    "constructionYear": 1995
  },
  {
    "id": "경기도-성남시-분당구-서현동-307",
    "name": "효자촌(미래타운)",
    "siGunGu": "경기도 성남시 분당구 서현동",
    "roadName": "불정로386번길 10",
    "bonBeon": 307,
    "buBeon": 0,
    "floor": 10,
    "type": "apartment",
    "lat": 37.3731251042723,
    "lng": 127.138757989543,
    "constructionYear": 1994
  },
  {
    "id": "경기도-성남시-분당구-정자동-13-1",
    "name": "동양정자파라곤(3단지)",
    "siGunGu": "경기도 성남시 분당구 정자동",
    "roadName": "정자일로 230",
    "bonBeon": 13,
    "buBeon": 1,
    "floor": 4,
    "type": "apartment",
    "lat": 37.3613378183697,
    "lng": 127.105989350458,
    "constructionYear": 2004
  }
]