[
  {
    "id": "apt-진로-수정구단대동",
    "name": "진로",
    "address": "경기도 성남시 수정구 단대동",
    "roadAddress": "경기도 성남시 수정구 단대로23번길 32",
    "type": "apartment",
    "lat": 37.45093985030131,
    "lng": 127.1554428318484,
    "buildYear": 1998,
    "units": [
      "apt-진로-수정구단대동-35평형",
      "apt-진로-수정구단대동-18평형",
      "apt-진로-수정구단대동-26평형"
    ]
  },
  {
    "id": "apt-샤르망-수정구신흥동",
    "name": "샤르망",
    "address": "경기도 성남시 수정구 신흥동",
    "roadAddress": "경기도 성남시 수정구 시민로 165",
    "type": "apartment",
    "lat": 37.44270719917682,
    "lng": 127.1425668738635,
    "buildYear": 2006,
    "units": [
      "apt-샤르망-수정구신흥동-24평형",
      "apt-샤르망-수정구신흥동-20평형",
      "apt-샤르망-수정구신흥동-23평형",
      "apt-샤르망-수정구신흥동-22평형"
    ]
  },
  {
    "id": "apt-위례래미안이편한세상-수정구창곡동",
    "name": "위례 래미안이편한세상",
    "address": "경기도 성남시 수정구 창곡동",
    "roadAddress": "경기도 성남시 수정구 위례동로 61",
    "type": "apartment",
    "lat": 37.466745748590014,
    "lng": 127.14846181935548,
    "buildYear": 2016,
    "units": [
      "apt-위례래미안이편한세상-수정구창곡동-23평형",
      "apt-위례래미안이편한세상-수정구창곡동-26평형"
    ]
  },
  {
    "id": "apt-가천대역동부센트레빌1단지-수정구태평동",
    "name": "가천대역동부센트레빌1단지",
    "address": "경기도 성남시 수정구 태평동",
    "roadAddress": "경기도 성남시 수정구 태평로 28",
    "type": "apartment",
    "lat": 37.44808605224692,
    "lng": 127.1297774529163,
    "buildYear": 2006,
    "units": [
      "apt-가천대역동부센트레빌1단지-수정구태평동-21평형",
      "apt-가천대역동부센트레빌1단지-수정구태평동-26평형",
      "apt-가천대역동부센트레빌1단지-수정구태평동-25평형",
      "apt-가천대역동부센트레빌1단지-수정구태평동-28평형"
    ]
  },
  {
    "id": "apt-산성역포레스티아-수정구신흥동",
    "name": "산성역포레스티아",
    "address": "경기도 성남시 수정구 신흥동",
    "roadAddress": "경기도 성남시 수정구 수정로 319",
    "type": "apartment",
    "lat": 37.451190605816535,
    "lng": 127.14635282386745,
    "buildYear": 2020,
    "units": [
      "apt-산성역포레스티아-수정구신흥동-23평형",
      "apt-산성역포레스티아-수정구신흥동-26평형",
      "apt-산성역포레스티아-수정구신흥동-21평형",
      "apt-산성역포레스티아-수정구신흥동-18평형",
      "apt-산성역포레스티아-수정구신흥동-30평형"
    ]
  },
  {
    "id": "apt-단대푸르지오-수정구단대동",
    "name": "단대푸르지오",
    "address": "경기도 성남시 수정구 단대동",
    "roadAddress": "경기도 성남시 수정구 산성대로437번길 7",
    "type": "apartment",
    "lat": 37.45089770264853,
    "lng": 127.15808816603314,
    "buildYear": 2012,
    "units": [
      "apt-단대푸르지오-수정구단대동-26평형",
      "apt-단대푸르지오-수정구단대동-35평형",
      "apt-단대푸르지오-수정구단대동-38평형",
      "apt-단대푸르지오-수정구단대동-18평형"
    ]
  },
  {
    "id": "apt-두산-수정구신흥동",
    "name": "두산",
    "address": "경기도 성남시 수정구 신흥동",
    "roadAddress": "경기도 성남시 수정구 공원로 360",
    "type": "apartment",
    "lat": 37.44463524264302,
    "lng": 127.14995527469185,
    "buildYear": 1993,
    "units": [
      "apt-두산-수정구신흥동-26평형",
      "apt-두산-수정구신흥동-22평형"
    ]
  },
  {
    "id": "apt-위례센트럴자이-수정구창곡동",
    "name": "위례센트럴자이",
    "address": "경기도 성남시 수정구 창곡동",
    "roadAddress": "경기도 성남시 수정구 위례광장로 97",
    "type": "apartment",
    "lat": 37.47326991531597,
    "lng": 127.13958315190675,
    "buildYear": 2017,
    "units": [
      "apt-위례센트럴자이-수정구창곡동-26평형",
      "apt-위례센트럴자이-수정구창곡동-16평형",
      "apt-위례센트럴자이-수정구창곡동-18평형",
      "apt-위례센트럴자이-수정구창곡동-23평형"
    ]
  },
  {
    "id": "apt-낙원스카이뷰2-수정구태평동",
    "name": "낙원스카이뷰2",
    "address": "경기도 성남시 수정구 태평동",
    "roadAddress": "경기도 성남시 수정구 성남대로 1254",
    "type": "apartment",
    "lat": 37.44163440695954,
    "lng": 127.12785725139162,
    "buildYear": 2005,
    "units": [
      "apt-낙원스카이뷰2-수정구태평동-24평형",
      "apt-낙원스카이뷰2-수정구태평동-25평형"
    ]
  },
  {
    "id": "apt-삼부-수정구수진동",
    "name": "삼부",
    "address": "경기도 성남시 수정구 수진동",
    "roadAddress": "경기도 성남시 수정구 모란로 65",
    "type": "apartment",
    "lat": 37.43892174674076,
    "lng": 127.12351031748693,
    "buildYear": 1996,
    "units": [
      "apt-삼부-수정구수진동-18평형",
      "apt-삼부-수정구수진동-26평형",
      "apt-삼부-수정구수진동-41평형"
    ]
  },
  {
    "id": "apt-일성오퍼스원-수정구태평동",
    "name": "일성오퍼스원",
    "address": "경기도 성남시 수정구 태평동",
    "roadAddress": "경기도 성남시 수정구 성남대로 1330",
    "type": "apartment",
    "lat": 37.44834323816818,
    "lng": 127.12709094525856,
    "buildYear": 2013,
    "units": [
      "apt-일성오퍼스원-수정구태평동-5평형",
      "apt-일성오퍼스원-수정구태평동-10평형"
    ]
  },
  {
    "id": "apt-산성역자이푸르지오2단지-수정구신흥동",
    "name": "산성역자이푸르지오2단지",
    "address": "경기도 성남시 수정구 신흥동",
    "roadAddress": "경기도 성남시 수정구 수정로 288",
    "type": "apartment",
    "lat": 37.4498716100163,
    "lng": 127.14950241824262,
    "buildYear": 2024,
    "units": [
      "apt-산성역자이푸르지오2단지-수정구신흥동-18평형",
      "apt-산성역자이푸르지오2단지-수정구신흥동-23평형",
      "apt-산성역자이푸르지오2단지-수정구신흥동-26평형"
    ]
  },
  {
    "id": "apt-모란아이하우스-수정구수진동",
    "name": "모란아이하우스",
    "address": "경기도 성남시 수정구 수진동",
    "roadAddress": "경기도 성남시 수정구 모란로 12",
    "type": "apartment",
    "lat": 37.43460781776497,
    "lng": 127.12806758399803,
    "buildYear": 2012,
    "units": [
      "apt-모란아이하우스-수정구수진동-5평형"
    ]
  },
  {
    "id": "apt-와이엠프라젠-수정구수진동",
    "name": "와이엠프라젠",
    "address": "경기도 성남시 수정구 수진동",
    "roadAddress": "경기도 성남시 수정구 성남대로 1210",
    "type": "apartment",
    "lat": 37.4379253741059,
    "lng": 127.12865219190402,
    "buildYear": 2005,
    "units": [
      "apt-와이엠프라젠-수정구수진동-25평형"
    ]
  },
  {
    "id": "apt-미래타운-수정구신흥동",
    "name": "미래타운",
    "address": "경기도 성남시 수정구 신흥동",
    "roadAddress": "경기도 성남시 수정구 탄리로 62",
    "type": "apartment",
    "lat": 37.441725152128654,
    "lng": 127.13656521072991,
    "buildYear": 2016,
    "units": [
      "apt-미래타운-수정구신흥동-17평형",
      "apt-미래타운-수정구신흥동-19평형"
    ]
  },
  {
    "id": "apt-산호-수정구수진동",
    "name": "산호",
    "address": "경기도 성남시 수정구 수진동",
    "roadAddress": "경기도 성남시 수정구 모란로 69",
    "type": "apartment",
    "lat": 37.43921522553822,
    "lng": 127.12556274097173,
    "buildYear": 1998,
    "units": [
      "apt-산호-수정구수진동-25평형",
      "apt-산호-수정구수진동-18평형"
    ]
  },
  {
    "id": "apt-선경논골-수정구단대동",
    "name": "선경논골",
    "address": "경기도 성남시 수정구 단대동",
    "roadAddress": "경기도 성남시 수정구 논골로 87",
    "type": "apartment",
    "lat": 37.461512059680956,
    "lng": 127.1567914888177,
    "buildYear": 1991,
    "units": [
      "apt-선경논골-수정구단대동-13평형",
      "apt-선경논골-수정구단대동-10평형"
    ]
  },
  {
    "id": "apt-위례역푸르지오6단지-수정구창곡동",
    "name": "위례역푸르지오6단지",
    "address": "경기도 성남시 수정구 창곡동",
    "roadAddress": "경기도 성남시 수정구 위례광장로 12",
    "type": "apartment",
    "lat": 37.46676733584397,
    "lng": 127.1419803391588,
    "buildYear": 2017,
    "units": [
      "apt-위례역푸르지오6단지-수정구창곡동-25평형"
    ]
  },
  {
    "id": "apt-위례더힐55-수정구창곡동",
    "name": "위례더힐55",
    "address": "경기도 성남시 수정구 창곡동",
    "roadAddress": "경기도 성남시 수정구 위례순환로 220",
    "type": "apartment",
    "lat": 37.46952516674007,
    "lng": 127.15086635861945,
    "buildYear": 2015,
    "units": [
      "apt-위례더힐55-수정구창곡동-26평형",
      "apt-위례더힐55-수정구창곡동-45평형"
    ]
  },
  {
    "id": "apt-태평동낙원스카이뷰-수정구태평동",
    "name": "태평동낙원스카이뷰",
    "address": "경기도 성남시 수정구 태평동",
    "roadAddress": "경기도 성남시 수정구 수정로 131",
    "type": "apartment",
    "lat": 37.44206827861008,
    "lng": 127.13470888068389,
    "buildYear": 2004,
    "units": [
      "apt-태평동낙원스카이뷰-수정구태평동-24평형",
      "apt-태평동낙원스카이뷰-수정구태평동-21평형"
    ]
  },
  {
    "id": "apt-위례역푸르지오4단지-수정구창곡동",
    "name": "위례역푸르지오4단지",
    "address": "경기도 성남시 수정구 창곡동",
    "roadAddress": "경기도 성남시 수정구 위례광장로 36",
    "type": "apartment",
    "lat": 37.46839351336794,
    "lng": 127.14164854616043,
    "buildYear": 2017,
    "units": [
      "apt-위례역푸르지오4단지-수정구창곡동-25평형"
    ]
  },
  {
    "id": "apt-산성역자이푸르지오1단지-수정구신흥동",
    "name": "산성역자이푸르지오1단지",
    "address": "경기도 성남시 수정구 신흥동",
    "roadAddress": "경기도 성남시 수정구 수정로 260",
    "type": "apartment",
    "lat": 37.44589584883164,
    "lng": 127.1473374886537,
    "buildYear": 2023,
    "units": [
      "apt-산성역자이푸르지오1단지-수정구신흥동-18평형",
      "apt-산성역자이푸르지오1단지-수정구신흥동-23평형",
      "apt-산성역자이푸르지오1단지-수정구신흥동-26평형",
      "apt-산성역자이푸르지오1단지-수정구신흥동-16평형"
    ]
  },
  {
    "id": "apt-판교밸리호반써밋-수정구고등동",
    "name": "판교밸리호반써밋",
    "address": "경기도 성남시 수정구 고등동",
    "roadAddress": "경기도 성남시 수정구 고등로 34",
    "type": "apartment",
    "lat": 37.42855907987479,
    "lng": 127.09726617475005,
    "buildYear": 2019,
    "units": [
      "apt-판교밸리호반써밋-수정구고등동-26평형"
    ]
  },
  {
    "id": "apt-판교밸리자이1단지-수정구고등동",
    "name": "판교밸리자이1단지",
    "address": "경기도 성남시 수정구 고등동",
    "roadAddress": "경기도 성남시 수정구 대왕판교로 995",
    "type": "apartment",
    "lat": 37.429341241642824,
    "lng": 127.10119495010801,
    "buildYear": 2023,
    "units": [
      "apt-판교밸리자이1단지-수정구고등동-26평형",
      "apt-판교밸리자이1단지-수정구고등동-18평형"
    ]
  },
  {
    "id": "apt-현대-수정구수진동",
    "name": "현대",
    "address": "경기도 성남시 수정구 수진동",
    "roadAddress": "경기도 성남시 수정구 제일로147번길 4",
    "type": "apartment",
    "lat": 37.43993314605372,
    "lng": 127.13189386425438,
    "buildYear": 1994,
    "units": [
      "apt-현대-수정구수진동-18평형",
      "apt-현대-수정구수진동-26평형",
      "apt-현대-수정구수진동-37평형",
      "apt-현대-수정구수진동-34평형"
    ]
  },
  {
    "id": "apt-가천대역쌍용스윗닷홈-수정구태평동",
    "name": "가천대역쌍용스윗닷홈",
    "address": "경기도 성남시 수정구 태평동",
    "roadAddress": "경기도 성남시 수정구 태평로 9",
    "type": "apartment",
    "lat": 37.44831259328304,
    "lng": 127.12818605419952,
    "buildYear": 2005,
    "units": [
      "apt-가천대역쌍용스윗닷홈-수정구태평동-26평형",
      "apt-가천대역쌍용스윗닷홈-수정구태평동-18평형"
    ]
  },
  {
    "id": "apt-낙원-수정구단대동",
    "name": "낙원",
    "address": "경기도 성남시 수정구 단대동",
    "roadAddress": "경기도 성남시 수정구 수정로466번길 24",
    "type": "apartment",
    "lat": 37.46230511014586,
    "lng": 127.15841458530713,
    "buildYear": 2001,
    "units": [
      "apt-낙원-수정구단대동-34평형",
      "apt-낙원-수정구단대동-25평형"
    ]
  },
  {
    "id": "apt-힐스테이트위례-수정구창곡동",
    "name": "힐스테이트위례",
    "address": "경기도 성남시 수정구 창곡동",
    "roadAddress": "경기도 성남시 수정구 위례동로 15",
    "type": "apartment",
    "lat": 37.464642231518965,
    "lng": 127.14384271088993,
    "buildYear": 2015,
    "units": [
      "apt-힐스테이트위례-수정구창곡동-34평형",
      "apt-힐스테이트위례-수정구창곡동-30평형"
    ]
  },
  {
    "id": "apt-가천대역두산위브-수정구태평동",
    "name": "가천대역두산위브",
    "address": "경기도 성남시 수정구 태평동",
    "roadAddress": "경기도 성남시 수정구 태평로 65",
    "type": "apartment",
    "lat": 37.44963741108653,
    "lng": 127.13314028214626,
    "buildYear": 2018,
    "units": [
      "apt-가천대역두산위브-수정구태평동-21평형",
      "apt-가천대역두산위브-수정구태평동-18평형",
      "apt-가천대역두산위브-수정구태평동-26평형"
    ]
  },
  {
    "id": "apt-진흥더블파크-수정구단대동",
    "name": "진흥더블파크",
    "address": "경기도 성남시 수정구 단대동",
    "roadAddress": "경기도 성남시 수정구 단대로23번길 10",
    "type": "apartment",
    "lat": 37.452692839768055,
    "lng": 127.15667731049484,
    "buildYear": 2005,
    "units": [
      "apt-진흥더블파크-수정구단대동-26평형"
    ]
  },
  {
    "id": "apt-삼정그린뷰-수정구수진동",
    "name": "삼정그린뷰",
    "address": "경기도 성남시 수정구 수진동",
    "roadAddress": "경기도 성남시 수정구 수정로 2",
    "type": "apartment",
    "lat": 37.43966561700372,
    "lng": 127.1212710894811,
    "buildYear": 2003,
    "units": [
      "apt-삼정그린뷰-수정구수진동-26평형"
    ]
  },
  {
    "id": "apt-선경태평-수정구태평동",
    "name": "선경태평",
    "address": "경기도 성남시 수정구 태평동",
    "roadAddress": "경기도 성남시 수정구 시민로 214",
    "type": "apartment",
    "lat": 37.446889235973885,
    "lng": 127.14200817251904,
    "buildYear": 1991,
    "units": [
      "apt-선경태평-수정구태평동-11평형",
      "apt-선경태평-수정구태평동-14평형"
    ]
  },
  {
    "id": "apt-한신-수정구신흥동",
    "name": "한신",
    "address": "경기도 성남시 수정구 신흥동",
    "roadAddress": "경기도 성남시 수정구 산성대로 341",
    "type": "apartment",
    "lat": 37.44454658862476,
    "lng": 127.15309879066524,
    "buildYear": 1990,
    "units": [
      "apt-한신-수정구신흥동-18평형",
      "apt-한신-수정구신흥동-26평형"
    ]
  },
  {
    "id": "apt-위례호반써밋에비뉴-수정구창곡동",
    "name": "위례호반써밋에비뉴",
    "address": "경기도 성남시 수정구 창곡동",
    "roadAddress": "경기도 성남시 수정구 위례중앙로 216",
    "type": "apartment",
    "lat": 37.472447746177785,
    "lng": 127.15379202468215,
    "buildYear": 2016,
    "units": [
      "apt-위례호반써밋에비뉴-수정구창곡동-30평형"
    ]
  },
  {
    "id": "apt-희망-수정구단대동",
    "name": "희망",
    "address": "경기도 성남시 수정구 단대동",
    "roadAddress": "경기도 성남시 수정구 희망로506번길 13",
    "type": "apartment",
    "lat": 37.45004626247309,
    "lng": 127.15491023283684,
    "buildYear": 1984,
    "units": [
      "apt-희망-수정구단대동-14평형",
      "apt-희망-수정구단대동-18평형",
      "apt-희망-수정구단대동-23평형"
    ]
  },
  {
    "id": "apt-삼부르네상스파크1-수정구신흥동",
    "name": "삼부르네상스파크1",
    "address": "경기도 성남시 수정구 신흥동",
    "roadAddress": "경기도 성남시 수정구 수정로 312",
    "type": "apartment",
    "lat": 37.451390634389284,
    "lng": 127.14899436044675,
    "buildYear": 2006,
    "units": [
      "apt-삼부르네상스파크1-수정구신흥동-26평형",
      "apt-삼부르네상스파크1-수정구신흥동-20평형",
      "apt-삼부르네상스파크1-수정구신흥동-30평형",
      "apt-삼부르네상스파크1-수정구신흥동-22평형"
    ]
  },
  {
    "id": "apt-위례역푸르지오5단지-수정구창곡동",
    "name": "위례역푸르지오5단지",
    "address": "경기도 성남시 수정구 창곡동",
    "roadAddress": "경기도 성남시 수정구 위례광장로 34",
    "type": "apartment",
    "lat": 37.46694211721568,
    "lng": 127.14156295935821,
    "buildYear": 2017,
    "units": [
      "apt-위례역푸르지오5단지-수정구창곡동-25평형"
    ]
  },
  {
    "id": "apt-미도-수정구단대동",
    "name": "미도",
    "address": "경기도 성남시 수정구 단대동",
    "roadAddress": "경기도 성남시 수정구 분당수서로 472",
    "type": "apartment",
    "lat": 37.44656,
    "lng": 127.15543,
    "buildYear": 1982,
    "units": [
      "apt-미도-수정구단대동-24평형"
    ]
  },
  {
    "id": "apt-엠디-수정구수진동",
    "name": "엠디",
    "address": "경기도 성남시 수정구 수진동",
    "roadAddress": "경기도 성남시 수정구 산성대로 183",
    "type": "apartment",
    "lat": 37.4369402482735,
    "lng": 127.1387871990064,
    "buildYear": 2001,
    "units": [
      "apt-엠디-수정구수진동-26평형"
    ]
  },
  {
    "id": "apt-양우내안애-수정구양지동",
    "name": "양우내안애",
    "address": "경기도 성남시 수정구 양지동",
    "roadAddress": "경기도 성남시 수정구 논골로 24",
    "type": "apartment",
    "lat": 37.45660726330207,
    "lng": 127.16029233301114,
    "buildYear": 2010,
    "units": [
      "apt-양우내안애-수정구양지동-22평형",
      "apt-양우내안애-수정구양지동-26평형",
      "apt-양우내안애-수정구양지동-18평형"
    ]
  },
  {
    "id": "apt-판교밸리자이3단지-수정구고등동",
    "name": "판교밸리자이3단지",
    "address": "경기도 성남시 수정구 고등동",
    "roadAddress": "경기도 성남시 수정구 대왕판교로 961",
    "type": "apartment",
    "lat": 37.42624067318522,
    "lng": 127.1019375438485,
    "buildYear": 2023,
    "units": [
      "apt-판교밸리자이3단지-수정구고등동-18평형"
    ]
  },
  {
    "id": "apt-신세계쉐덴-수정구태평동",
    "name": "신세계쉐덴",
    "address": "경기도 성남시 수정구 태평동",
    "roadAddress": "경기도 성남시 수정구 수정로 201",
    "type": "apartment",
    "lat": 37.44430087328176,
    "lng": 127.14138039839241,
    "buildYear": 2010,
    "units": [
      "apt-신세계쉐덴-수정구태평동-26평형",
      "apt-신세계쉐덴-수정구태평동-56평형",
      "apt-신세계쉐덴-수정구태평동-36평형",
      "apt-신세계쉐덴-수정구태평동-31평형"
    ]
  },
  {
    "id": "apt-위례센트럴푸르지오-수정구창곡동",
    "name": "위례센트럴푸르지오",
    "address": "경기도 성남시 수정구 창곡동",
    "roadAddress": "경기도 성남시 수정구 위례순환로 211",
    "type": "apartment",
    "lat": 37.47146050159656,
    "lng": 127.15359691065007,
    "buildYear": 2016,
    "units": [
      "apt-위례센트럴푸르지오-수정구창곡동-31평형",
      "apt-위례센트럴푸르지오-수정구창곡동-29평형",
      "apt-위례센트럴푸르지오-수정구창곡동-28평형"
    ]
  },
  {
    "id": "apt-청구-수정구신흥동",
    "name": "청구",
    "address": "경기도 성남시 수정구 신흥동",
    "roadAddress": "경기도 성남시 수정구 공원로 340",
    "type": "apartment",
    "lat": 37.444353797654585,
    "lng": 127.15042380886442,
    "buildYear": 1994,
    "units": [
      "apt-청구-수정구신흥동-26평형",
      "apt-청구-수정구신흥동-19평형"
    ]
  },
  {
    "id": "apt-태평-수정구태평동",
    "name": "태평",
    "address": "경기도 성남시 수정구 태평동",
    "roadAddress": "경기도 성남시 수정구 시민로 192",
    "type": "apartment",
    "lat": 37.44553303583831,
    "lng": 127.1422152343024,
    "buildYear": 1983,
    "units": [
      "apt-태평-수정구태평동-23평형",
      "apt-태평-수정구태평동-19평형"
    ]
  },
  {
    "id": "apt-삼능스페이스향-수정구태평동",
    "name": "삼능스페이스향",
    "address": "경기도 성남시 수정구 태평동",
    "roadAddress": "경기도 성남시 수정구 성남대로 1238",
    "type": "apartment",
    "lat": 37.44031973264134,
    "lng": 127.12813167483905,
    "buildYear": 2005,
    "units": [
      "apt-삼능스페이스향-수정구태평동-25평형",
      "apt-삼능스페이스향-수정구태평동-24평형"
    ]
  },
  {
    "id": "apt-우리빌-수정구수진동",
    "name": "우리빌",
    "address": "경기도 성남시 수정구 수진동",
    "roadAddress": "경기도 성남시 수정구 수정로 80",
    "type": "apartment",
    "lat": 37.43994305348797,
    "lng": 127.12955848084087,
    "buildYear": 2005,
    "units": [
      "apt-우리빌-수정구수진동-26평형",
      "apt-우리빌-수정구수진동-25평형"
    ]
  },
  {
    "id": "apt-코오롱하늘채-수정구단대동",
    "name": "코오롱하늘채",
    "address": "경기도 성남시 수정구 단대동",
    "roadAddress": "경기도 성남시 수정구 단대로15번길 2",
    "type": "apartment",
    "lat": 37.451865420158384,
    "lng": 127.15702073619481,
    "buildYear": 2013,
    "units": [
      "apt-코오롱하늘채-수정구단대동-26평형",
      "apt-코오롱하늘채-수정구단대동-33평형",
      "apt-코오롱하늘채-수정구단대동-18평형"
    ]
  },
  {
    "id": "apt-위례보미리즌빌-수정구창곡동",
    "name": "위례보미리즌빌",
    "address": "경기도 성남시 수정구 창곡동",
    "roadAddress": "경기도 성남시 수정구 위례광장로 82",
    "type": "apartment",
    "lat": 37.471841948875074,
    "lng": 127.14098994954195,
    "buildYear": 2017,
    "units": [
      "apt-위례보미리즌빌-수정구창곡동-29평형"
    ]
  },
  {
    "id": "apt-래미안위례-수정구창곡동",
    "name": "래미안위례",
    "address": "경기도 성남시 수정구 창곡동",
    "roadAddress": "경기도 성남시 수정구 위례순환로 150",
    "type": "apartment",
    "lat": 37.47057384861547,
    "lng": 127.14374304529848,
    "buildYear": 2015,
    "units": [
      "apt-래미안위례-수정구창곡동-36평형",
      "apt-래미안위례-수정구창곡동-37평형",
      "apt-래미안위례-수정구창곡동-31평형",
      "apt-래미안위례-수정구창곡동-30평형",
      "apt-래미안위례-수정구창곡동-38평형",
      "apt-래미안위례-수정구창곡동-40평형"
    ]
  },
  {
    "id": "apt-위례자이-수정구창곡동",
    "name": "위례자이",
    "address": "경기도 성남시 수정구 창곡동",
    "roadAddress": "경기도 성남시 수정구 위례순환로 100",
    "type": "apartment",
    "lat": 37.47070216222174,
    "lng": 127.1386198192231,
    "buildYear": 2016,
    "units": [
      "apt-위례자이-수정구창곡동-31평형",
      "apt-위례자이-수정구창곡동-34평형",
      "apt-위례자이-수정구창곡동-37평형"
    ]
  },
  {
    "id": "apt-밀란체2-수정구수진동",
    "name": "밀란체2",
    "address": "경기도 성남시 수정구 수진동",
    "roadAddress": "경기도 성남시 수정구 산성대로93번길 25",
    "type": "apartment",
    "lat": 37.43629527773867,
    "lng": 127.1288604282895,
    "buildYear": 2006,
    "units": [
      "apt-밀란체2-수정구수진동-26평형",
      "apt-밀란체2-수정구수진동-25평형"
    ]
  },
  {
    "id": "apt-셀레스빌-수정구신흥동",
    "name": "셀레스빌",
    "address": "경기도 성남시 수정구 신흥동",
    "roadAddress": "경기도 성남시 수정구 수정로 316",
    "type": "apartment",
    "lat": 37.451704950834724,
    "lng": 127.14921157553168,
    "buildYear": 2007,
    "units": [
      "apt-셀레스빌-수정구신흥동-23평형",
      "apt-셀레스빌-수정구신흥동-26평형",
      "apt-셀레스빌-수정구신흥동-25평형"
    ]
  },
  {
    "id": "apt-판교밸리자이2단지-수정구고등동",
    "name": "판교밸리자이2단지",
    "address": "경기도 성남시 수정구 고등동",
    "roadAddress": "경기도 성남시 수정구 대왕판교로 981",
    "type": "apartment",
    "lat": 37.42755042559433,
    "lng": 127.10163807821502,
    "buildYear": 2023,
    "units": [
      "apt-판교밸리자이2단지-수정구고등동-18평형"
    ]
  },
  {
    "id": "apt-밀란체3-수정구수진동",
    "name": "밀란체3",
    "address": "경기도 성남시 수정구 수진동",
    "roadAddress": "경기도 성남시 수정구 성남대로1194번길 3",
    "type": "apartment",
    "lat": 37.43674852914174,
    "lng": 127.12879287418332,
    "buildYear": 2006,
    "units": [
      "apt-밀란체3-수정구수진동-22평형",
      "apt-밀란체3-수정구수진동-25평형",
      "apt-밀란체3-수정구수진동-24평형"
    ]
  },
  {
    "id": "apt-통보3-수정구양지동",
    "name": "통보3",
    "address": "경기도 성남시 수정구 양지동",
    "roadAddress": "경기도 성남시 수정구 논골로 34",
    "type": "apartment",
    "lat": 37.45719990695959,
    "lng": 127.15967058965668,
    "buildYear": 1983,
    "units": [
      "apt-통보3-수정구양지동-16평형",
      "apt-통보3-수정구양지동-18평형",
      "apt-통보3-수정구양지동-23평형",
      "apt-통보3-수정구양지동-21평형"
    ]
  },
  {
    "id": "apt-가천대역동부센트레빌2단지-수정구태평동",
    "name": "가천대역동부센트레빌2단지",
    "address": "경기도 성남시 수정구 태평동",
    "roadAddress": "경기도 성남시 수정구 제일로 244",
    "type": "apartment",
    "lat": 37.447904899776844,
    "lng": 127.12889050329014,
    "buildYear": 2007,
    "units": [
      "apt-가천대역동부센트레빌2단지-수정구태평동-26평형",
      "apt-가천대역동부센트레빌2단지-수정구태평동-21평형",
      "apt-가천대역동부센트레빌2단지-수정구태평동-29평형"
    ]
  },
  {
    "id": "apt-낙원스카이뷰-수정구수진동",
    "name": "낙원스카이뷰",
    "address": "경기도 성남시 수정구 수진동",
    "roadAddress": "경기도 성남시 수정구 수정로 94",
    "type": "apartment",
    "lat": 37.440317942195506,
    "lng": 127.13081159736461,
    "buildYear": 2004,
    "units": [
      "apt-낙원스카이뷰-수정구수진동-26평형"
    ]
  },
  {
    "id": "apt-신동아파라디움-수정구신흥동",
    "name": "신동아파라디움",
    "address": "경기도 성남시 수정구 신흥동",
    "roadAddress": "경기도 성남시 수정구 공원로 322",
    "type": "apartment",
    "lat": 37.44332827364724,
    "lng": 127.15167017341362,
    "buildYear": 2006,
    "units": [
      "apt-신동아파라디움-수정구신흥동-26평형",
      "apt-신동아파라디움-수정구신흥동-41평형",
      "apt-신동아파라디움-수정구신흥동-40평형",
      "apt-신동아파라디움-수정구신흥동-37평형"
    ]
  },
  {
    "id": "apt-밀란체1-수정구수진동",
    "name": "밀란체1",
    "address": "경기도 성남시 수정구 수진동",
    "roadAddress": "경기도 성남시 수정구 성남대로 1215",
    "type": "apartment",
    "lat": 37.4381150214918,
    "lng": 127.12747214226343,
    "buildYear": 2005,
    "units": [
      "apt-밀란체1-수정구수진동-26평형",
      "apt-밀란체1-수정구수진동-35평형"
    ]
  },
  {
    "id": "apt-모란수정빌-수정구수진동",
    "name": "모란수정빌",
    "address": "경기도 성남시 수정구 수진동",
    "roadAddress": "경기도 성남시 수정구 산성대로69번길 9",
    "type": "apartment",
    "lat": 37.43395765465425,
    "lng": 127.12648515951665,
    "buildYear": 2001,
    "units": [
      "apt-모란수정빌-수정구수진동-26평형"
    ]
  },
  {
    "id": "apt-미래타운2차-수정구신흥동",
    "name": "미래타운2차",
    "address": "경기도 성남시 수정구 신흥동",
    "roadAddress": "경기도 성남시 수정구 수정로 265",
    "type": "apartment",
    "lat": 37.4487275234983,
    "lng": 127.14505959348077,
    "buildYear": 2017,
    "units": [
      "apt-미래타운2차-수정구신흥동-18평형",
      "apt-미래타운2차-수정구신흥동-19평형"
    ]
  },
  {
    "id": "apt-세일띠아모아파트-수정구신흥동",
    "name": "세일띠아모아파트",
    "address": "경기도 성남시 수정구 신흥동",
    "roadAddress": "경기도 성남시 수정구 수정로 282",
    "type": "apartment",
    "lat": 37.449544040885286,
    "lng": 127.14650529758093,
    "buildYear": 2017,
    "units": [
      "apt-세일띠아모아파트-수정구신흥동-22평형",
      "apt-세일띠아모아파트-수정구신흥동-17평형"
    ]
  },
  {
    "id": "apt-우성에비뉴-수정구양지동",
    "name": "우성에비뉴",
    "address": "경기도 성남시 수정구 양지동",
    "roadAddress": "경기도 성남시 수정구 논골로36번길 15",
    "type": "apartment",
    "lat": 37.45804265345167,
    "lng": 127.15979424178536,
    "buildYear": 2011,
    "units": [
      "apt-우성에비뉴-수정구양지동-26평형",
      "apt-우성에비뉴-수정구양지동-20평형",
      "apt-우성에비뉴-수정구양지동-25평형"
    ]
  },
  {
    "id": "apt-위례아트리버푸르지오2단지-수정구창곡동",
    "name": "위례아트리버푸르지오2단지",
    "address": "경기도 성남시 수정구 창곡동",
    "roadAddress": "경기도 성남시 수정구 위례순환로 130",
    "type": "apartment",
    "lat": 37.47022825685714,
    "lng": 127.14225803241695,
    "buildYear": 2016,
    "units": [
      "apt-위례아트리버푸르지오2단지-수정구창곡동-32평형",
      "apt-위례아트리버푸르지오2단지-수정구창곡동-30평형"
    ]
  },
  {
    "id": "apt-동인트루빌2-수정구태평동",
    "name": "동인트루빌2",
    "address": "경기도 성남시 수정구 태평동",
    "roadAddress": "경기도 성남시 수정구 수정로 81",
    "type": "apartment",
    "lat": 37.440459847000845,
    "lng": 127.12936699984117,
    "buildYear": 2005,
    "units": [
      "apt-동인트루빌2-수정구태평동-25평형",
      "apt-동인트루빌2-수정구태평동-26평형"
    ]
  },
  {
    "id": "apt-세븐빌-수정구수진동",
    "name": "세븐빌",
    "address": "경기도 성남시 수정구 수진동",
    "roadAddress": "경기도 성남시 수정구 수정로56번길 18",
    "type": "apartment",
    "lat": 37.43791487079953,
    "lng": 127.1268906696572,
    "buildYear": 2005,
    "units": [
      "apt-세븐빌-수정구수진동-19평형",
      "apt-세븐빌-수정구수진동-16평형"
    ]
  },
  {
    "id": "apt-삼익금광1차-중원구금광동",
    "name": "삼익금광1차",
    "address": "경기도 성남시 중원구 금광동",
    "roadAddress": "경기도 성남시 중원구 자혜로16번길 9",
    "type": "apartment",
    "lat": 37.44902640942519,
    "lng": 127.16129727767135,
    "buildYear": 1991,
    "units": [
      "apt-삼익금광1차-중원구금광동-13평형",
      "apt-삼익금광1차-중원구금광동-10평형"
    ]
  },
  {
    "id": "apt-산들마을2단지-중원구여수동",
    "name": "산들마을2단지",
    "address": "경기도 성남시 중원구 여수동",
    "roadAddress": "경기도 성남시 중원구 여수울로 51",
    "type": "apartment",
    "lat": 37.418011480382944,
    "lng": 127.1377478482845,
    "buildYear": 2015,
    "units": [
      "apt-산들마을2단지-중원구여수동-16평형",
      "apt-산들마을2단지-중원구여수동-18평형"
    ]
  },
  {
    "id": "apt-금호어울림-중원구성남동",
    "name": "금호어울림",
    "address": "경기도 성남시 중원구 성남동",
    "roadAddress": "경기도 성남시 중원구 둔촌대로171번길 6",
    "type": "apartment",
    "lat": 37.4309631252074,
    "lng": 127.13771697387277,
    "buildYear": 2006,
    "units": [
      "apt-금호어울림-중원구성남동-26평형",
      "apt-금호어울림-중원구성남동-18평형",
      "apt-금호어울림-중원구성남동-36평형",
      "apt-금호어울림-중원구성남동-23평형"
    ]
  },
  {
    "id": "apt-금광-중원구금광동",
    "name": "금광",
    "address": "경기도 성남시 중원구 금광동",
    "roadAddress": "경기도 성남시 중원구 산성대로426번길 5",
    "type": "apartment",
    "lat": 37.45024358005907,
    "lng": 127.16006400025857,
    "buildYear": 1990,
    "units": [
      "apt-금광-중원구금광동-21평형",
      "apt-금광-중원구금광동-19평형"
    ]
  },
  {
    "id": "apt-연꽃마을4단지-중원구여수동",
    "name": "연꽃마을(4단지)",
    "address": "경기도 성남시 중원구 여수동",
    "roadAddress": "경기도 성남시 중원구 여수울로 50",
    "type": "apartment",
    "lat": 37.418386651478286,
    "lng": 127.13488832946894,
    "buildYear": 2012,
    "units": [
      "apt-연꽃마을4단지-중원구여수동-37평형",
      "apt-연꽃마을4단지-중원구여수동-31평형",
      "apt-연꽃마을4단지-중원구여수동-41평형"
    ]
  },
  {
    "id": "apt-일성-중원구상대원동",
    "name": "일성",
    "address": "경기도 성남시 중원구 상대원동",
    "roadAddress": "경기도 성남시 중원구 순환로198번길 12",
    "type": "apartment",
    "lat": 37.440895691025496,
    "lng": 127.18050048898732,
    "buildYear": 1993,
    "units": [
      "apt-일성-중원구상대원동-18평형",
      "apt-일성-중원구상대원동-20평형"
    ]
  },
  {
    "id": "apt-선경2차-중원구상대원동",
    "name": "선경2차",
    "address": "경기도 성남시 중원구 상대원동",
    "roadAddress": "경기도 성남시 중원구 금상로 134",
    "type": "apartment",
    "lat": 37.43938102153961,
    "lng": 127.16794132585764,
    "buildYear": 1994,
    "units": [
      "apt-선경2차-중원구상대원동-15평형"
    ]
  },
  {
    "id": "apt-아튼빌-중원구하대원동",
    "name": "아튼빌",
    "address": "경기도 성남시 중원구 하대원동",
    "roadAddress": "경기도 성남시 중원구 둔촌대로 300",
    "type": "apartment",
    "lat": 37.429645098508445,
    "lng": 127.15204910722271,
    "buildYear": 2003,
    "units": [
      "apt-아튼빌-중원구하대원동-26평형",
      "apt-아튼빌-중원구하대원동-18평형",
      "apt-아튼빌-중원구하대원동-33평형",
      "apt-아튼빌-중원구하대원동-36평형",
      "apt-아튼빌-중원구하대원동-21평형"
    ]
  },
  {
    "id": "apt-신흥역하늘채랜더스원1단지-중원구중앙동",
    "name": "신흥역하늘채랜더스원1단지",
    "address": "경기도 성남시 중원구 중앙동",
    "roadAddress": "경기도 성남시 중원구 광명로 176",
    "type": "apartment",
    "lat": 37.43737145452518,
    "lng": 127.1475670848294,
    "buildYear": 2022,
    "units": [
      "apt-신흥역하늘채랜더스원1단지-중원구중앙동-18평형",
      "apt-신흥역하늘채랜더스원1단지-중원구중앙동-23평형",
      "apt-신흥역하늘채랜더스원1단지-중원구중앙동-26평형"
    ]
  },
  {
    "id": "apt-수산리치빌103동-중원구상대원동",
    "name": "수산리치빌103동",
    "address": "경기도 성남시 중원구 상대원동",
    "roadAddress": "경기도 성남시 중원구 희망로 332",
    "type": "apartment",
    "lat": 37.435281531714985,
    "lng": 127.15836215307132,
    "buildYear": 2005,
    "units": [
      "apt-수산리치빌103동-중원구상대원동-25평형",
      "apt-수산리치빌103동-중원구상대원동-24평형"
    ]
  },
  {
    "id": "apt-한양수자인성남마크뷰-중원구금광동",
    "name": "한양수자인성남마크뷰",
    "address": "경기도 성남시 중원구 금광동",
    "roadAddress": "경기도 성남시 중원구 광명로 411",
    "type": "apartment",
    "lat": 37.447598881705645,
    "lng": 127.17053101099229,
    "buildYear": 2021,
    "units": [
      "apt-한양수자인성남마크뷰-중원구금광동-18평형",
      "apt-한양수자인성남마크뷰-중원구금광동-15평형",
      "apt-한양수자인성남마크뷰-중원구금광동-23평형",
      "apt-한양수자인성남마크뷰-중원구금광동-12평형"
    ]
  },
  {
    "id": "apt-현대-중원구은행동",
    "name": "현대",
    "address": "경기도 성남시 중원구 은행동",
    "roadAddress": "경기도 성남시 중원구 자혜로17번길 16",
    "type": "apartment",
    "lat": 37.45060417997261,
    "lng": 127.16190062728889,
    "buildYear": 1995,
    "units": [
      "apt-현대-중원구은행동-26평형"
    ]
  },
  {
    "id": "apt-럭키참조은-중원구하대원동",
    "name": "럭키참조은",
    "address": "경기도 성남시 중원구 하대원동",
    "roadAddress": "경기도 성남시 중원구 마지로 29",
    "type": "apartment",
    "lat": 37.428322892666046,
    "lng": 127.13286168218032,
    "buildYear": 2008,
    "units": [
      "apt-럭키참조은-중원구하대원동-23평형",
      "apt-럭키참조은-중원구하대원동-24평형"
    ]
  },
  {
    "id": "apt-e편한세상금빛그랑메종1단지-중원구금광동",
    "name": "e편한세상금빛그랑메종1단지",
    "address": "경기도 성남시 중원구 금광동",
    "roadAddress": "경기도 성남시 중원구 금광로 11",
    "type": "apartment",
    "lat": 37.44314371695033,
    "lng": 127.16015768736486,
    "buildYear": 2023,
    "units": [
      "apt-e편한세상금빛그랑메종1단지-중원구금광동-18평형",
      "apt-e편한세상금빛그랑메종1단지-중원구금광동-26평형",
      "apt-e편한세상금빛그랑메종1단지-중원구금광동-23평형"
    ]
  },
  {
    "id": "apt-센트럴타운3단지-중원구여수동",
    "name": "센트럴타운(3단지)",
    "address": "경기도 성남시 중원구 여수동",
    "roadAddress": "경기도 성남시 중원구 성남대로 1000",
    "type": "apartment",
    "lat": 37.4184722587363,
    "lng": 127.130359145762,
    "buildYear": 2012,
    "units": [
      "apt-센트럴타운3단지-중원구여수동-26평형",
      "apt-센트럴타운3단지-중원구여수동-23평형"
    ]
  },
  {
    "id": "apt-e편한세상금빛그랑메종4단지-중원구금광동",
    "name": "e편한세상금빛그랑메종4단지",
    "address": "경기도 성남시 중원구 금광동",
    "roadAddress": "경기도 성남시 중원구 금광로 71",
    "type": "apartment",
    "lat": 37.44499554849564,
    "lng": 127.16648099208464,
    "buildYear": 2023,
    "units": [
      "apt-e편한세상금빛그랑메종4단지-중원구금광동-26평형",
      "apt-e편한세상금빛그랑메종4단지-중원구금광동-18평형",
      "apt-e편한세상금빛그랑메종4단지-중원구금광동-23평형"
    ]
  },
  {
    "id": "apt-롯데캐슬-중원구중앙동",
    "name": "롯데캐슬",
    "address": "경기도 성남시 중원구 중앙동",
    "roadAddress": "경기도 성남시 중원구 희망로 415",
    "type": "apartment",
    "lat": 37.44313263552988,
    "lng": 127.15683305528492,
    "buildYear": 2012,
    "units": [
      "apt-롯데캐슬-중원구중앙동-18평형",
      "apt-롯데캐슬-중원구중앙동-26평형",
      "apt-롯데캐슬-중원구중앙동-35평형"
    ]
  },
  {
    "id": "apt-은빛마을두산위브-중원구은행동",
    "name": "은빛마을(두산위브)",
    "address": "경기도 성남시 중원구 은행동",
    "roadAddress": "경기도 성남시 중원구 은행로 13",
    "type": "apartment",
    "lat": 37.45499268798309,
    "lng": 127.16369485647317,
    "buildYear": 2003,
    "units": [
      "apt-은빛마을두산위브-중원구은행동-17평형"
    ]
  },
  {
    "id": "apt-동부주택브리앙뜨-중원구성남동",
    "name": "동부주택브리앙뜨",
    "address": "경기도 성남시 중원구 성남동",
    "roadAddress": "경기도 성남시 중원구 광명로 55",
    "type": "apartment",
    "lat": 37.43426104721759,
    "lng": 127.13521985961492,
    "buildYear": 2004,
    "units": [
      "apt-동부주택브리앙뜨-중원구성남동-23평형",
      "apt-동부주택브리앙뜨-중원구성남동-24평형"
    ]
  },
  {
    "id": "apt-산성-중원구상대원동",
    "name": "산성",
    "address": "경기도 성남시 중원구 상대원동",
    "roadAddress": "경기도 성남시 중원구 사기막골로150번길 10",
    "type": "apartment",
    "lat": 37.442473091135774,
    "lng": 127.17825888653826,
    "buildYear": 1997,
    "units": [
      "apt-산성-중원구상대원동-18평형",
      "apt-산성-중원구상대원동-26평형",
      "apt-산성-중원구상대원동-22평형"
    ]
  },
  {
    "id": "apt-중앙동힐스테이트1차-중원구중앙동",
    "name": "중앙동힐스테이트1차",
    "address": "경기도 성남시 중원구 중앙동",
    "roadAddress": "경기도 성남시 중원구 시민로66번길 21",
    "type": "apartment",
    "lat": 37.43643833423792,
    "lng": 127.15050061743412,
    "buildYear": 2012,
    "units": [
      "apt-중앙동힐스테이트1차-중원구중앙동-18평형",
      "apt-중앙동힐스테이트1차-중원구중앙동-26평형",
      "apt-중앙동힐스테이트1차-중원구중앙동-37평형",
      "apt-중앙동힐스테이트1차-중원구중앙동-36평형"
    ]
  },
  {
    "id": "apt-궁전-중원구상대원동",
    "name": "궁전",
    "address": "경기도 성남시 중원구 상대원동",
    "roadAddress": "경기도 성남시 중원구 순환로 188",
    "type": "apartment",
    "lat": 37.44060421790276,
    "lng": 127.17938535662039,
    "buildYear": 1987,
    "units": [
      "apt-궁전-중원구상대원동-13평형",
      "apt-궁전-중원구상대원동-12평형",
      "apt-궁전-중원구상대원동-17평형",
      "apt-궁전-중원구상대원동-15평형",
      "apt-궁전-중원구상대원동-16평형"
    ]
  },
  {
    "id": "apt-보미리전빌3-중원구성남동",
    "name": "보미리전빌3",
    "address": "경기도 성남시 중원구 성남동",
    "roadAddress": "경기도 성남시 중원구 광명로 114",
    "type": "apartment",
    "lat": 37.436015969127226,
    "lng": 127.14136111272632,
    "buildYear": 2003,
    "units": [
      "apt-보미리전빌3-중원구성남동-10평형",
      "apt-보미리전빌3-중원구성남동-13평형"
    ]
  },
  {
    "id": "apt-분당파크뷰-중원구도촌동",
    "name": "東분당파크뷰",
    "address": "경기도 성남시 중원구 도촌동",
    "roadAddress": "경기도 성남시 중원구 도촌남로 101",
    "type": "apartment",
    "lat": 37.413802643753044,
    "lng": 127.15961349777956,
    "buildYear": 2013,
    "units": [
      "apt-분당파크뷰-중원구도촌동-36평형",
      "apt-분당파크뷰-중원구도촌동-40평형",
      "apt-분당파크뷰-중원구도촌동-31평형",
      "apt-분당파크뷰-중원구도촌동-30평형"
    ]
  },
  {
    "id": "apt-은행주공-중원구은행동",
    "name": "은행주공",
    "address": "경기도 성남시 중원구 은행동",
    "roadAddress": "경기도 성남시 중원구 산성대로552번길 15",
    "type": "apartment",
    "lat": 37.45999049783573,
    "lng": 127.16908903946538,
    "buildYear": 1987,
    "units": [
      "apt-은행주공-중원구은행동-9평형",
      "apt-은행주공-중원구은행동-12평형",
      "apt-은행주공-중원구은행동-19평형",
      "apt-은행주공-중원구은행동-20평형",
      "apt-은행주공-중원구은행동-17평형",
      "apt-은행주공-중원구은행동-25평형",
      "apt-은행주공-중원구은행동-23평형"
    ]
  },
  {
    "id": "apt-래미안금광-중원구금광동",
    "name": "래미안금광",
    "address": "경기도 성남시 중원구 금광동",
    "roadAddress": "경기도 성남시 중원구 황송로 77",
    "type": "apartment",
    "lat": 37.449546681275706,
    "lng": 127.17192968708785,
    "buildYear": 2006,
    "units": [
      "apt-래미안금광-중원구금광동-25평형",
      "apt-래미안금광-중원구금광동-18평형",
      "apt-래미안금광-중원구금광동-38평형",
      "apt-래미안금광-중원구금광동-30평형",
      "apt-래미안금광-중원구금광동-35평형"
    ]
  },
  {
    "id": "apt-황송마을-중원구금광동",
    "name": "황송마을",
    "address": "경기도 성남시 중원구 금광동",
    "roadAddress": "경기도 성남시 중원구 황송로 6",
    "type": "apartment",
    "lat": 37.44320464199657,
    "lng": 127.16977829131991,
    "buildYear": 1993,
    "units": [
      "apt-황송마을-중원구금광동-15평형"
    ]
  },
  {
    "id": "apt-현대-중원구금광동",
    "name": "현대",
    "address": "경기도 성남시 중원구 금광동",
    "roadAddress": "경기도 성남시 중원구 광명로395번길 7",
    "type": "apartment",
    "lat": 37.4480644554244,
    "lng": 127.17046638705797,
    "buildYear": 1994,
    "units": [
      "apt-현대-중원구금광동-18평형",
      "apt-현대-중원구금광동-26평형",
      "apt-현대-중원구금광동-21평형"
    ]
  },
  {
    "id": "apt-동분당포레스트-중원구도촌동",
    "name": "동분당포레스트",
    "address": "경기도 성남시 중원구 도촌동",
    "roadAddress": "경기도 성남시 중원구 도촌남로 67",
    "type": "apartment",
    "lat": 37.415431138399796,
    "lng": 127.15480422474499,
    "buildYear": 2007,
    "units": [
      "apt-동분당포레스트-중원구도촌동-23평형",
      "apt-동분당포레스트-중원구도촌동-26평형"
    ]
  },
  {
    "id": "apt-e편한세상금빛그랑메종3단지-중원구금광동",
    "name": "e편한세상금빛그랑메종3단지",
    "address": "경기도 성남시 중원구 금광동",
    "roadAddress": "경기도 성남시 중원구 금광로 40",
    "type": "apartment",
    "lat": 37.44357992059432,
    "lng": 127.16429951429929,
    "buildYear": 2023,
    "units": [
      "apt-e편한세상금빛그랑메종3단지-중원구금광동-18평형",
      "apt-e편한세상금빛그랑메종3단지-중원구금광동-16평형",
      "apt-e편한세상금빛그랑메종3단지-중원구금광동-23평형"
    ]
  },
  {
    "id": "apt-성원초원-중원구하대원동",
    "name": "성원초원",
    "address": "경기도 성남시 중원구 하대원동",
    "roadAddress": "경기도 성남시 중원구 원터로18번길 19",
    "type": "apartment",
    "lat": 37.42975424250828,
    "lng": 127.14573848000691,
    "buildYear": 1995,
    "units": [
      "apt-성원초원-중원구하대원동-18평형",
      "apt-성원초원-중원구하대원동-26평형"
    ]
  },
  {
    "id": "apt-월드뷰-중원구상대원동",
    "name": "월드뷰",
    "address": "경기도 성남시 중원구 상대원동",
    "roadAddress": "경기도 성남시 중원구 희망로 323",
    "type": "apartment",
    "lat": 37.43473429877231,
    "lng": 127.15810533122506,
    "buildYear": 2004,
    "units": [
      "apt-월드뷰-중원구상대원동-24평형"
    ]
  },
  {
    "id": "apt-상대원삼익-중원구상대원동",
    "name": "상대원삼익",
    "address": "경기도 성남시 중원구 상대원동",
    "roadAddress": "경기도 성남시 중원구 사기막골로31번길 34",
    "type": "apartment",
    "lat": 37.43716298102635,
    "lng": 127.16741563097453,
    "buildYear": 1991,
    "units": [
      "apt-상대원삼익-중원구상대원동-10평형"
    ]
  },
  {
    "id": "apt-성지-중원구상대원동",
    "name": "성지",
    "address": "경기도 성남시 중원구 상대원동",
    "roadAddress": "경기도 성남시 중원구 순환로 178",
    "type": "apartment",
    "lat": 37.43963835972292,
    "lng": 127.179326499847,
    "buildYear": 1989,
    "units": [
      "apt-성지-중원구상대원동-12평형",
      "apt-성지-중원구상대원동-11평형",
      "apt-성지-중원구상대원동-25평형",
      "apt-성지-중원구상대원동-13평형"
    ]
  },
  {
    "id": "apt-은행주공2-중원구은행동",
    "name": "은행주공2",
    "address": "경기도 성남시 중원구 은행동",
    "roadAddress": "경기도 성남시 중원구 산성대로552번길 15",
    "type": "apartment",
    "lat": 37.45999049783573,
    "lng": 127.16908903946538,
    "buildYear": 1987,
    "units": [
      "apt-은행주공2-중원구은행동-12평형"
    ]
  },
  {
    "id": "apt-동분당더퍼스트-중원구도촌동",
    "name": "동분당더퍼스트",
    "address": "경기도 성남시 중원구 도촌동",
    "roadAddress": "경기도 성남시 중원구 도촌북로 78",
    "type": "apartment",
    "lat": 37.417058070489446,
    "lng": 127.15604385249812,
    "buildYear": 2010,
    "units": [
      "apt-동분당더퍼스트-중원구도촌동-23평형",
      "apt-동분당더퍼스트-중원구도촌동-26평형"
    ]
  },
  {
    "id": "apt-LH동분당센트럴파크-중원구도촌동",
    "name": "LH동분당센트럴파크",
    "address": "경기도 성남시 중원구 도촌동",
    "roadAddress": "경기도 성남시 중원구 도촌남로 22",
    "type": "apartment",
    "lat": 37.41324219507591,
    "lng": 127.14916214711482,
    "buildYear": 2010,
    "units": [
      "apt-LH동분당센트럴파크-중원구도촌동-26평형",
      "apt-LH동분당센트럴파크-중원구도촌동-23평형"
    ]
  },
  {
    "id": "apt-신흥역하늘채랜더스원3단지-중원구중앙동",
    "name": "신흥역하늘채랜더스원3단지",
    "address": "경기도 성남시 중원구 중앙동",
    "roadAddress": "경기도 성남시 중원구 광명로 206",
    "type": "apartment",
    "lat": 37.44035444767324,
    "lng": 127.15060775759434,
    "buildYear": 2022,
    "units": [
      "apt-신흥역하늘채랜더스원3단지-중원구중앙동-18평형",
      "apt-신흥역하늘채랜더스원3단지-중원구중앙동-26평형"
    ]
  },
  {
    "id": "apt-성남자이-중원구하대원동",
    "name": "성남자이",
    "address": "경기도 성남시 중원구 하대원동",
    "roadAddress": "경기도 성남시 중원구 둔촌대로 363",
    "type": "apartment",
    "lat": 37.432845994968545,
    "lng": 127.15693923260392,
    "buildYear": 2007,
    "units": [
      "apt-성남자이-중원구하대원동-26평형",
      "apt-성남자이-중원구하대원동-18평형",
      "apt-성남자이-중원구하대원동-35평형",
      "apt-성남자이-중원구하대원동-38평형"
    ]
  },
  {
    "id": "apt-중앙동힐스테이트2차-중원구중앙동",
    "name": "중앙동힐스테이트2차",
    "address": "경기도 성남시 중원구 중앙동",
    "roadAddress": "경기도 성남시 중원구 시민로 66",
    "type": "apartment",
    "lat": 37.435867120156196,
    "lng": 127.14944786420565,
    "buildYear": 2014,
    "units": [
      "apt-중앙동힐스테이트2차-중원구중앙동-26평형",
      "apt-중앙동힐스테이트2차-중원구중앙동-18평형",
      "apt-중앙동힐스테이트2차-중원구중앙동-36평형",
      "apt-중앙동힐스테이트2차-중원구중앙동-37평형"
    ]
  },
  {
    "id": "apt-주원-중원구하대원동",
    "name": "주원",
    "address": "경기도 성남시 중원구 하대원동",
    "roadAddress": "경기도 성남시 중원구 시민로 25",
    "type": "apartment",
    "lat": 37.43223055008656,
    "lng": 127.1505491357301,
    "buildYear": 2000,
    "units": [
      "apt-주원-중원구하대원동-26평형"
    ]
  },
  {
    "id": "apt-e편한세상금빛그랑메종5단지-중원구금광동",
    "name": "e편한세상금빛그랑메종5단지",
    "address": "경기도 성남시 중원구 금광동",
    "roadAddress": "경기도 성남시 중원구 금광로 72",
    "type": "apartment",
    "lat": 37.444497339101325,
    "lng": 127.16789073276581,
    "buildYear": 2023,
    "units": [
      "apt-e편한세상금빛그랑메종5단지-중원구금광동-18평형",
      "apt-e편한세상금빛그랑메종5단지-중원구금광동-26평형",
      "apt-e편한세상금빛그랑메종5단지-중원구금광동-23평형"
    ]
  },
  {
    "id": "apt-현대-중원구성남동",
    "name": "현대",
    "address": "경기도 성남시 중원구 성남동",
    "roadAddress": "경기도 성남시 중원구 둔촌대로 193",
    "type": "apartment",
    "lat": 37.42974080533647,
    "lng": 127.13984707722888,
    "buildYear": 1992,
    "units": [
      "apt-현대-중원구성남동-25평형",
      "apt-현대-중원구성남동-19평형",
      "apt-현대-중원구성남동-16평형",
      "apt-현대-중원구성남동-13평형"
    ]
  },
  {
    "id": "apt-산호-중원구상대원동",
    "name": "산호",
    "address": "경기도 성남시 중원구 상대원동",
    "roadAddress": "경기도 성남시 중원구 순환로198번길 14",
    "type": "apartment",
    "lat": 37.441056477287354,
    "lng": 127.18115897424354,
    "buildYear": 1992,
    "units": [
      "apt-산호-중원구상대원동-22평형",
      "apt-산호-중원구상대원동-23평형"
    ]
  },
  {
    "id": "apt-대원-중원구하대원동",
    "name": "대원",
    "address": "경기도 성남시 중원구 하대원동",
    "roadAddress": "경기도 성남시 중원구 둔촌대로280번길 12",
    "type": "apartment",
    "lat": 37.4281546137961,
    "lng": 127.14939685753372,
    "buildYear": 1986,
    "units": [
      "apt-대원-중원구하대원동-12평형",
      "apt-대원-중원구하대원동-11평형",
      "apt-대원-중원구하대원동-13평형"
    ]
  },
  {
    "id": "apt-현대-중원구하대원동",
    "name": "현대",
    "address": "경기도 성남시 중원구 하대원동",
    "roadAddress": "경기도 성남시 중원구 시민로28번길 6",
    "type": "apartment",
    "lat": 37.43247126239177,
    "lng": 127.15110298104939,
    "buildYear": 1995,
    "units": [
      "apt-현대-중원구하대원동-26평형",
      "apt-현대-중원구하대원동-36평형",
      "apt-현대-중원구하대원동-18평형"
    ]
  },
  {
    "id": "apt-띠아모-중원구성남동",
    "name": "띠아모",
    "address": "경기도 성남시 중원구 성남동",
    "roadAddress": "경기도 성남시 중원구 제일로63번길 5",
    "type": "apartment",
    "lat": 37.43229966608096,
    "lng": 127.13520707088894,
    "buildYear": 2004,
    "units": [
      "apt-띠아모-중원구성남동-26평형"
    ]
  },
  {
    "id": "apt-한빛스위티-중원구성남동",
    "name": "한빛스위티",
    "address": "경기도 성남시 중원구 성남동",
    "roadAddress": "경기도 성남시 중원구 성남대로1130번길 26",
    "type": "apartment",
    "lat": 37.43053308395642,
    "lng": 127.13228340500046,
    "buildYear": 2005,
    "units": [
      "apt-한빛스위티-중원구성남동-24평형",
      "apt-한빛스위티-중원구성남동-18평형",
      "apt-한빛스위티-중원구성남동-20평형"
    ]
  },
  {
    "id": "apt-가나1-중원구하대원동",
    "name": "가나1",
    "address": "경기도 성남시 중원구 하대원동",
    "roadAddress": "경기도 성남시 중원구 마지로163번길 13",
    "type": "apartment",
    "lat": 37.4268764610145,
    "lng": 127.14856904292544,
    "buildYear": 1997,
    "units": [
      "apt-가나1-중원구하대원동-36평형"
    ]
  },
  {
    "id": "apt-제일-중원구하대원동",
    "name": "제일",
    "address": "경기도 성남시 중원구 하대원동",
    "roadAddress": "경기도 성남시 중원구 둔촌대로190번길 2",
    "type": "apartment",
    "lat": 37.4288193064897,
    "lng": 127.13921415930557,
    "buildYear": 1984,
    "units": [
      "apt-제일-중원구하대원동-16평형",
      "apt-제일-중원구하대원동-19평형"
    ]
  },
  {
    "id": "apt-신흥역하늘채랜더스원2단지-중원구중앙동",
    "name": "신흥역하늘채랜더스원2단지",
    "address": "경기도 성남시 중원구 중앙동",
    "roadAddress": "경기도 성남시 중원구 광명로 204",
    "type": "apartment",
    "lat": 37.43885435616029,
    "lng": 127.15087637070462,
    "buildYear": 2022,
    "units": [
      "apt-신흥역하늘채랜더스원2단지-중원구중앙동-18평형",
      "apt-신흥역하늘채랜더스원2단지-중원구중앙동-16평형"
    ]
  },
  {
    "id": "apt-e편한세상금빛그랑메종2단지-중원구금광동",
    "name": "e편한세상금빛그랑메종2단지",
    "address": "경기도 성남시 중원구 금광동",
    "roadAddress": "경기도 성남시 중원구 금광로 26",
    "type": "apartment",
    "lat": 37.44310255151485,
    "lng": 127.16265169727333,
    "buildYear": 2022,
    "units": [
      "apt-e편한세상금빛그랑메종2단지-중원구금광동-23평형",
      "apt-e편한세상금빛그랑메종2단지-중원구금광동-16평형",
      "apt-e편한세상금빛그랑메종2단지-중원구금광동-18평형"
    ]
  },
  {
    "id": "apt-신동아파밀리에-중원구성남동",
    "name": "신동아파밀리에",
    "address": "경기도 성남시 중원구 성남동",
    "roadAddress": "경기도 성남시 중원구 광명로100번길 4",
    "type": "apartment",
    "lat": 37.43506267338772,
    "lng": 127.14001191517193,
    "buildYear": 2005,
    "units": [
      "apt-신동아파밀리에-중원구성남동-23평형",
      "apt-신동아파밀리에-중원구성남동-22평형",
      "apt-신동아파밀리에-중원구성남동-26평형",
      "apt-신동아파밀리에-중원구성남동-25평형"
    ]
  },
  {
    "id": "apt-주원파크빌-중원구하대원동",
    "name": "주원파크빌",
    "address": "경기도 성남시 중원구 하대원동",
    "roadAddress": "경기도 성남시 중원구 둔촌대로 154",
    "type": "apartment",
    "lat": 37.42899494926016,
    "lng": 127.13583511062095,
    "buildYear": 2006,
    "units": [
      "apt-주원파크빌-중원구하대원동-26평형"
    ]
  },
  {
    "id": "apt-태연스카이빌-중원구하대원동",
    "name": "태연스카이빌",
    "address": "경기도 성남시 중원구 하대원동",
    "roadAddress": "경기도 성남시 중원구 둔촌대로 274",
    "type": "apartment",
    "lat": 37.42875346281697,
    "lng": 127.14889880099733,
    "buildYear": 2002,
    "units": [
      "apt-태연스카이빌-중원구하대원동-22평형"
    ]
  },
  {
    "id": "apt-봇들마을3단지주공-분당구삼평동",
    "name": "봇들마을3단지(주공)",
    "address": "경기도 성남시 분당구 삼평동",
    "roadAddress": "경기도 성남시 분당구 동판교로 225",
    "type": "apartment",
    "lat": 37.4028544301318,
    "lng": 127.11615043519006,
    "buildYear": 2009,
    "units": [
      "apt-봇들마을3단지주공-분당구삼평동-18평형",
      "apt-봇들마을3단지주공-분당구삼평동-23평형",
      "apt-봇들마을3단지주공-분당구삼평동-26평형"
    ]
  },
  {
    "id": "apt-미켈란쉐르빌-분당구정자동",
    "name": "미켈란쉐르빌",
    "address": "경기도 성남시 분당구 정자동",
    "roadAddress": "경기도 성남시 분당구 정자일로 100",
    "type": "apartment",
    "lat": 37.35875673089204,
    "lng": 127.10660305058246,
    "buildYear": 2003,
    "units": [
      "apt-미켈란쉐르빌-분당구정자동-6평형",
      "apt-미켈란쉐르빌-분당구정자동-59평형",
      "apt-미켈란쉐르빌-분당구정자동-48평형",
      "apt-미켈란쉐르빌-분당구정자동-46평형",
      "apt-미켈란쉐르빌-분당구정자동-50평형",
      "apt-미켈란쉐르빌-분당구정자동-41평형",
      "apt-미켈란쉐르빌-분당구정자동-47평형",
      "apt-미켈란쉐르빌-분당구정자동-10평형",
      "apt-미켈란쉐르빌-분당구정자동-12평형",
      "apt-미켈란쉐르빌-분당구정자동-11평형",
      "apt-미켈란쉐르빌-분당구정자동-74평형",
      "apt-미켈란쉐르빌-분당구정자동-7평형",
      "apt-미켈란쉐르빌-분당구정자동-9평형"
    ]
  },
  {
    "id": "apt-THESHARP판교퍼스트파크-분당구백현동",
    "name": "THESHARP판교퍼스트파크",
    "address": "경기도 성남시 분당구 백현동",
    "roadAddress": "경기도 성남시 분당구 판교백현로 38",
    "type": "apartment",
    "lat": 37.3837256033819,
    "lng": 127.09561996199412,
    "buildYear": 2021,
    "units": [
      "apt-THESHARP판교퍼스트파크-분당구백현동-26평형",
      "apt-THESHARP판교퍼스트파크-분당구백현동-35평형",
      "apt-THESHARP판교퍼스트파크-분당구백현동-39평형"
    ]
  },
  {
    "id": "apt-시범삼성-분당구서현동",
    "name": "시범삼성",
    "address": "경기도 성남시 분당구 서현동",
    "roadAddress": "경기도 성남시 분당구 중앙공원로 53",
    "type": "apartment",
    "lat": 37.3831050563593,
    "lng": 127.12924833223092,
    "buildYear": 1991,
    "units": [
      "apt-시범삼성-분당구서현동-18평형",
      "apt-시범삼성-분당구서현동-40평형",
      "apt-시범삼성-분당구서현동-26평형",
      "apt-시범삼성-분당구서현동-58평형"
    ]
  },
  {
    "id": "apt-현대IPARK2-분당구정자동",
    "name": "현대I-PARK2",
    "address": "경기도 성남시 분당구 정자동",
    "roadAddress": "경기도 성남시 분당구 정자일로213번길 19",
    "type": "apartment",
    "lat": 37.370745828649,
    "lng": 127.10484386775083,
    "buildYear": 2003,
    "units": [
      "apt-현대IPARK2-분당구정자동-49평형",
      "apt-현대IPARK2-분당구정자동-44평형",
      "apt-현대IPARK2-분당구정자동-26평형"
    ]
  },
  {
    "id": "apt-한솔마을4단지주공-분당구정자동",
    "name": "한솔마을(4단지)(주공)",
    "address": "경기도 성남시 분당구 정자동",
    "roadAddress": "경기도 성남시 분당구 백현로 206",
    "type": "apartment",
    "lat": 37.36878654356428,
    "lng": 127.11894864734973,
    "buildYear": 1994,
    "units": [
      "apt-한솔마을4단지주공-분당구정자동-11평형",
      "apt-한솔마을4단지주공-분당구정자동-13평형"
    ]
  },
  {
    "id": "apt-판교호반써밋플레이스-분당구삼평동",
    "name": "판교호반써밋플레이스",
    "address": "경기도 성남시 분당구 삼평동",
    "roadAddress": "경기도 성남시 분당구 동판교로177번길 25",
    "type": "apartment",
    "lat": 37.39732197781257,
    "lng": 127.11356829084451,
    "buildYear": 2012,
    "units": [
      "apt-판교호반써밋플레이스-분당구삼평동-40평형",
      "apt-판교호반써밋플레이스-분당구삼평동-41평형"
    ]
  },
  {
    "id": "apt-시범한양-분당구서현동",
    "name": "시범한양",
    "address": "경기도 성남시 분당구 서현동",
    "roadAddress": "경기도 성남시 분당구 중앙공원로 17",
    "type": "apartment",
    "lat": 37.37899446854969,
    "lng": 127.1259783430728,
    "buildYear": 1991,
    "units": [
      "apt-시범한양-분당구서현동-9평형",
      "apt-시범한양-분당구서현동-11평형",
      "apt-시범한양-분당구서현동-50평형",
      "apt-시범한양-분당구서현동-26평형",
      "apt-시범한양-분당구서현동-18평형",
      "apt-시범한양-분당구서현동-41평형",
      "apt-시범한양-분당구서현동-45평형",
      "apt-시범한양-분당구서현동-31평형",
      "apt-시범한양-분당구서현동-67평형"
    ]
  },
  {
    "id": "apt-목련마을SK-분당구야탑동",
    "name": "목련마을SK",
    "address": "경기도 성남시 분당구 야탑동",
    "roadAddress": "경기도 성남시 분당구 판교로743번길 7",
    "type": "apartment",
    "lat": 37.405877658932056,
    "lng": 127.15428597609105,
    "buildYear": 1998,
    "units": [
      "apt-목련마을SK-분당구야탑동-18평형"
    ]
  },
  {
    "id": "apt-양지마을2단지청구-분당구수내동",
    "name": "양지마을(2단지)(청구)",
    "address": "경기도 성남시 분당구 수내동",
    "roadAddress": "경기도 성남시 분당구 내정로 185",
    "type": "apartment",
    "lat": 37.37578557984962,
    "lng": 127.12016488775002,
    "buildYear": 1992,
    "units": [
      "apt-양지마을2단지청구-분당구수내동-26평형",
      "apt-양지마을2단지청구-분당구수내동-41평형",
      "apt-양지마을2단지청구-분당구수내동-53평형",
      "apt-양지마을2단지청구-분당구수내동-60평형"
    ]
  },
  {
    "id": "apt-시범현대-분당구서현동",
    "name": "시범현대",
    "address": "경기도 성남시 분당구 서현동",
    "roadAddress": "경기도 성남시 분당구 중앙공원로 20",
    "type": "apartment",
    "lat": 37.377583983295935,
    "lng": 127.13020102734745,
    "buildYear": 1991,
    "units": [
      "apt-시범현대-분당구서현동-18평형",
      "apt-시범현대-분당구서현동-26평형",
      "apt-시범현대-분당구서현동-59평형",
      "apt-시범현대-분당구서현동-15평형",
      "apt-시범현대-분당구서현동-56평형",
      "apt-시범현대-분당구서현동-39평형",
      "apt-시범현대-분당구서현동-50평형",
      "apt-시범현대-분당구서현동-57평형",
      "apt-시범현대-분당구서현동-33평형",
      "apt-시범현대-분당구서현동-53평형"
    ]
  },
  {
    "id": "apt-효자촌삼환-분당구서현동",
    "name": "효자촌(삼환)",
    "address": "경기도 성남시 분당구 서현동",
    "roadAddress": "경기도 성남시 분당구 불정로 361",
    "type": "apartment",
    "lat": 37.374051875623394,
    "lng": 127.13398699868597,
    "buildYear": 1992,
    "units": [
      "apt-효자촌삼환-분당구서현동-25평형",
      "apt-효자촌삼환-분당구서현동-29평형",
      "apt-효자촌삼환-분당구서현동-31평형",
      "apt-효자촌삼환-분당구서현동-39평형",
      "apt-효자촌삼환-분당구서현동-14평형",
      "apt-효자촌삼환-분당구서현동-50평형",
      "apt-효자촌삼환-분당구서현동-59평형"
    ]
  },
  {
    "id": "apt-봇들마을4단지주공-분당구삼평동",
    "name": "봇들마을4단지(주공)",
    "address": "경기도 성남시 분당구 삼평동",
    "roadAddress": "경기도 성남시 분당구 동판교로 226",
    "type": "apartment",
    "lat": 37.40420455967583,
    "lng": 127.11711483371978,
    "buildYear": 2009,
    "units": [
      "apt-봇들마을4단지주공-분당구삼평동-26평형",
      "apt-봇들마을4단지주공-분당구삼평동-18평형",
      "apt-봇들마을4단지주공-분당구삼평동-23평형"
    ]
  },
  {
    "id": "apt-양지마을5단지한양501514-분당구수내동",
    "name": "양지마을(5단지)(한양501-514)",
    "address": "경기도 성남시 분당구 수내동",
    "roadAddress": "경기도 성남시 분당구 내정로165번길 35",
    "type": "apartment",
    "lat": 37.37508932200421,
    "lng": 127.11481012642247,
    "buildYear": 1993,
    "units": [
      "apt-양지마을5단지한양501514-분당구수내동-11평형",
      "apt-양지마을5단지한양501514-분당구수내동-9평형",
      "apt-양지마을5단지한양501514-분당구수내동-15평형",
      "apt-양지마을5단지한양501514-분당구수내동-13평형"
    ]
  },
  {
    "id": "apt-까치마을2단지주공-분당구구미동",
    "name": "까치마을(2단지)(주공)",
    "address": "경기도 성남시 분당구 구미동",
    "roadAddress": "경기도 성남시 분당구 미금일로 22",
    "type": "apartment",
    "lat": 37.34705443852065,
    "lng": 127.11711646390995,
    "buildYear": 1995,
    "units": [
      "apt-까치마을2단지주공-분당구구미동-18평형",
      "apt-까치마을2단지주공-분당구구미동-15평형"
    ]
  },
  {
    "id": "apt-한솔마을1단지청구-분당구정자동",
    "name": "한솔마을(1단지)(청구)",
    "address": "경기도 성남시 분당구 정자동",
    "roadAddress": "경기도 성남시 분당구 불정로 219",
    "type": "apartment",
    "lat": 37.36438105457289,
    "lng": 127.12329973504515,
    "buildYear": 1994,
    "units": [
      "apt-한솔마을1단지청구-분당구정자동-15평형",
      "apt-한솔마을1단지청구-분당구정자동-26평형",
      "apt-한솔마을1단지청구-분당구정자동-31평형",
      "apt-한솔마을1단지청구-분당구정자동-41평형"
    ]
  },
  {
    "id": "apt-산운마을14단지경남아너스빌-분당구운중동",
    "name": "산운마을14단지(경남아너스빌)",
    "address": "경기도 성남시 분당구 운중동",
    "roadAddress": "경기도 성남시 분당구 판교원로82번길 60",
    "type": "apartment",
    "lat": 37.38460275310369,
    "lng": 127.07395284758911,
    "buildYear": 2009,
    "units": [
      "apt-산운마을14단지경남아너스빌-분당구운중동-35평형",
      "apt-산운마을14단지경남아너스빌-분당구운중동-31평형",
      "apt-산운마을14단지경남아너스빌-분당구운중동-37평형",
      "apt-산운마을14단지경남아너스빌-분당구운중동-46평형",
      "apt-산운마을14단지경남아너스빌-분당구운중동-56평형"
    ]
  },
  {
    "id": "apt-효자촌대우-분당구서현동",
    "name": "효자촌(대우)",
    "address": "경기도 성남시 분당구 서현동",
    "roadAddress": "경기도 성남시 분당구 분당로263번길 13",
    "type": "apartment",
    "lat": 37.37172377583343,
    "lng": 127.13792264570904,
    "buildYear": 1994,
    "units": [
      "apt-효자촌대우-분당구서현동-26평형",
      "apt-효자촌대우-분당구서현동-16평형",
      "apt-효자촌대우-분당구서현동-21평형"
    ]
  },
  {
    "id": "apt-현대IPARK3-분당구정자동",
    "name": "현대I-PARK3",
    "address": "경기도 성남시 분당구 정자동",
    "roadAddress": "경기도 성남시 분당구 정자일로213번길 5",
    "type": "apartment",
    "lat": 37.36898777644154,
    "lng": 127.10559934735394,
    "buildYear": 2003,
    "units": [
      "apt-현대IPARK3-분당구정자동-46평형",
      "apt-현대IPARK3-분당구정자동-26평형",
      "apt-현대IPARK3-분당구정자동-52평형",
      "apt-현대IPARK3-분당구정자동-50평형",
      "apt-현대IPARK3-분당구정자동-48평형",
      "apt-현대IPARK3-분당구정자동-47평형"
    ]
  },
  {
    "id": "apt-봇들마을9단지금호어울림-분당구삼평동",
    "name": "봇들마을9단지(금호어울림)",
    "address": "경기도 성남시 분당구 삼평동",
    "roadAddress": "경기도 성남시 분당구 동판교로 156",
    "type": "apartment",
    "lat": 37.3966011388242,
    "lng": 127.11821291233336,
    "buildYear": 2009,
    "units": [
      "apt-봇들마을9단지금호어울림-분당구삼평동-35평형",
      "apt-봇들마을9단지금호어울림-분당구삼평동-31평형",
      "apt-봇들마을9단지금호어울림-분당구삼평동-45평형"
    ]
  },
  {
    "id": "apt-청솔마을유천-분당구금곡동",
    "name": "청솔마을(유천)",
    "address": "경기도 성남시 분당구 금곡동",
    "roadAddress": "경기도 성남시 분당구 정자일로 46",
    "type": "apartment",
    "lat": 37.354541220027,
    "lng": 127.10631845907608,
    "buildYear": 1995,
    "units": [
      "apt-청솔마을유천-분당구금곡동-26평형",
      "apt-청솔마을유천-분당구금곡동-12평형"
    ]
  },
  {
    "id": "apt-백현마을7단지주공-분당구백현동",
    "name": "백현마을7단지(주공)",
    "address": "경기도 성남시 분당구 백현동",
    "roadAddress": "경기도 성남시 분당구 판교역로 98",
    "type": "apartment",
    "lat": 37.38933390942345,
    "lng": 127.11074919552541,
    "buildYear": 2009,
    "units": [
      "apt-백현마을7단지주공-분당구백현동-26평형",
      "apt-백현마을7단지주공-분당구백현동-23평형"
    ]
  },
  {
    "id": "apt-양지마을5단지한양515529-분당구수내동",
    "name": "양지마을(5단지)(한양515-529)",
    "address": "경기도 성남시 분당구 수내동",
    "roadAddress": "경기도 성남시 분당구 내정로165번길 35",
    "type": "apartment",
    "lat": 37.37508932200421,
    "lng": 127.11481012642247,
    "buildYear": 1992,
    "units": [
      "apt-양지마을5단지한양515529-분당구수내동-26평형",
      "apt-양지마을5단지한양515529-분당구수내동-31평형",
      "apt-양지마을5단지한양515529-분당구수내동-41평형",
      "apt-양지마을5단지한양515529-분당구수내동-50평형",
      "apt-양지마을5단지한양515529-분당구수내동-24평형",
      "apt-양지마을5단지한양515529-분당구수내동-61평형",
      "apt-양지마을5단지한양515529-분당구수내동-56평형"
    ]
  },
  {
    "id": "apt-매화마을공무원2-분당구야탑동",
    "name": "매화마을공무원2",
    "address": "경기도 성남시 분당구 야탑동",
    "roadAddress": "경기도 성남시 분당구 장미로 139",
    "type": "apartment",
    "lat": 37.413510431494245,
    "lng": 127.13714289224804,
    "buildYear": 1995,
    "units": [
      "apt-매화마을공무원2-분당구야탑동-18평형",
      "apt-매화마을공무원2-분당구야탑동-20평형"
    ]
  },
  {
    "id": "apt-청솔마을계룡-분당구금곡동",
    "name": "청솔마을(계룡)",
    "address": "경기도 성남시 분당구 금곡동",
    "roadAddress": "경기도 성남시 분당구 정자일로 30",
    "type": "apartment",
    "lat": 37.35264054468114,
    "lng": 127.1075290482382,
    "buildYear": 1996,
    "units": [
      "apt-청솔마을계룡-분당구금곡동-26평형",
      "apt-청솔마을계룡-분당구금곡동-17평형"
    ]
  },
  {
    "id": "apt-샛별마을라이프-분당구분당동",
    "name": "샛별마을(라이프)",
    "address": "경기도 성남시 분당구 분당동",
    "roadAddress": "경기도 성남시 분당구 분당로 190",
    "type": "apartment",
    "lat": 37.374109730021715,
    "lng": 127.13020515496677,
    "buildYear": 1993,
    "units": [
      "apt-샛별마을라이프-분당구분당동-26평형",
      "apt-샛별마을라이프-분당구분당동-18평형",
      "apt-샛별마을라이프-분당구분당동-24평형",
      "apt-샛별마을라이프-분당구분당동-38평형",
      "apt-샛별마을라이프-분당구분당동-27평형",
      "apt-샛별마을라이프-분당구분당동-46평형"
    ]
  },
  {
    "id": "apt-까치마을3단지신원-분당구구미동",
    "name": "까치마을(3단지)(신원)",
    "address": "경기도 성남시 분당구 구미동",
    "roadAddress": "경기도 성남시 분당구 미금로 177",
    "type": "apartment",
    "lat": 37.34873352421468,
    "lng": 127.11568583138316,
    "buildYear": 1995,
    "units": [
      "apt-까치마을3단지신원-분당구구미동-26평형",
      "apt-까치마을3단지신원-분당구구미동-51평형",
      "apt-까치마을3단지신원-분당구구미동-31평형",
      "apt-까치마을3단지신원-분당구구미동-18평형",
      "apt-까치마을3단지신원-분당구구미동-40평형",
      "apt-까치마을3단지신원-분당구구미동-49평형"
    ]
  },
  {
    "id": "apt-판교원마을9단지한림풀에버-분당구판교동",
    "name": "판교원마을9단지(한림풀에버)",
    "address": "경기도 성남시 분당구 판교동",
    "roadAddress": "경기도 성남시 분당구 서판교로 29",
    "type": "apartment",
    "lat": 37.38882987573692,
    "lng": 127.09666762769123,
    "buildYear": 2009,
    "units": [
      "apt-판교원마을9단지한림풀에버-분당구판교동-26평형",
      "apt-판교원마을9단지한림풀에버-분당구판교동-22평형"
    ]
  },
  {
    "id": "apt-무지개12단지주공뜨란체-분당구구미동",
    "name": "무지개(12단지)(주공뜨란체)",
    "address": "경기도 성남시 분당구 구미동",
    "roadAddress": "경기도 성남시 분당구 미금로22번길 10",
    "type": "apartment",
    "lat": 37.33592587887462,
    "lng": 127.11985325311758,
    "buildYear": 1995,
    "units": [
      "apt-무지개12단지주공뜨란체-분당구구미동-18평형",
      "apt-무지개12단지주공뜨란체-분당구구미동-15평형"
    ]
  },
  {
    "id": "apt-탑마을주공-분당구야탑동",
    "name": "탑마을(주공)",
    "address": "경기도 성남시 분당구 야탑동",
    "roadAddress": "경기도 성남시 분당구 매화로 12",
    "type": "apartment",
    "lat": 37.40904414686388,
    "lng": 127.13420541921684,
    "buildYear": 1993,
    "units": [
      "apt-탑마을주공-분당구야탑동-11평형",
      "apt-탑마을주공-분당구야탑동-13평형"
    ]
  },
  {
    "id": "apt-정든마을6단지우성-분당구정자동",
    "name": "정든마을(6단지)(우성)",
    "address": "경기도 성남시 분당구 정자동",
    "roadAddress": "경기도 성남시 분당구 불정로 195",
    "type": "apartment",
    "lat": 37.36183201244992,
    "lng": 127.12156000763248,
    "buildYear": 1994,
    "units": [
      "apt-정든마을6단지우성-분당구정자동-15평형",
      "apt-정든마을6단지우성-분당구정자동-26평형",
      "apt-정든마을6단지우성-분당구정자동-21평형"
    ]
  },
  {
    "id": "apt-정든마을6단지한진-분당구정자동",
    "name": "정든마을(6단지)(한진)",
    "address": "경기도 성남시 분당구 정자동",
    "roadAddress": "경기도 성남시 분당구 내정로 24",
    "type": "apartment",
    "lat": 37.36281604190027,
    "lng": 127.11519275521884,
    "buildYear": 1995,
    "units": [
      "apt-정든마을6단지한진-분당구정자동-41평형",
      "apt-정든마을6단지한진-분당구정자동-34평형",
      "apt-정든마을6단지한진-분당구정자동-30평형",
      "apt-정든마을6단지한진-분당구정자동-49평형"
    ]
  },
  {
    "id": "apt-정든마을5단지신화-분당구정자동",
    "name": "정든마을(5단지)(신화)",
    "address": "경기도 성남시 분당구 정자동",
    "roadAddress": "경기도 성남시 분당구 정자로 112",
    "type": "apartment",
    "lat": 37.36320218669496,
    "lng": 127.11784580379774,
    "buildYear": 1995,
    "units": [
      "apt-정든마을5단지신화-분당구정자동-35평형",
      "apt-정든마을5단지신화-분당구정자동-16평형",
      "apt-정든마을5단지신화-분당구정자동-21평형",
      "apt-정든마을5단지신화-분당구정자동-26평형",
      "apt-정든마을5단지신화-분당구정자동-31평형",
      "apt-정든마을5단지신화-분당구정자동-49평형",
      "apt-정든마을5단지신화-분당구정자동-41평형"
    ]
  },
  {
    "id": "apt-상록마을우성1-분당구정자동",
    "name": "상록마을(우성)1",
    "address": "경기도 성남시 분당구 정자동",
    "roadAddress": "경기도 성남시 분당구 내정로 55",
    "type": "apartment",
    "lat": 37.364827500673336,
    "lng": 127.11265549515923,
    "buildYear": 1994,
    "units": [
      "apt-상록마을우성1-분당구정자동-17평형",
      "apt-상록마을우성1-분당구정자동-31평형",
      "apt-상록마을우성1-분당구정자동-39평형",
      "apt-상록마을우성1-분당구정자동-21평형",
      "apt-상록마을우성1-분당구정자동-26평형",
      "apt-상록마을우성1-분당구정자동-49평형"
    ]
  },
  {
    "id": "apt-판교알파리움2단지-분당구백현동",
    "name": "판교알파리움2단지",
    "address": "경기도 성남시 분당구 백현동",
    "roadAddress": "경기도 성남시 분당구 판교역로 145",
    "type": "apartment",
    "lat": 37.394061172362015,
    "lng": 127.10918567685685,
    "buildYear": 2015,
    "units": [
      "apt-판교알파리움2단지-분당구백현동-39평형",
      "apt-판교알파리움2단지-분당구백현동-43평형",
      "apt-판교알파리움2단지-분당구백현동-29평형",
      "apt-판교알파리움2단지-분당구백현동-33평형"
    ]
  },
  {
    "id": "apt-탑마을선경1-분당구야탑동",
    "name": "탑마을(선경)1",
    "address": "경기도 성남시 분당구 야탑동",
    "roadAddress": "경기도 성남시 분당구 야탑로 20",
    "type": "apartment",
    "lat": 37.407858994159284,
    "lng": 127.12185690914093,
    "buildYear": 1992,
    "units": [
      "apt-탑마을선경1-분당구야탑동-25평형",
      "apt-탑마을선경1-분당구야탑동-31평형",
      "apt-탑마을선경1-분당구야탑동-16평형",
      "apt-탑마을선경1-분당구야탑동-40평형"
    ]
  },
  {
    "id": "apt-정든마을2단지동아-분당구정자동",
    "name": "정든마을(2단지)(동아)",
    "address": "경기도 성남시 분당구 정자동",
    "roadAddress": "경기도 성남시 분당구 불정로 179",
    "type": "apartment",
    "lat": 37.360542526456896,
    "lng": 127.12275114520244,
    "buildYear": 1995,
    "units": [
      "apt-정든마을2단지동아-분당구정자동-15평형",
      "apt-정든마을2단지동아-분당구정자동-21평형",
      "apt-정든마을2단지동아-분당구정자동-26평형"
    ]
  },
  {
    "id": "apt-시범우성-분당구서현동",
    "name": "시범우성",
    "address": "경기도 성남시 분당구 서현동",
    "roadAddress": "경기도 성남시 분당구 중앙공원로 54",
    "type": "apartment",
    "lat": 37.38129398273567,
    "lng": 127.13166516888994,
    "buildYear": 1991,
    "units": [
      "apt-시범우성-분당구서현동-14평형",
      "apt-시범우성-분당구서현동-18평형",
      "apt-시범우성-분당구서현동-20평형",
      "apt-시범우성-분당구서현동-26평형",
      "apt-시범우성-분당구서현동-39평형",
      "apt-시범우성-분당구서현동-50평형",
      "apt-시범우성-분당구서현동-59평형",
      "apt-시범우성-분당구서현동-23평형",
      "apt-시범우성-분당구서현동-41평형",
      "apt-시범우성-분당구서현동-40평형"
    ]
  },
  {
    "id": "apt-판교원마을5단지푸르지오-분당구판교동",
    "name": "판교원마을5단지(푸르지오)",
    "address": "경기도 성남시 분당구 판교동",
    "roadAddress": "경기도 성남시 분당구 판교원로 207",
    "type": "apartment",
    "lat": 37.38759215053287,
    "lng": 127.08894208840107,
    "buildYear": 2009,
    "units": [
      "apt-판교원마을5단지푸르지오-분당구판교동-35평형",
      "apt-판교원마을5단지푸르지오-분당구판교동-26평형",
      "apt-판교원마을5단지푸르지오-분당구판교동-31평형"
    ]
  },
  {
    "id": "apt-이매촌청구-분당구이매동",
    "name": "이매촌(청구)",
    "address": "경기도 성남시 분당구 이매동",
    "roadAddress": "경기도 성남시 분당구 양현로94번길 29",
    "type": "apartment",
    "lat": 37.39191022075019,
    "lng": 127.12682512707607,
    "buildYear": 1992,
    "units": [
      "apt-이매촌청구-분당구이매동-40평형",
      "apt-이매촌청구-분당구이매동-59평형",
      "apt-이매촌청구-분당구이매동-26평형",
      "apt-이매촌청구-분당구이매동-31평형",
      "apt-이매촌청구-분당구이매동-18평형",
      "apt-이매촌청구-분당구이매동-37평형"
    ]
  },
  {
    "id": "apt-판교풍경채어바니티5단지-분당구대장동",
    "name": "판교풍경채어바니티(5단지)",
    "address": "경기도 성남시 분당구 대장동",
    "roadAddress": "경기도 성남시 분당구 판교대장로5길 20",
    "type": "apartment",
    "lat": 37.36467164610768,
    "lng": 127.06956424209679,
    "buildYear": 2021,
    "units": [
      "apt-판교풍경채어바니티5단지-분당구대장동-26평형"
    ]
  },
  {
    "id": "apt-이매촌동신3-분당구이매동",
    "name": "이매촌(동신3)",
    "address": "경기도 성남시 분당구 이매동",
    "roadAddress": "경기도 성남시 분당구 양현로94번길 28",
    "type": "apartment",
    "lat": 37.39048721394969,
    "lng": 127.12728518708185,
    "buildYear": 1992,
    "units": [
      "apt-이매촌동신3-분당구이매동-26평형",
      "apt-이매촌동신3-분당구이매동-31평형",
      "apt-이매촌동신3-분당구이매동-18평형",
      "apt-이매촌동신3-분당구이매동-51평형",
      "apt-이매촌동신3-분당구이매동-35평형"
    ]
  },
  {
    "id": "apt-아름마을선경-분당구이매동",
    "name": "아름마을(선경)",
    "address": "경기도 성남시 분당구 이매동",
    "roadAddress": "경기도 성남시 분당구 이매로 11",
    "type": "apartment",
    "lat": 37.39546267338886,
    "lng": 127.1229403319177,
    "buildYear": 1993,
    "units": [
      "apt-아름마을선경-분당구이매동-25평형",
      "apt-아름마을선경-분당구이매동-13평형"
    ]
  },
  {
    "id": "apt-파크뷰-분당구정자동",
    "name": "파크뷰",
    "address": "경기도 성남시 분당구 정자동",
    "roadAddress": "경기도 성남시 분당구 정자일로 248",
    "type": "apartment",
    "lat": 37.37344708869411,
    "lng": 127.10670709859532,
    "buildYear": 2004,
    "units": [
      "apt-파크뷰-분당구정자동-26평형",
      "apt-파크뷰-분당구정자동-55평형",
      "apt-파크뷰-분당구정자동-49평형",
      "apt-파크뷰-분당구정자동-38평형",
      "apt-파크뷰-분당구정자동-42평형",
      "apt-파크뷰-분당구정자동-60평형"
    ]
  },
  {
    "id": "apt-무지개3단지신한-분당구구미동",
    "name": "무지개(3단지)(신한)",
    "address": "경기도 성남시 분당구 구미동",
    "roadAddress": "경기도 성남시 분당구 미금로 63",
    "type": "apartment",
    "lat": 37.33836671172038,
    "lng": 127.11561808387708,
    "buildYear": 1996,
    "units": [
      "apt-무지개3단지신한-분당구구미동-16평형",
      "apt-무지개3단지신한-분당구구미동-22평형",
      "apt-무지개3단지신한-분당구구미동-21평형",
      "apt-무지개3단지신한-분당구구미동-26평형"
    ]
  },
  {
    "id": "apt-장미마을동부-분당구야탑동",
    "name": "장미마을(동부)",
    "address": "경기도 성남시 분당구 야탑동",
    "roadAddress": "경기도 성남시 분당구 장미로 55",
    "type": "apartment",
    "lat": 37.41571535717529,
    "lng": 127.1263507949257,
    "buildYear": 1993,
    "units": [
      "apt-장미마을동부-분당구야탑동-18평형",
      "apt-장미마을동부-분당구야탑동-26평형",
      "apt-장미마을동부-분당구야탑동-31평형",
      "apt-장미마을동부-분당구야탑동-21평형",
      "apt-장미마을동부-분당구야탑동-40평형"
    ]
  },
  {
    "id": "apt-양지마을금호1-분당구수내동",
    "name": "양지마을(금호1)",
    "address": "경기도 성남시 분당구 수내동",
    "roadAddress": "경기도 성남시 분당구 수내로 74",
    "type": "apartment",
    "lat": 37.37805378144775,
    "lng": 127.1167287036753,
    "buildYear": 1992,
    "units": [
      "apt-양지마을금호1-분당구수내동-40평형",
      "apt-양지마을금호1-분당구수내동-26평형",
      "apt-양지마을금호1-분당구수내동-50평형",
      "apt-양지마을금호1-분당구수내동-59평형",
      "apt-양지마을금호1-분당구수내동-60평형"
    ]
  },
  {
    "id": "apt-파크타운대림-분당구수내동",
    "name": "파크타운(대림)",
    "address": "경기도 성남시 분당구 수내동",
    "roadAddress": "경기도 성남시 분당구 내정로 186",
    "type": "apartment",
    "lat": 37.37471894063156,
    "lng": 127.12139443107263,
    "buildYear": 1993,
    "units": [
      "apt-파크타운대림-분당구수내동-26평형",
      "apt-파크타운대림-분당구수내동-31평형",
      "apt-파크타운대림-분당구수내동-40평형",
      "apt-파크타운대림-분당구수내동-18평형",
      "apt-파크타운대림-분당구수내동-56평형",
      "apt-파크타운대림-분당구수내동-41평형",
      "apt-파크타운대림-분당구수내동-58평형",
      "apt-파크타운대림-분당구수내동-57평형"
    ]
  },
  {
    "id": "apt-매화마을주공3-분당구야탑동",
    "name": "매화마을(주공3)",
    "address": "경기도 성남시 분당구 야탑동",
    "roadAddress": "경기도 성남시 분당구 양현로 537",
    "type": "apartment",
    "lat": 37.414556815903964,
    "lng": 127.14192895669962,
    "buildYear": 1993,
    "units": [
      "apt-매화마을주공3-분당구야탑동-13평형",
      "apt-매화마을주공3-분당구야탑동-14평형",
      "apt-매화마을주공3-분당구야탑동-12평형",
      "apt-매화마을주공3-분당구야탑동-15평형",
      "apt-매화마을주공3-분당구야탑동-9평형"
    ]
  },
  {
    "id": "apt-이매촌성지-분당구이매동",
    "name": "이매촌(성지)",
    "address": "경기도 성남시 분당구 이매동",
    "roadAddress": "경기도 성남시 분당구 이매로 54",
    "type": "apartment",
    "lat": 37.39445297131944,
    "lng": 127.12613149696213,
    "buildYear": 1992,
    "units": [
      "apt-이매촌성지-분당구이매동-26평형",
      "apt-이매촌성지-분당구이매동-31평형"
    ]
  },
  {
    "id": "apt-푸른마을쌍용-분당구수내동",
    "name": "푸른마을(쌍용)",
    "address": "경기도 성남시 분당구 수내동",
    "roadAddress": "경기도 성남시 분당구 백현로 265",
    "type": "apartment",
    "lat": 37.36600562724955,
    "lng": 127.1241174022847,
    "buildYear": 1993,
    "units": [
      "apt-푸른마을쌍용-분당구수내동-26평형",
      "apt-푸른마을쌍용-분당구수내동-31평형",
      "apt-푸른마을쌍용-분당구수내동-40평형",
      "apt-푸른마을쌍용-분당구수내동-18평형",
      "apt-푸른마을쌍용-분당구수내동-50평형",
      "apt-푸른마을쌍용-분당구수내동-53평형"
    ]
  },
  {
    "id": "apt-정든마을8단지한진-분당구정자동",
    "name": "정든마을(8단지)(한진)",
    "address": "경기도 성남시 분당구 정자동",
    "roadAddress": "경기도 성남시 분당구 불정로 119",
    "type": "apartment",
    "lat": 37.36006950245782,
    "lng": 127.11761693472177,
    "buildYear": 1995,
    "units": [
      "apt-정든마을8단지한진-분당구정자동-34평형",
      "apt-정든마을8단지한진-분당구정자동-21평형",
      "apt-정든마을8단지한진-분당구정자동-26평형",
      "apt-정든마을8단지한진-분당구정자동-41평형",
      "apt-정든마을8단지한진-분당구정자동-15평형",
      "apt-정든마을8단지한진-분당구정자동-30평형"
    ]
  },
  {
    "id": "apt-분당더샾스타파크-분당구정자동",
    "name": "분당더샾스타파크",
    "address": "경기도 성남시 분당구 정자동",
    "roadAddress": "경기도 성남시 분당구 정자일로 121",
    "type": "apartment",
    "lat": 37.36132301679555,
    "lng": 127.10486699066342,
    "buildYear": 2007,
    "units": [
      "apt-분당더샾스타파크-분당구정자동-35평형",
      "apt-분당더샾스타파크-분당구정자동-26평형"
    ]
  },
  {
    "id": "apt-산운마을6단지신동아파밀리에-분당구운중동",
    "name": "산운마을6단지(신동아파밀리에)",
    "address": "경기도 성남시 분당구 운중동",
    "roadAddress": "경기도 성남시 분당구 산운로 121",
    "type": "apartment",
    "lat": 37.393316385097854,
    "lng": 127.07332940298059,
    "buildYear": 2009,
    "units": [
      "apt-산운마을6단지신동아파밀리에-분당구운중동-36평형",
      "apt-산운마을6단지신동아파밀리에-분당구운중동-31평형"
    ]
  },
  {
    "id": "apt-무지개5단지청구-분당구구미동",
    "name": "무지개(5단지)(청구)",
    "address": "경기도 성남시 분당구 구미동",
    "roadAddress": "경기도 성남시 분당구 무지개로 144",
    "type": "apartment",
    "lat": 37.33935077950739,
    "lng": 127.1196845306732,
    "buildYear": 1995,
    "units": [
      "apt-무지개5단지청구-분당구구미동-18평형",
      "apt-무지개5단지청구-분당구구미동-26평형"
    ]
  },
  {
    "id": "apt-판교더샵포레스트11단지-분당구대장동",
    "name": "판교더샵포레스트11단지",
    "address": "경기도 성남시 분당구 대장동",
    "roadAddress": "경기도 성남시 분당구 판교대장로5길 58",
    "type": "apartment",
    "lat": 37.36779318734497,
    "lng": 127.07315230819535,
    "buildYear": 2021,
    "units": [
      "apt-판교더샵포레스트11단지-분당구대장동-26평형"
    ]
  },
  {
    "id": "apt-청솔마을한라-분당구금곡동",
    "name": "청솔마을(한라)",
    "address": "경기도 성남시 분당구 금곡동",
    "roadAddress": "경기도 성남시 분당구 정자일로 72",
    "type": "apartment",
    "lat": 37.35640820530695,
    "lng": 127.10665491982309,
    "buildYear": 1995,
    "units": [
      "apt-청솔마을한라-분당구금곡동-21평형",
      "apt-청솔마을한라-분당구금곡동-26평형",
      "apt-청솔마을한라-분당구금곡동-18평형"
    ]
  },
  {
    "id": "apt-판교원마을7단지모아미래도-분당구판교동",
    "name": "판교원마을7단지(모아미래도)",
    "address": "경기도 성남시 분당구 판교동",
    "roadAddress": "경기도 성남시 분당구 판교원로 237",
    "type": "apartment",
    "lat": 37.386552819937975,
    "lng": 127.092841874651,
    "buildYear": 2009,
    "units": [
      "apt-판교원마을7단지모아미래도-분당구판교동-17평형",
      "apt-판교원마을7단지모아미래도-분당구판교동-25평형",
      "apt-판교원마을7단지모아미래도-분당구판교동-24평형"
    ]
  },
  {
    "id": "apt-현대IPARK1-분당구정자동",
    "name": "현대I-PARK1",
    "address": "경기도 성남시 분당구 정자동",
    "roadAddress": "경기도 성남시 분당구 정자일로 239",
    "type": "apartment",
    "lat": 37.372056485710864,
    "lng": 127.10553674223152,
    "buildYear": 2003,
    "units": [
      "apt-현대IPARK1-분당구정자동-24평형",
      "apt-현대IPARK1-분당구정자동-74평형",
      "apt-현대IPARK1-분당구정자동-52평형",
      "apt-현대IPARK1-분당구정자동-47평형",
      "apt-현대IPARK1-분당구정자동-49평형",
      "apt-현대IPARK1-분당구정자동-51평형",
      "apt-현대IPARK1-분당구정자동-59평형",
      "apt-현대IPARK1-분당구정자동-44평형",
      "apt-현대IPARK1-분당구정자동-56평형",
      "apt-현대IPARK1-분당구정자동-71평형",
      "apt-현대IPARK1-분당구정자동-57평형"
    ]
  },
  {
    "id": "apt-동양정자파라곤3단지-분당구정자동",
    "name": "동양정자파라곤(3단지)",
    "address": "경기도 성남시 분당구 정자동",
    "roadAddress": "경기도 성남시 분당구 정자일로 230",
    "type": "apartment",
    "lat": 37.37032461845294,
    "lng": 127.10650252476464,
    "buildYear": 2004,
    "units": [
      "apt-동양정자파라곤3단지-분당구정자동-50평형",
      "apt-동양정자파라곤3단지-분당구정자동-44평형",
      "apt-동양정자파라곤3단지-분당구정자동-24평형"
    ]
  },
  {
    "id": "apt-무지개4단지주공-분당구구미동",
    "name": "무지개(4단지)(주공)",
    "address": "경기도 성남시 분당구 구미동",
    "roadAddress": "경기도 성남시 분당구 미금로 66",
    "type": "apartment",
    "lat": 37.33980372055072,
    "lng": 127.11669611924702,
    "buildYear": 1995,
    "units": [
      "apt-무지개4단지주공-분당구구미동-18평형",
      "apt-무지개4단지주공-분당구구미동-15평형"
    ]
  },
  {
    "id": "apt-파크타운삼익-분당구수내동",
    "name": "파크타운(삼익)",
    "address": "경기도 성남시 분당구 수내동",
    "roadAddress": "경기도 성남시 분당구 내정로166번길 42",
    "type": "apartment",
    "lat": 37.371091538069344,
    "lng": 127.12020980705057,
    "buildYear": 1993,
    "units": [
      "apt-파크타운삼익-분당구수내동-40평형",
      "apt-파크타운삼익-분당구수내동-56평형",
      "apt-파크타운삼익-분당구수내동-31평형",
      "apt-파크타운삼익-분당구수내동-41평형",
      "apt-파크타운삼익-분당구수내동-26평형"
    ]
  },
  {
    "id": "apt-이매촌한신-분당구이매동",
    "name": "이매촌(한신)",
    "address": "경기도 성남시 분당구 이매동",
    "roadAddress": "경기도 성남시 분당구 서현로 181",
    "type": "apartment",
    "lat": 37.38912589151121,
    "lng": 127.12454482137946,
    "buildYear": 1993,
    "units": [
      "apt-이매촌한신-분당구이매동-26평형",
      "apt-이매촌한신-분당구이매동-20평형",
      "apt-이매촌한신-분당구이매동-15평형"
    ]
  },
  {
    "id": "apt-로얄팰리스-분당구정자동",
    "name": "로얄팰리스",
    "address": "경기도 성남시 분당구 정자동",
    "roadAddress": "경기도 성남시 분당구 성남대로 449",
    "type": "apartment",
    "lat": 37.37566685569885,
    "lng": 127.11132325488202,
    "buildYear": 2003,
    "units": [
      "apt-로얄팰리스-분당구정자동-48평형",
      "apt-로얄팰리스-분당구정자동-58평형",
      "apt-로얄팰리스-분당구정자동-52평형",
      "apt-로얄팰리스-분당구정자동-45평형",
      "apt-로얄팰리스-분당구정자동-63평형",
      "apt-로얄팰리스-분당구정자동-74평형",
      "apt-로얄팰리스-분당구정자동-42평형",
      "apt-로얄팰리스-분당구정자동-44평형",
      "apt-로얄팰리스-분당구정자동-64평형",
      "apt-로얄팰리스-분당구정자동-65평형"
    ]
  },
  {
    "id": "apt-이매촌삼성-분당구이매동",
    "name": "이매촌(삼성)",
    "address": "경기도 성남시 분당구 이매동",
    "roadAddress": "경기도 성남시 분당구 양현로 192",
    "type": "apartment",
    "lat": 37.401876047391255,
    "lng": 127.12748448050775,
    "buildYear": 1994,
    "units": [
      "apt-이매촌삼성-분당구이매동-31평형",
      "apt-이매촌삼성-분당구이매동-22평형",
      "apt-이매촌삼성-분당구이매동-39평형",
      "apt-이매촌삼성-분당구이매동-53평형",
      "apt-이매촌삼성-분당구이매동-18평형",
      "apt-이매촌삼성-분당구이매동-26평형"
    ]
  },
  {
    "id": "apt-무지개6단지건영-분당구구미동",
    "name": "무지개(6단지)(건영)",
    "address": "경기도 성남시 분당구 구미동",
    "roadAddress": "경기도 성남시 분당구 구미로 115",
    "type": "apartment",
    "lat": 37.34013823934011,
    "lng": 127.12133490464831,
    "buildYear": 1995,
    "units": [
      "apt-무지개6단지건영-분당구구미동-41평형",
      "apt-무지개6단지건영-분당구구미동-31평형",
      "apt-무지개6단지건영-분당구구미동-49평형"
    ]
  },
  {
    "id": "apt-느티마을3단지공무원-분당구정자동",
    "name": "느티마을(3단지)(공무원)",
    "address": "경기도 성남시 분당구 정자동",
    "roadAddress": "경기도 성남시 분당구 느티로 70",
    "type": "apartment",
    "lat": 37.368341724381445,
    "lng": 127.11206405549012,
    "buildYear": 1995,
    "units": [
      "apt-느티마을3단지공무원-분당구정자동-18평형",
      "apt-느티마을3단지공무원-분당구정자동-20평형"
    ]
  },
  {
    "id": "apt-이매촌금강-분당구이매동",
    "name": "이매촌(금강)",
    "address": "경기도 성남시 분당구 이매동",
    "roadAddress": "경기도 성남시 분당구 서현로 177",
    "type": "apartment",
    "lat": 37.389527766895235,
    "lng": 127.12414888098853,
    "buildYear": 1992,
    "units": [
      "apt-이매촌금강-분당구이매동-15평형",
      "apt-이매촌금강-분당구이매동-26평형",
      "apt-이매촌금강-분당구이매동-30평형"
    ]
  },
  {
    "id": "apt-청솔마을영남-분당구금곡동",
    "name": "청솔마을(영남)",
    "address": "경기도 성남시 분당구 금곡동",
    "roadAddress": "경기도 성남시 분당구 성남대로171번길 8",
    "type": "apartment",
    "lat": 37.35213746809609,
    "lng": 127.10819730418004,
    "buildYear": 1995,
    "units": [
      "apt-청솔마을영남-분당구금곡동-26평형",
      "apt-청솔마을영남-분당구금곡동-21평형",
      "apt-청솔마을영남-분당구금곡동-16평형"
    ]
  },
  {
    "id": "apt-탑마을벽산-분당구야탑동",
    "name": "탑마을(벽산)",
    "address": "경기도 성남시 분당구 야탑동",
    "roadAddress": "경기도 성남시 분당구 야탑로 124",
    "type": "apartment",
    "lat": 37.40923319646003,
    "lng": 127.13280188443505,
    "buildYear": 1994,
    "units": [
      "apt-탑마을벽산-분당구야탑동-35평형",
      "apt-탑마을벽산-분당구야탑동-41평형",
      "apt-탑마을벽산-분당구야탑동-21평형",
      "apt-탑마을벽산-분당구야탑동-26평형",
      "apt-탑마을벽산-분당구야탑동-31평형",
      "apt-탑마을벽산-분당구야탑동-18평형"
    ]
  },
  {
    "id": "apt-장미마을현대-분당구야탑동",
    "name": "장미마을(현대)",
    "address": "경기도 성남시 분당구 야탑동",
    "roadAddress": "경기도 성남시 분당구 장미로 101",
    "type": "apartment",
    "lat": 37.4157831622142,
    "lng": 127.13351873607049,
    "buildYear": 1993,
    "units": [
      "apt-장미마을현대-분당구야탑동-23평형",
      "apt-장미마을현대-분당구야탑동-13평형",
      "apt-장미마을현대-분당구야탑동-26평형",
      "apt-장미마을현대-분당구야탑동-18평형",
      "apt-장미마을현대-분당구야탑동-40평형",
      "apt-장미마을현대-분당구야탑동-31평형"
    ]
  },
  {
    "id": "apt-판교원마을6단지판교대광로제비앙-분당구판교동",
    "name": "판교원마을6단지(판교대광로제비앙)",
    "address": "경기도 성남시 분당구 판교동",
    "roadAddress": "경기도 성남시 분당구 판교원로 209",
    "type": "apartment",
    "lat": 37.38795876627267,
    "lng": 127.08996567863022,
    "buildYear": 2009,
    "units": [
      "apt-판교원마을6단지판교대광로제비앙-분당구판교동-18평형",
      "apt-판교원마을6단지판교대광로제비앙-분당구판교동-25평형"
    ]
  },
  {
    "id": "apt-이매촌삼환-분당구이매동",
    "name": "이매촌(삼환)",
    "address": "경기도 성남시 분당구 이매동",
    "roadAddress": "경기도 성남시 분당구 양현로 220",
    "type": "apartment",
    "lat": 37.40401589992516,
    "lng": 127.12659099804361,
    "buildYear": 1994,
    "units": [
      "apt-이매촌삼환-분당구이매동-26평형",
      "apt-이매촌삼환-분당구이매동-31평형",
      "apt-이매촌삼환-분당구이매동-35평형",
      "apt-이매촌삼환-분당구이매동-40평형",
      "apt-이매촌삼환-분당구이매동-18평형"
    ]
  },
  {
    "id": "apt-까치마을4단지롯데-분당구구미동",
    "name": "까치마을(4단지)(롯데)",
    "address": "경기도 성남시 분당구 구미동",
    "roadAddress": "경기도 성남시 분당구 미금일로 58",
    "type": "apartment",
    "lat": 37.3461463070578,
    "lng": 127.11270536755715,
    "buildYear": 1995,
    "units": [
      "apt-까치마을4단지롯데-분당구구미동-16평형",
      "apt-까치마을4단지롯데-분당구구미동-21평형",
      "apt-까치마을4단지롯데-분당구구미동-41평형",
      "apt-까치마을4단지롯데-분당구구미동-26평형",
      "apt-까치마을4단지롯데-분당구구미동-31평형"
    ]
  },
  {
    "id": "apt-무지개10단지삼성-분당구구미동",
    "name": "무지개(10단지)(삼성)",
    "address": "경기도 성남시 분당구 구미동",
    "roadAddress": "경기도 성남시 분당구 구미로 100",
    "type": "apartment",
    "lat": 37.33858573011456,
    "lng": 127.12049294935093,
    "buildYear": 1996,
    "units": [
      "apt-무지개10단지삼성-분당구구미동-41평형",
      "apt-무지개10단지삼성-분당구구미동-31평형"
    ]
  },
  {
    "id": "apt-아름마을두산-분당구이매동",
    "name": "아름마을(두산)",
    "address": "경기도 성남시 분당구 이매동",
    "roadAddress": "경기도 성남시 분당구 탄천로 95",
    "type": "apartment",
    "lat": 37.39946034649496,
    "lng": 127.1210054714624,
    "buildYear": 1993,
    "units": [
      "apt-아름마을두산-분당구이매동-48평형",
      "apt-아름마을두산-분당구이매동-54평형",
      "apt-아름마을두산-분당구이매동-40평형",
      "apt-아름마을두산-분당구이매동-26평형",
      "apt-아름마을두산-분당구이매동-18평형",
      "apt-아름마을두산-분당구이매동-31평형"
    ]
  },
  {
    "id": "apt-상록마을라이프2차-분당구정자동",
    "name": "상록마을(라이프2차)",
    "address": "경기도 성남시 분당구 정자동",
    "roadAddress": "경기도 성남시 분당구 정자로76번길 10",
    "type": "apartment",
    "lat": 37.36186132067536,
    "lng": 127.11282478249714,
    "buildYear": 1994,
    "units": [
      "apt-상록마을라이프2차-분당구정자동-15평형",
      "apt-상록마을라이프2차-분당구정자동-26평형",
      "apt-상록마을라이프2차-분당구정자동-22평형"
    ]
  },
  {
    "id": "apt-아름마을풍림-분당구이매동",
    "name": "아름마을(풍림)",
    "address": "경기도 성남시 분당구 이매동",
    "roadAddress": "경기도 성남시 분당구 탄천로 35",
    "type": "apartment",
    "lat": 37.39599131665807,
    "lng": 127.12265655551501,
    "buildYear": 1993,
    "units": [
      "apt-아름마을풍림-분당구이매동-23평형",
      "apt-아름마을풍림-분당구이매동-41평형",
      "apt-아름마을풍림-분당구이매동-31평형",
      "apt-아름마을풍림-분당구이매동-18평형",
      "apt-아름마을풍림-분당구이매동-49평형"
    ]
  },
  {
    "id": "apt-봇들마을2단지이지더원-분당구삼평동",
    "name": "봇들마을2단지(이지더원)",
    "address": "경기도 성남시 분당구 삼평동",
    "roadAddress": "경기도 성남시 분당구 판교로 393",
    "type": "apartment",
    "lat": 37.40584292722917,
    "lng": 127.11831139098672,
    "buildYear": 2009,
    "units": [
      "apt-봇들마을2단지이지더원-분당구삼평동-25평형"
    ]
  },
  {
    "id": "apt-판교원마을1단지파라곤-분당구판교동",
    "name": "판교원마을1단지(파라곤)",
    "address": "경기도 성남시 분당구 판교동",
    "roadAddress": "경기도 성남시 분당구 판교로 50",
    "type": "apartment",
    "lat": 37.39072501297497,
    "lng": 127.08650213314795,
    "buildYear": 2009,
    "units": [
      "apt-판교원마을1단지파라곤-분당구판교동-31평형",
      "apt-판교원마을1단지파라곤-분당구판교동-36평형",
      "apt-판교원마을1단지파라곤-분당구판교동-46평형"
    ]
  },
  {
    "id": "apt-성원상떼뷰201동-분당구정자동",
    "name": "성원상떼뷰201동",
    "address": "경기도 성남시 분당구 정자동",
    "roadAddress": "경기도 성남시 분당구 정자일로213번길 18",
    "type": "apartment",
    "lat": 37.370290866171175,
    "lng": 127.10562433707565,
    "buildYear": 2004,
    "units": [
      "apt-성원상떼뷰201동-분당구정자동-44평형",
      "apt-성원상떼뷰201동-분당구정자동-26평형"
    ]
  },
  {
    "id": "apt-산운마을11단지판교포레라움-분당구운중동",
    "name": "산운마을11단지(판교포레라움)",
    "address": "경기도 성남시 분당구 운중동",
    "roadAddress": "경기도 성남시 분당구 판교원로 68",
    "type": "apartment",
    "lat": 37.388416261312024,
    "lng": 127.07489847219924,
    "buildYear": 2009,
    "units": [
      "apt-산운마을11단지판교포레라움-분당구운중동-18평형",
      "apt-산운마을11단지판교포레라움-분당구운중동-15평형"
    ]
  },
  {
    "id": "apt-까치마을1단지대우롯데선경-분당구구미동",
    "name": "까치마을(1단지)(대우롯데선경)",
    "address": "경기도 성남시 분당구 구미동",
    "roadAddress": "경기도 성남시 분당구 미금로 184",
    "type": "apartment",
    "lat": 37.34973648733548,
    "lng": 127.11742541763454,
    "buildYear": 1995,
    "units": [
      "apt-까치마을1단지대우롯데선경-분당구구미동-21평형",
      "apt-까치마을1단지대우롯데선경-분당구구미동-26평형",
      "apt-까치마을1단지대우롯데선경-분당구구미동-16평형",
      "apt-까치마을1단지대우롯데선경-분당구구미동-41평형",
      "apt-까치마을1단지대우롯데선경-분당구구미동-31평형"
    ]
  },
  {
    "id": "apt-봇들마을1단지판교신미주-분당구삼평동",
    "name": "봇들마을1단지(판교신미주)",
    "address": "경기도 성남시 분당구 삼평동",
    "roadAddress": "경기도 성남시 분당구 동판교로 275",
    "type": "apartment",
    "lat": 37.40782787647457,
    "lng": 127.11473583707375,
    "buildYear": 2009,
    "units": [
      "apt-봇들마을1단지판교신미주-분당구삼평동-25평형"
    ]
  },
  {
    "id": "apt-산운마을13단지태영-분당구운중동",
    "name": "산운마을13단지(태영)",
    "address": "경기도 성남시 분당구 운중동",
    "roadAddress": "경기도 성남시 분당구 판교원로82번길 30",
    "type": "apartment",
    "lat": 37.387330147508564,
    "lng": 127.07416329540524,
    "buildYear": 2010,
    "units": [
      "apt-산운마을13단지태영-분당구운중동-35평형",
      "apt-산운마을13단지태영-분당구운중동-26평형",
      "apt-산운마을13단지태영-분당구운중동-31평형"
    ]
  },
  {
    "id": "apt-파크타운롯데-분당구수내동",
    "name": "파크타운(롯데)",
    "address": "경기도 성남시 분당구 수내동",
    "roadAddress": "경기도 성남시 분당구 내정로 152",
    "type": "apartment",
    "lat": 37.37177527206484,
    "lng": 127.11851411331301,
    "buildYear": 1993,
    "units": [
      "apt-파크타운롯데-분당구수내동-31평형",
      "apt-파크타운롯데-분당구수내동-26평형",
      "apt-파크타운롯데-분당구수내동-41평형",
      "apt-파크타운롯데-분당구수내동-40평형",
      "apt-파크타운롯데-분당구수내동-56평형",
      "apt-파크타운롯데-분당구수내동-58평형"
    ]
  },
  {
    "id": "apt-장미마을코오롱1-분당구야탑동",
    "name": "장미마을(코오롱)1",
    "address": "경기도 성남시 분당구 야탑동",
    "roadAddress": "경기도 성남시 분당구 장미로 55",
    "type": "apartment",
    "lat": 37.41571535717529,
    "lng": 127.1263507949257,
    "buildYear": 1993,
    "units": [
      "apt-장미마을코오롱1-분당구야탑동-18평형",
      "apt-장미마을코오롱1-분당구야탑동-22평형",
      "apt-장미마을코오롱1-분당구야탑동-41평형",
      "apt-장미마을코오롱1-분당구야탑동-26평형",
      "apt-장미마을코오롱1-분당구야탑동-31평형"
    ]
  },
  {
    "id": "apt-효자촌미래타운-분당구서현동",
    "name": "효자촌(미래타운)",
    "address": "경기도 성남시 분당구 서현동",
    "roadAddress": "경기도 성남시 분당구 불정로376번길 31",
    "type": "apartment",
    "lat": 37.372302485564205,
    "lng": 127.13866941754094,
    "buildYear": 1994,
    "units": [
      "apt-효자촌미래타운-분당구서현동-41평형",
      "apt-효자촌미래타운-분당구서현동-31평형"
    ]
  },
  {
    "id": "apt-이매촌동신9-분당구이매동",
    "name": "이매촌(동신9)",
    "address": "경기도 성남시 분당구 이매동",
    "roadAddress": "경기도 성남시 분당구 양현로166번길 20",
    "type": "apartment",
    "lat": 37.39891860411242,
    "lng": 127.12785914319136,
    "buildYear": 1992,
    "units": [
      "apt-이매촌동신9-분당구이매동-35평형",
      "apt-이매촌동신9-분당구이매동-18평형",
      "apt-이매촌동신9-분당구이매동-31평형",
      "apt-이매촌동신9-분당구이매동-26평형",
      "apt-이매촌동신9-분당구이매동-41평형"
    ]
  },
  {
    "id": "apt-무지개7단지라이프-분당구구미동",
    "name": "무지개(7단지)(라이프)",
    "address": "경기도 성남시 분당구 구미동",
    "roadAddress": "경기도 성남시 분당구 구미로 143",
    "type": "apartment",
    "lat": 37.342145389610764,
    "lng": 127.12361449184769,
    "buildYear": 1995,
    "units": [
      "apt-무지개7단지라이프-분당구구미동-40평형",
      "apt-무지개7단지라이프-분당구구미동-49평형",
      "apt-무지개7단지라이프-분당구구미동-31평형"
    ]
  },
  {
    "id": "apt-삼성아데나루체-분당구정자동",
    "name": "삼성아데나루체",
    "address": "경기도 성남시 분당구 정자동",
    "roadAddress": "경기도 성남시 분당구 정자일로 120",
    "type": "apartment",
    "lat": 37.360287847302146,
    "lng": 127.10651836243318,
    "buildYear": 2004,
    "units": [
      "apt-삼성아데나루체-분당구정자동-39평형",
      "apt-삼성아데나루체-분당구정자동-26평형",
      "apt-삼성아데나루체-분당구정자동-46평형",
      "apt-삼성아데나루체-분당구정자동-43평형",
      "apt-삼성아데나루체-분당구정자동-41평형"
    ]
  },
  {
    "id": "apt-한솔마을6단지주공-분당구정자동",
    "name": "한솔마을(6단지)(주공)",
    "address": "경기도 성남시 분당구 정자동",
    "roadAddress": "경기도 성남시 분당구 내정로 54",
    "type": "apartment",
    "lat": 37.36457730348384,
    "lng": 127.11564534757265,
    "buildYear": 1995,
    "units": [
      "apt-한솔마을6단지주공-분당구정자동-12평형",
      "apt-한솔마을6단지주공-분당구정자동-18평형",
      "apt-한솔마을6단지주공-분당구정자동-11평형"
    ]
  },
  {
    "id": "apt-산운마을12단지판교센트럴포레와이시티-분당구운중동",
    "name": "산운마을12단지판교센트럴포레와이시티",
    "address": "경기도 성남시 분당구 운중동",
    "roadAddress": "경기도 성남시 분당구 판교원로 46",
    "type": "apartment",
    "lat": 37.3895479986616,
    "lng": 127.07105997881627,
    "buildYear": 2009,
    "units": [
      "apt-산운마을12단지판교센트럴포레와이시티-분당구운중동-17평형",
      "apt-산운마을12단지판교센트럴포레와이시티-분당구운중동-18평형"
    ]
  },
  {
    "id": "apt-탑마을경남1-분당구야탑동",
    "name": "탑마을(경남)1",
    "address": "경기도 성남시 분당구 야탑동",
    "roadAddress": "경기도 성남시 분당구 판교로 519",
    "type": "apartment",
    "lat": 37.40657050111653,
    "lng": 127.13059813766256,
    "buildYear": 1994,
    "units": [
      "apt-탑마을경남1-분당구야탑동-41평형",
      "apt-탑마을경남1-분당구야탑동-21평형",
      "apt-탑마을경남1-분당구야탑동-35평형",
      "apt-탑마을경남1-분당구야탑동-31평형",
      "apt-탑마을경남1-분당구야탑동-26평형",
      "apt-탑마을경남1-분당구야탑동-18평형"
    ]
  },
  {
    "id": "apt-아름마을삼호-분당구이매동",
    "name": "아름마을(삼호)",
    "address": "경기도 성남시 분당구 이매동",
    "roadAddress": "경기도 성남시 분당구 탄천로 95",
    "type": "apartment",
    "lat": 37.39946034649496,
    "lng": 127.1210054714624,
    "buildYear": 1993,
    "units": [
      "apt-아름마을삼호-분당구이매동-40평형",
      "apt-아름마을삼호-분당구이매동-48평형",
      "apt-아름마을삼호-분당구이매동-26평형",
      "apt-아름마을삼호-분당구이매동-18평형",
      "apt-아름마을삼호-분당구이매동-31평형"
    ]
  },
  {
    "id": "apt-현대IPARK-분당구야탑동",
    "name": "현대I-PARK",
    "address": "경기도 성남시 분당구 야탑동",
    "roadAddress": "경기도 성남시 분당구 야탑로 125",
    "type": "apartment",
    "lat": 37.41043158044985,
    "lng": 127.13183458821226,
    "buildYear": 2003,
    "units": [
      "apt-현대IPARK-분당구야탑동-44평형",
      "apt-현대IPARK-분당구야탑동-36평형",
      "apt-현대IPARK-분당구야탑동-54평형"
    ]
  },
  {
    "id": "apt-두산위브트레지움-분당구금곡동",
    "name": "두산위브트레지움",
    "address": "경기도 성남시 분당구 금곡동",
    "roadAddress": "경기도 성남시 분당구 정자일로 55",
    "type": "apartment",
    "lat": 37.354400945959,
    "lng": 127.10504710464852,
    "buildYear": 2003,
    "units": [
      "apt-두산위브트레지움-분당구금곡동-45평형",
      "apt-두산위브트레지움-분당구금곡동-26평형",
      "apt-두산위브트레지움-분당구금곡동-37평형",
      "apt-두산위브트레지움-분당구금곡동-36평형"
    ]
  },
  {
    "id": "apt-이매촌진흥-분당구이매동",
    "name": "이매촌(진흥)",
    "address": "경기도 성남시 분당구 이매동",
    "roadAddress": "경기도 성남시 분당구 양현로 138",
    "type": "apartment",
    "lat": 37.395944156023646,
    "lng": 127.12581834799946,
    "buildYear": 1993,
    "units": [
      "apt-이매촌진흥-분당구이매동-41평형",
      "apt-이매촌진흥-분당구이매동-26평형",
      "apt-이매촌진흥-분당구이매동-18평형",
      "apt-이매촌진흥-분당구이매동-31평형"
    ]
  },
  {
    "id": "apt-양지마을3단지금호-분당구수내동",
    "name": "양지마을(3단지)(금호)",
    "address": "경기도 성남시 분당구 수내동",
    "roadAddress": "경기도 성남시 분당구 내정로 151",
    "type": "apartment",
    "lat": 37.37371737150415,
    "lng": 127.11761212741965,
    "buildYear": 1992,
    "units": [
      "apt-양지마을3단지금호-분당구수내동-31평형",
      "apt-양지마을3단지금호-분당구수내동-41평형",
      "apt-양지마을3단지금호-분당구수내동-58평형"
    ]
  },
  {
    "id": "apt-까치마을4단지선경-분당구구미동",
    "name": "까치마을(4단지)(선경)",
    "address": "경기도 성남시 분당구 구미동",
    "roadAddress": "경기도 성남시 분당구 미금일로 58",
    "type": "apartment",
    "lat": 37.3461463070578,
    "lng": 127.11270536755715,
    "buildYear": 1995,
    "units": [
      "apt-까치마을4단지선경-분당구구미동-16평형",
      "apt-까치마을4단지선경-분당구구미동-26평형",
      "apt-까치마을4단지선경-분당구구미동-21평형",
      "apt-까치마을4단지선경-분당구구미동-31평형",
      "apt-까치마을4단지선경-분당구구미동-41평형"
    ]
  },
  {
    "id": "apt-힐스테이트판교엘포레A4BL-분당구대장동",
    "name": "힐스테이트판교엘포레A4BL",
    "address": "경기도 성남시 분당구 대장동",
    "roadAddress": "경기도 성남시 분당구 판교대장로5길 19",
    "type": "apartment",
    "lat": 37.365479235420366,
    "lng": 127.0705131314763,
    "buildYear": 2021,
    "units": [
      "apt-힐스테이트판교엘포레A4BL-분당구대장동-40평형"
    ]
  },
  {
    "id": "apt-분당하우스토리-분당구금곡동",
    "name": "분당하우스토리",
    "address": "경기도 성남시 분당구 금곡동",
    "roadAddress": "경기도 성남시 분당구 정자일로 15",
    "type": "apartment",
    "lat": 37.351901746974924,
    "lng": 127.10492684378062,
    "buildYear": 2004,
    "units": [
      "apt-분당하우스토리-분당구금곡동-54평형",
      "apt-분당하우스토리-분당구금곡동-26평형",
      "apt-분당하우스토리-분당구금곡동-40평형",
      "apt-분당하우스토리-분당구금곡동-48평형"
    ]
  },
  {
    "id": "apt-매화마을주공4-분당구야탑동",
    "name": "매화마을(주공4)",
    "address": "경기도 성남시 분당구 야탑동",
    "roadAddress": "경기도 성남시 분당구 장미로 193",
    "type": "apartment",
    "lat": 37.413164328198164,
    "lng": 127.1415755116445,
    "buildYear": 1993,
    "units": [
      "apt-매화마을주공4-분당구야탑동-11평형",
      "apt-매화마을주공4-분당구야탑동-13평형"
    ]
  },
  {
    "id": "apt-산운마을9단지대방노블랜드-분당구운중동",
    "name": "산운마을9단지(대방노블랜드)",
    "address": "경기도 성남시 분당구 운중동",
    "roadAddress": "경기도 성남시 분당구 산운로 126",
    "type": "apartment",
    "lat": 37.39269369773022,
    "lng": 127.07464765759043,
    "buildYear": 2008,
    "units": [
      "apt-산운마을9단지대방노블랜드-분당구운중동-26평형",
      "apt-산운마을9단지대방노블랜드-분당구운중동-18평형"
    ]
  },
  {
    "id": "apt-효자촌럭키-분당구서현동",
    "name": "효자촌(럭키)",
    "address": "경기도 성남시 분당구 서현동",
    "roadAddress": "경기도 성남시 분당구 불정로 362",
    "type": "apartment",
    "lat": 37.37336956453511,
    "lng": 127.13605371490306,
    "buildYear": 1994,
    "units": [
      "apt-효자촌럭키-분당구서현동-16평형",
      "apt-효자촌럭키-분당구서현동-21평형",
      "apt-효자촌럭키-분당구서현동-26평형"
    ]
  },
  {
    "id": "apt-하얀마을5단지주공-분당구구미동",
    "name": "하얀마을(5단지)(주공)",
    "address": "경기도 성남시 분당구 구미동",
    "roadAddress": "경기도 성남시 분당구 미금일로 21",
    "type": "apartment",
    "lat": 37.346166404542245,
    "lng": 127.11714114613412,
    "buildYear": 1995,
    "units": [
      "apt-하얀마을5단지주공-분당구구미동-11평형",
      "apt-하얀마을5단지주공-분당구구미동-12평형"
    ]
  },
  {
    "id": "apt-샛별마을삼부-분당구분당동",
    "name": "샛별마을(삼부)",
    "address": "경기도 성남시 분당구 분당동",
    "roadAddress": "경기도 성남시 분당구 수내로 201",
    "type": "apartment",
    "lat": 37.371062112445,
    "lng": 127.1293546572042,
    "buildYear": 1992,
    "units": [
      "apt-샛별마을삼부-분당구분당동-18평형",
      "apt-샛별마을삼부-분당구분당동-39평형",
      "apt-샛별마을삼부-분당구분당동-26평형",
      "apt-샛별마을삼부-분당구분당동-21평형"
    ]
  },
  {
    "id": "apt-아름마을건영-분당구이매동",
    "name": "아름마을(건영)",
    "address": "경기도 성남시 분당구 이매동",
    "roadAddress": "경기도 성남시 분당구 판교로 430",
    "type": "apartment",
    "lat": 37.40476623433682,
    "lng": 127.1218662700548,
    "buildYear": 1992,
    "units": [
      "apt-아름마을건영-분당구이매동-41평형",
      "apt-아름마을건영-분당구이매동-59평형",
      "apt-아름마을건영-분당구이매동-31평형",
      "apt-아름마을건영-분당구이매동-49평형"
    ]
  },
  {
    "id": "apt-더샵분당파크리버-분당구정자동",
    "name": "더샵분당파크리버",
    "address": "경기도 성남시 분당구 정자동",
    "roadAddress": "경기도 성남시 분당구 돌마로 171",
    "type": "apartment",
    "lat": 37.35517399455546,
    "lng": 127.11668676078948,
    "buildYear": 2021,
    "units": [
      "apt-더샵분당파크리버-분당구정자동-23평형",
      "apt-더샵분당파크리버-분당구정자동-18평형",
      "apt-더샵분당파크리버-분당구정자동-26평형"
    ]
  },
  {
    "id": "apt-판교푸르지오그랑블-분당구백현동",
    "name": "판교푸르지오그랑블",
    "address": "경기도 성남시 분당구 백현동",
    "roadAddress": "경기도 성남시 분당구 동판교로 123",
    "type": "apartment",
    "lat": 37.39432889100982,
    "lng": 127.11489563848703,
    "buildYear": 2011,
    "units": [
      "apt-판교푸르지오그랑블-분당구백현동-30평형",
      "apt-판교푸르지오그랑블-분당구백현동-36평형",
      "apt-판교푸르지오그랑블-분당구백현동-31평형",
      "apt-판교푸르지오그랑블-분당구백현동-42평형",
      "apt-판교푸르지오그랑블-분당구백현동-32평형"
    ]
  },
  {
    "id": "apt-효자촌동아-분당구서현동",
    "name": "효자촌(동아)",
    "address": "경기도 성남시 분당구 서현동",
    "roadAddress": "경기도 성남시 분당구 돌마로486번길 7",
    "type": "apartment",
    "lat": 37.37746444333287,
    "lng": 127.13421288125987,
    "buildYear": 1992,
    "units": [
      "apt-효자촌동아-분당구서현동-18평형",
      "apt-효자촌동아-분당구서현동-26평형",
      "apt-효자촌동아-분당구서현동-31평형",
      "apt-효자촌동아-분당구서현동-50평형",
      "apt-효자촌동아-분당구서현동-39평형"
    ]
  },
  {
    "id": "apt-판교원마을12단지힐스테이트-분당구판교동",
    "name": "판교원마을12단지(힐스테이트)",
    "address": "경기도 성남시 분당구 판교동",
    "roadAddress": "경기도 성남시 분당구 서판교로 165",
    "type": "apartment",
    "lat": 37.40007150444846,
    "lng": 127.09394427816937,
    "buildYear": 2009,
    "units": [
      "apt-판교원마을12단지힐스테이트-분당구판교동-36평형",
      "apt-판교원마을12단지힐스테이트-분당구판교동-31평형",
      "apt-판교원마을12단지힐스테이트-분당구판교동-35평형",
      "apt-판교원마을12단지힐스테이트-분당구판교동-45평형"
    ]
  },
  {
    "id": "apt-판교원마을11단지힐스테이트-분당구판교동",
    "name": "판교원마을11단지(힐스테이트)",
    "address": "경기도 성남시 분당구 판교동",
    "roadAddress": "경기도 성남시 분당구 서판교로 147",
    "type": "apartment",
    "lat": 37.39877100301553,
    "lng": 127.09480626694858,
    "buildYear": 2009,
    "units": [
      "apt-판교원마을11단지힐스테이트-분당구판교동-36평형",
      "apt-판교원마을11단지힐스테이트-분당구판교동-31평형",
      "apt-판교원마을11단지힐스테이트-분당구판교동-35평형"
    ]
  },
  {
    "id": "apt-느티마을4단지공무원-분당구정자동",
    "name": "느티마을(4단지)(공무원)",
    "address": "경기도 성남시 분당구 정자동",
    "roadAddress": "경기도 성남시 분당구 느티로 70",
    "type": "apartment",
    "lat": 37.368341724381445,
    "lng": 127.11206405549012,
    "buildYear": 1994,
    "units": [
      "apt-느티마을4단지공무원-분당구정자동-20평형",
      "apt-느티마을4단지공무원-분당구정자동-18평형"
    ]
  },
  {
    "id": "apt-탑마을경향-분당구야탑동",
    "name": "탑마을(경향)",
    "address": "경기도 성남시 분당구 야탑동",
    "roadAddress": "경기도 성남시 분당구 양현로 272",
    "type": "apartment",
    "lat": 37.40920530493253,
    "lng": 127.1264333905219,
    "buildYear": 1993,
    "units": [
      "apt-탑마을경향-분당구야탑동-40평형",
      "apt-탑마을경향-분당구야탑동-31평형"
    ]
  },
  {
    "id": "apt-상록마을임광-분당구정자동",
    "name": "상록마을(임광)",
    "address": "경기도 성남시 분당구 정자동",
    "roadAddress": "경기도 성남시 분당구 정자일로 80",
    "type": "apartment",
    "lat": 37.35820253351723,
    "lng": 127.10713791387272,
    "buildYear": 1995,
    "units": [
      "apt-상록마을임광-분당구정자동-26평형",
      "apt-상록마을임광-분당구정자동-15평형",
      "apt-상록마을임광-분당구정자동-20평형"
    ]
  },
  {
    "id": "apt-한솔마을2단지LG-분당구정자동",
    "name": "한솔마을(2단지)(LG)",
    "address": "경기도 성남시 분당구 정자동",
    "roadAddress": "경기도 성남시 분당구 정자로 143",
    "type": "apartment",
    "lat": 37.364461828138985,
    "lng": 127.12085696682462,
    "buildYear": 1995,
    "units": [
      "apt-한솔마을2단지LG-분당구정자동-31평형",
      "apt-한솔마을2단지LG-분당구정자동-41평형",
      "apt-한솔마을2단지LG-분당구정자동-50평형"
    ]
  },
  {
    "id": "apt-무지개1단지대림-분당구구미동",
    "name": "무지개(1단지)(대림)",
    "address": "경기도 성남시 분당구 구미동",
    "roadAddress": "경기도 성남시 분당구 미금로 23",
    "type": "apartment",
    "lat": 37.33545535699527,
    "lng": 127.11735266594968,
    "buildYear": 1995,
    "units": [
      "apt-무지개1단지대림-분당구구미동-18평형",
      "apt-무지개1단지대림-분당구구미동-14평형",
      "apt-무지개1단지대림-분당구구미동-26평형",
      "apt-무지개1단지대림-분당구구미동-38평형",
      "apt-무지개1단지대림-분당구구미동-40평형",
      "apt-무지개1단지대림-분당구구미동-31평형"
    ]
  },
  {
    "id": "apt-백현마을2단지-분당구백현동",
    "name": "백현마을2단지",
    "address": "경기도 성남시 분당구 백현동",
    "roadAddress": "경기도 성남시 분당구 동판교로 122",
    "type": "apartment",
    "lat": 37.39309712027169,
    "lng": 127.11732764199024,
    "buildYear": 2009,
    "units": [
      "apt-백현마을2단지-분당구백현동-26평형",
      "apt-백현마을2단지-분당구백현동-31평형",
      "apt-백현마을2단지-분당구백현동-36평형"
    ]
  },
  {
    "id": "apt-푸른마을벽산-분당구수내동",
    "name": "푸른마을(벽산)",
    "address": "경기도 성남시 분당구 수내동",
    "roadAddress": "경기도 성남시 분당구 수내로 206",
    "type": "apartment",
    "lat": 37.36928939942588,
    "lng": 127.126186846012,
    "buildYear": 1992,
    "units": [
      "apt-푸른마을벽산-분당구수내동-31평형",
      "apt-푸른마을벽산-분당구수내동-18평형",
      "apt-푸른마을벽산-분당구수내동-26평형",
      "apt-푸른마을벽산-분당구수내동-40평형",
      "apt-푸른마을벽산-분당구수내동-50평형",
      "apt-푸른마을벽산-분당구수내동-53평형",
      "apt-푸른마을벽산-분당구수내동-42평형"
    ]
  },
  {
    "id": "apt-한솔마을3단지한일-분당구정자동",
    "name": "한솔마을(3단지)(한일)",
    "address": "경기도 성남시 분당구 정자동",
    "roadAddress": "경기도 성남시 분당구 백현로 234",
    "type": "apartment",
    "lat": 37.36707222974242,
    "lng": 127.12131528387587,
    "buildYear": 1993,
    "units": [
      "apt-한솔마을3단지한일-분당구정자동-26평형",
      "apt-한솔마을3단지한일-분당구정자동-18평형",
      "apt-한솔마을3단지한일-분당구정자동-39평형",
      "apt-한솔마을3단지한일-분당구정자동-31평형"
    ]
  },
  {
    "id": "apt-매화마을공무원1-분당구야탑동",
    "name": "매화마을공무원1",
    "address": "경기도 성남시 분당구 야탑동",
    "roadAddress": "경기도 성남시 분당구 매화로 92",
    "type": "apartment",
    "lat": 37.41608649416328,
    "lng": 127.13572785132976,
    "buildYear": 1995,
    "units": [
      "apt-매화마을공무원1-분당구야탑동-18평형",
      "apt-매화마을공무원1-분당구야탑동-15평형"
    ]
  },
  {
    "id": "apt-무지개9단지동아-분당구구미동",
    "name": "무지개(9단지)(동아)",
    "address": "경기도 성남시 분당구 구미동",
    "roadAddress": "경기도 성남시 분당구 구미로144번길 8",
    "type": "apartment",
    "lat": 37.341009005148166,
    "lng": 127.12408360180488,
    "buildYear": 1995,
    "units": [
      "apt-무지개9단지동아-분당구구미동-31평형",
      "apt-무지개9단지동아-분당구구미동-41평형"
    ]
  },
  {
    "id": "apt-장안타운건영-분당구분당동",
    "name": "장안타운(건영)",
    "address": "경기도 성남시 분당구 분당동",
    "roadAddress": "경기도 성남시 분당구 분당로263번길 24",
    "type": "apartment",
    "lat": 37.370640303082524,
    "lng": 127.13954727619915,
    "buildYear": 1993,
    "units": [
      "apt-장안타운건영-분당구분당동-26평형",
      "apt-장안타운건영-분당구분당동-21평형",
      "apt-장안타운건영-분당구분당동-40평형",
      "apt-장안타운건영-분당구분당동-20평형",
      "apt-장안타운건영-분당구분당동-49평형",
      "apt-장안타운건영-분당구분당동-16평형",
      "apt-장안타운건영-분당구분당동-31평형"
    ]
  },
  {
    "id": "apt-무지개3단지건영-분당구구미동",
    "name": "무지개(3단지)(건영)",
    "address": "경기도 성남시 분당구 구미동",
    "roadAddress": "경기도 성남시 분당구 미금로 63",
    "type": "apartment",
    "lat": 37.33836671172038,
    "lng": 127.11561808387708,
    "buildYear": 1996,
    "units": [
      "apt-무지개3단지건영-분당구구미동-21평형",
      "apt-무지개3단지건영-분당구구미동-16평형",
      "apt-무지개3단지건영-분당구구미동-26평형"
    ]
  },
  {
    "id": "apt-상록마을보성-분당구정자동",
    "name": "상록마을(보성)",
    "address": "경기도 성남시 분당구 정자동",
    "roadAddress": "경기도 성남시 분당구 정자일로 80",
    "type": "apartment",
    "lat": 37.35820253351723,
    "lng": 127.10713791387272,
    "buildYear": 1995,
    "units": [
      "apt-상록마을보성-분당구정자동-20평형",
      "apt-상록마을보성-분당구정자동-15평형",
      "apt-상록마을보성-분당구정자동-26평형"
    ]
  },
  {
    "id": "apt-효자촌화성-분당구서현동",
    "name": "효자촌(화성)",
    "address": "경기도 성남시 분당구 서현동",
    "roadAddress": "경기도 성남시 분당구 불정로 362",
    "type": "apartment",
    "lat": 37.37336956453511,
    "lng": 127.13605371490306,
    "buildYear": 1994,
    "units": [
      "apt-효자촌화성-분당구서현동-16평형",
      "apt-효자촌화성-분당구서현동-26평형",
      "apt-효자촌화성-분당구서현동-21평형"
    ]
  },
  {
    "id": "apt-샛별마을우방-분당구분당동",
    "name": "샛별마을(우방)",
    "address": "경기도 성남시 분당구 분당동",
    "roadAddress": "경기도 성남시 분당구 수내로 181",
    "type": "apartment",
    "lat": 37.371651172106816,
    "lng": 127.12652749997105,
    "buildYear": 1994,
    "units": [
      "apt-샛별마을우방-분당구분당동-17평형",
      "apt-샛별마을우방-분당구분당동-22평형",
      "apt-샛별마을우방-분당구분당동-26평형",
      "apt-샛별마을우방-분당구분당동-31평형",
      "apt-샛별마을우방-분당구분당동-56평형",
      "apt-샛별마을우방-분당구분당동-40평형"
    ]
  },
  {
    "id": "apt-양지마을6단지금호청구-분당구수내동",
    "name": "양지마을(6단지)(금호,청구)",
    "address": "경기도 성남시 분당구 수내동",
    "roadAddress": "경기도 성남시 분당구 내정로165번길 38",
    "type": "apartment",
    "lat": 37.37657108788213,
    "lng": 127.11625427446239,
    "buildYear": 1992,
    "units": [
      "apt-양지마을6단지금호청구-분당구수내동-17평형",
      "apt-양지마을6단지금호청구-분당구수내동-20평형",
      "apt-양지마을6단지금호청구-분당구수내동-18평형"
    ]
  },
  {
    "id": "apt-무지개2단지엘지-분당구구미동",
    "name": "무지개(2단지)(엘지)",
    "address": "경기도 성남시 분당구 구미동",
    "roadAddress": "경기도 성남시 분당구 구미로 50",
    "type": "apartment",
    "lat": 37.33639909018336,
    "lng": 127.11405164497984,
    "buildYear": 1995,
    "units": [
      "apt-무지개2단지엘지-분당구구미동-15평형",
      "apt-무지개2단지엘지-분당구구미동-26평형",
      "apt-무지개2단지엘지-분당구구미동-41평형",
      "apt-무지개2단지엘지-분당구구미동-31평형",
      "apt-무지개2단지엘지-분당구구미동-22평형"
    ]
  },
  {
    "id": "apt-판교더샵포레스트12단지-분당구대장동",
    "name": "판교더샵포레스트12단지",
    "address": "경기도 성남시 분당구 대장동",
    "roadAddress": "경기도 성남시 분당구 판교대장로5길 30",
    "type": "apartment",
    "lat": 37.36486810343186,
    "lng": 127.07154297940465,
    "buildYear": 2021,
    "units": [
      "apt-판교더샵포레스트12단지-분당구대장동-26평형"
    ]
  },
  {
    "id": "apt-산운마을10단지대광로제비앙-분당구운중동",
    "name": "산운마을10단지(대광로제비앙)",
    "address": "경기도 성남시 분당구 운중동",
    "roadAddress": "경기도 성남시 분당구 판교원로81번길 15",
    "type": "apartment",
    "lat": 37.39063223078621,
    "lng": 127.0751171468074,
    "buildYear": 2009,
    "units": [
      "apt-산운마을10단지대광로제비앙-분당구운중동-18평형",
      "apt-산운마을10단지대광로제비앙-분당구운중동-25평형"
    ]
  },
  {
    "id": "apt-목련마을영남-분당구야탑동",
    "name": "목련마을(영남)",
    "address": "경기도 성남시 분당구 야탑동",
    "roadAddress": "경기도 성남시 분당구 판교로 669",
    "type": "apartment",
    "lat": 37.40572614884576,
    "lng": 127.14697337360204,
    "buildYear": 1995,
    "units": [
      "apt-목련마을영남-분당구야탑동-26평형",
      "apt-목련마을영남-분당구야탑동-16평형"
    ]
  },
  {
    "id": "apt-탑마을기산1-분당구야탑동",
    "name": "탑마을(기산)1",
    "address": "경기도 성남시 분당구 야탑동",
    "roadAddress": "경기도 성남시 분당구 양현로 272",
    "type": "apartment",
    "lat": 37.40920530493253,
    "lng": 127.1264333905219,
    "buildYear": 1993,
    "units": [
      "apt-탑마을기산1-분당구야탑동-40평형",
      "apt-탑마을기산1-분당구야탑동-31평형"
    ]
  },
  {
    "id": "apt-청솔마을공무원-분당구금곡동",
    "name": "청솔마을(공무원)",
    "address": "경기도 성남시 분당구 금곡동",
    "roadAddress": "경기도 성남시 분당구 금곡로 263",
    "type": "apartment",
    "lat": 37.355525560494456,
    "lng": 127.11217012458238,
    "buildYear": 1995,
    "units": [
      "apt-청솔마을공무원-분당구금곡동-18평형",
      "apt-청솔마을공무원-분당구금곡동-20평형"
    ]
  },
  {
    "id": "apt-판교퍼스트힐푸르지오A2-분당구대장동",
    "name": "판교퍼스트힐푸르지오A2",
    "address": "경기도 성남시 분당구 대장동",
    "roadAddress": "경기도 성남시 분당구 판교대장로7길 57",
    "type": "apartment",
    "lat": 37.37443918453398,
    "lng": 127.06950492163415,
    "buildYear": 2021,
    "units": [
      "apt-판교퍼스트힐푸르지오A2-분당구대장동-26평형"
    ]
  },
  {
    "id": "apt-판교원마을3단지푸르지오-분당구판교동",
    "name": "판교원마을3단지(푸르지오)",
    "address": "경기도 성남시 분당구 판교동",
    "roadAddress": "경기도 성남시 분당구 판교로 20",
    "type": "apartment",
    "lat": 37.38838336765685,
    "lng": 127.08536542247819,
    "buildYear": 2009,
    "units": [
      "apt-판교원마을3단지푸르지오-분당구판교동-45평형",
      "apt-판교원마을3단지푸르지오-분당구판교동-26평형",
      "apt-판교원마을3단지푸르지오-분당구판교동-35평형",
      "apt-판교원마을3단지푸르지오-분당구판교동-31평형"
    ]
  },
  {
    "id": "apt-청솔마을대원-분당구금곡동",
    "name": "청솔마을(대원)",
    "address": "경기도 성남시 분당구 금곡동",
    "roadAddress": "경기도 성남시 분당구 미금로 215",
    "type": "apartment",
    "lat": 37.35148735351913,
    "lng": 127.1137784654635,
    "buildYear": 1995,
    "units": [
      "apt-청솔마을대원-분당구금곡동-39평형",
      "apt-청솔마을대원-분당구금곡동-26평형",
      "apt-청솔마을대원-분당구금곡동-31평형",
      "apt-청솔마을대원-분당구금곡동-15평형"
    ]
  },
  {
    "id": "apt-목련마을한일-분당구야탑동",
    "name": "목련마을(한일)",
    "address": "경기도 성남시 분당구 야탑동",
    "roadAddress": "경기도 성남시 분당구 판교로 645",
    "type": "apartment",
    "lat": 37.40598878721976,
    "lng": 127.14445075468504,
    "buildYear": 1995,
    "units": [
      "apt-목련마을한일-분당구야탑동-15평형",
      "apt-목련마을한일-분당구야탑동-26평형"
    ]
  },
  {
    "id": "apt-시범한신-분당구서현동",
    "name": "시범한신",
    "address": "경기도 성남시 분당구 서현동",
    "roadAddress": "경기도 성남시 분당구 중앙공원로 53",
    "type": "apartment",
    "lat": 37.3831050563593,
    "lng": 127.12924833223092,
    "buildYear": 1991,
    "units": [
      "apt-시범한신-분당구서현동-18평형",
      "apt-시범한신-분당구서현동-26평형",
      "apt-시범한신-분당구서현동-52평형",
      "apt-시범한신-분당구서현동-40평형"
    ]
  },
  {
    "id": "apt-성원상떼뷰101동-분당구정자동",
    "name": "성원상떼뷰101동",
    "address": "경기도 성남시 분당구 정자동",
    "roadAddress": "경기도 성남시 분당구 정자일로213번길 10",
    "type": "apartment",
    "lat": 37.369765018625884,
    "lng": 127.1056402642555,
    "buildYear": 2004,
    "units": [
      "apt-성원상떼뷰101동-분당구정자동-48평형",
      "apt-성원상떼뷰101동-분당구정자동-44평형",
      "apt-성원상떼뷰101동-분당구정자동-26평형"
    ]
  },
  {
    "id": "apt-봇들마을7단지-분당구삼평동",
    "name": "봇들마을7단지",
    "address": "경기도 성남시 분당구 삼평동",
    "roadAddress": "경기도 성남시 분당구 동판교로 155",
    "type": "apartment",
    "lat": 37.3972267923047,
    "lng": 127.11465343223315,
    "buildYear": 2009,
    "units": [
      "apt-봇들마을7단지-분당구삼평동-33평형",
      "apt-봇들마을7단지-분당구삼평동-26평형"
    ]
  },